DEALDATE,DEALDATETIME,FULLADRESS,DISPLAYADRESS,GUSH,DEALNATUREDESCRIPTION,ASSETROOMNUM,FLOORNO,DEALNATURE,DEALAMOUNT,NEWPROJECTTEXT,PROJECTNAME,BUILDINGYEAR,YEARBUILT,BUILDINGFLOORS,KEYVALUE,TYPE,POLYGON_ID,TREND_IS_NEGATIVE,TREND_FORMAT,city_name,street,presentage per year,GUSH - Copy,Gush_Helka,Price per sqm,lat,lon,Year
2009-12-31,2009-12-31,"האנפה 10, ירושלים",האנפה 10,28050-39-20,דירה בבית קומות,4.0,קרקע,74.1,950000,,,1980.0,,4.0,3300728640,1,2805039,False,,ירושלים,האנפה,,28050-39-20,28050/39,12820.512820512822,31.7268291553,35.1895231729,2009
2009-12-31,2009-12-31,"זאב פלק 1, ירושלים",זאב פלק 1,29936-39-6,דירה בבית קומות,4.0,רביעית,91.9,1285000,,,2002.0,,4.0,3300083910,1,2993639,False,,ירושלים,פלק זאב,,29936-39-6,29936/39,13982.58977149075,31.7216383704,35.2210175711,2009
2009-12-31,2009-12-31,"ראובן גמזון 11, ירושלים",ראובן גמזון 11,30646-7-21,דירה בבית קומות,2.0,שניה,30.0,560000,,,1970.0,,4.0,3300048270,1,306467,False,50% ב 1.9 שנים,ירושלים,גמזון ראובן,26.32,30646-7-21,30646/7,18666.666666666668,31.8430815716,35.2385031415,2009
2009-12-31,2009-12-31,"בר כוכבא 47, ירושלים",בר כוכבא 47,30653-3-12,דירה בבית קומות,5.0,שניה,171.9,1900000,,,1980.0,,7.0,3300617250,1,306533,False,,ירושלים,בר כוכבא,,30653-3-12,30653/3,11052.937754508435,,,2009
2009-12-31,2009-12-31,"שמחת כהן 10, ירושלים",שמחת כהן 10,29937-110-16,דירה בבית קומות,4.0,קומה ‎2‏,100.2,1045000,,,2011.0,,7.0,3300228420,1,29937110,False,,ירושלים,הרב ישעיהו דולגין,,29937-110-16,29937/110,10429.141716566866,31.7202746969,35.2266432538,2009
2009-12-31,2009-12-31,"הממציא 5, ירושלים",הממציא 5,29934-53-32,דירה בבית קומות,4.0,ראשונה,94.7,1360000,,,2002.0,,8.0,3300253890,1,2993453,False,,ירושלים,הממציא,,29934-53-32,29934/53,14361.140443505808,31.7262563225,35.2219215336,2009
2009-12-31,2009-12-31,"ההגנה 22, ירושלים",ההגנה 22,30654-21-16,דירה בבית קומות,4.0,שניה,91.95,1230000,,,1970.0,,6.0,3300048990,1,3065421,False,43% ב 2.9 שנים,ירושלים,ההגנה,14.83,30654-21-16,30654/21,13376.835236541598,31.8021017631,35.2379846867,2009
2009-12-31,2009-12-31,"הדישון 21, ירושלים",הדישון 21,30454-31-39,דירה בבית קומות,2.0,שלישית,43.1,850000,,,1995.0,,4.0,3301409520,1,3045431,False,,ירושלים,הדישון,,30454-31-39,30454/31,19721.577726218096,31.7527638259,35.1814215628,2009
2009-12-31,2009-12-31,"משה חובב 4, ירושלים",משה חובב 4,30164-308-7,דירה בבית קומות,4.0,ראשונה,96.9,1800000,,,2003.0,,4.0,3300135120,1,30164308,False,,ירושלים,חובב משה,,30164-308-7,30164/308,18575.85139318885,31.7741800861,35.1871024058,2009
2009-12-31,2009-12-31,"בית הדפוס 30, ירושלים",בית הדפוס 30,30264-159-196,מלאכה,,שניה,197.3,590000,,,1970.0,,4.0,3544447590,1,30264159,False,,ירושלים,בית הדפוס,,30264-159-196,30264/159,2990.369994931576,31.7864249353,35.182859555,2009
2009-12-31,2009-12-31,"ירמיהו 16, ירושלים",ירמיהו 16,30079-9-6,דירה בבית קומות,5.0,,117.0,2053000,,,2009.0,,,3300943950,1,300799,False,,ירושלים,ירמיהו,,30079-9-6,30079/9,17547.008547008547,31.7932966439,35.2136700114,2009
2009-12-31,2009-12-31,"חכמי יוסף 18, ירושלים",חכמי יוסף 18,30195-207-20,דירה בבית קומות,4.0,רביעית,100.3,1950000,,,1989.0,,5.0,3300158850,1,30195207,False,,ירושלים,חכמי יוסף,,30195-207-20,30195/207,19441.674975074777,31.7607170575,35.1914229094,2009
2009-12-31,2009-12-31,"אהרון אשכולי 1, ירושלים",אהרון אשכולי 1,30714-6-71,דירה בבית קומות,3.0,ראשונה,65.0,1050000,,,1980.0,,4.0,3300037560,1,307146,False,55% ב 3 שנים,ירושלים,אשכולי אהרון,18.33,30714-6-71,30714/6,16153.846153846154,31.812122982,35.1945971978,2009
2009-12-31,2009-12-31,"אליעזר הגדול 6, ירושלים",אליעזר הגדול 6,30143-172-44,דירה בבית קומות,5.0,קומה ‎5‏,105.7,2265000,,,2010.0,,19.0,3300092280,1,30143172,False,,ירושלים,אליעזר הגדול,,30143-172-44,30143/172,21428.571428571428,31.7537127068,35.2055455937,2009
2009-12-31,2009-12-31,"ניות 42, ירושלים",ניות 42,30145-25-2,מחסנים,,ראשונה,100.0,124000,,,1961.0,,,3300411330,1,3014525,False,,ירושלים,ניות,,30145-25-2,30145/25,1240.0,31.7690728365,35.2044132571,2009
2009-12-31,2009-12-31,"הנטקה 48, ירושלים",הנטקה 48,30408-50-10,דירה בבית קומות,3.5,שניה,63.0,945000,,,1970.0,,2.0,3300017310,1,3040850,False,75% ב 5 שנים,ירושלים,הנטקה,15.0,30408-50-10,30408/50,15000.0,31.767698012,35.1740129934,2009
2009-12-31,2009-12-31,"יפו 216, ירושלים",יפו 216,30075-165-92,חנות,,קרקע,51.6,590000,,,1995.0,,10.0,3301272630,1,30075165,True,-20% ב 4.1 שנים,ירושלים,יפו,-4.88,30075-165-92,30075/165,11434.108527131782,31.7892728348,35.2053590607,2009
2009-12-30,2009-12-30,"הגומא 451, ירושלים",הגומא 451,28051-50-5,דירה בבית קומות,5.0,שלישית ורביעית,105.3,1480000,,,1980.0,,3.0,3300184800,1,2805150,False,15% ב 1.7 שנים,ירושלים,הגומא,8.82,28051-50-5,28051/50,14055.080721747388,31.7362992181,35.1901574971,2009
2009-12-30,2009-12-30,"הרב חסדאי קרשקש 9, ירושלים",הרב חסדאי קרשקש 9,29937-93-55,דירה בבית קומות,5.0,שלישית,128.8,1658000,,,2008.0,,3.0,3300094020,1,2993793,False,,ירושלים,הרב חסדאי קרשקש,,29937-93-55,29937/93,12872.670807453414,31.7199946687,35.22395404,2009
2009-12-30,2009-12-30,"יהודה ליאו פיקרד 14, ירושלים",יהודה ליאו פיקרד 14,29935-61-72,דירה בבית קומות,5.0,חמישית,129.19,1700000,,,2002.0,,5.0,3300040080,1,2993561,False,,ירושלים,פיקרד לאו,,29935-61-72,29935/61,13158.913228578063,31.7258434149,35.2228897205,2009
2009-12-30,2009-12-30,"שמואל הנביא 5, ירושלים",שמואל הנביא 5,30102-142-19,דירה בבית קומות,4.0,שניה,63.0,1075000,,,1960.0,,4.0,3300122700,1,30102142,False,,ירושלים,שמואל הנביא,,30102-142-19,30102/142,17063.492063492064,31.7955134911,35.2214660171,2009
2009-12-30,2009-12-30,"שושנה 16, ירושלים",שושנה 16,30153-37-11,דירה בבית קומות,3.0,שניה,43.0,1250000,,,1960.0,,3.0,3300334560,1,3015337,False,65% ב 2 שנים,ירושלים,שושנה,32.5,30153-37-11,30153/37,29069.767441860466,31.7845001221,35.195088141,2009
2009-12-30,2009-12-30,"צבי מסליאנסקי 2, ירושלים",צבי מסליאנסקי 2,30710-3-4,דירה בבית קומות,4.0,קרקע ראשונה,125.0,1550000,,,1990.0,,2.0,3300048750,1,307103,False,,ירושלים,מסליאנסקי צבי,,30710-3-4,30710/3,12400.0,31.8173727978,35.1888774739,2009
2009-12-30,2009-12-30,"הרב ניסים יצחק 5, ירושלים",הרב ניסים יצחק 5,29935-66-11,דירה בבית קומות,3.0,רביעית,71.39,950000,,,2000.0,,4.0,3300319020,1,2993566,False,,ירושלים,הרב ניסים יצחק,,29935-66-11,29935/66,13307.185880375402,31.7262614157,35.2233014528,2009
2009-12-30,2009-12-30,"בית הכרם 23, ירושלים",בית הכרם 23,30149-5-11,דירה בבית קומות,4.0,שניה,121.2,1136000,,,1960.0,,2.0,3300028710,1,301495,False,,ירושלים,גבעת בית הכרם,,30149-5-11,30149/5,9372.937293729372,31.7802564256,35.1899891816,2009
2009-12-30,2009-12-30,"לוחמי הגטאות 7, ירושלים",לוחמי הגטאות 7,30655-27-24,דירה בבית קומות,3.0,קרקע,62.9,758000,,,1970.0,,8.0,3300000690,1,3065527,False,,ירושלים,לוחמי הגטאות,,30655-27-24,30655/27,12050.87440381558,31.8013410369,35.2395716376,2009
2009-12-30,2009-12-30,"בית הכרם 23, ירושלים",בית הכרם 23,30149-5-11,דירה בבית קומות,4.0,שניה,121.2,1136000,,,1960.0,,2.0,3300028710,1,301495,False,,ירושלים,בית הכרם,,30149-5-11,30149/5,9372.937293729372,31.7802564256,35.1899891816,2009
2009-12-30,2009-12-30,"חיים הלר 1, ירושלים",חיים הלר 1,30183-159-21,דירה בבית קומות,4.0,חמישית,96.1,1440000,,,1970.0,,7.0,3275383200,1,30183159,False,,ירושלים,הלר חיים,,30183-159-21,30183/159,14984.3912591051,,,2009
2009-12-30,2009-12-30,"יפו 34, ירושלים",יפו 34,30051-13-0,משרד,,שלישית,1330.0,18650000,,,1960.0,,3.0,3300811020,1,3005113,False,,ירושלים,יפו,,30051-13-0,30051/13,14022.556390977445,31.7813389901,35.2211105334,2009
2009-12-30,2009-12-30,"הלוט 43, ירושלים",הלוט 43,28047-10-3,דירה בבית קומות,4.0,ראשונה,73.5,805000,,,1980.0,,3.0,3300021540,1,2804710,False,32% ב 10.1 שנים,ירושלים,הלוט,3.17,28047-10-3,28047/10,10952.380952380952,31.7352835049,35.2019054912,2009
2009-12-29,2009-12-29,"הרב עוזיאל 75, ירושלים",הרב עוזיאל 75,30166-242-8,דירה בבית קומות,3.5,ראשונה,79.39,1800000,,,1970.0,,8.0,3300081420,1,30166242,False,,ירושלים,הרב עוזיאל,,30166-242-8,30166/242,22672.880715455347,31.7667194773,35.185936676,2009
2009-12-29,2009-12-29,"הגדוד העברי 18, ירושלים",הגדוד העברי 18,30009-25-3,דירה בבית קומות,2.0,קרקע תחתונה,43.0,1250000,,,1960.0,,2.0,3300073980,1,3000925,False,,ירושלים,הגדוד העברי,,30009-25-3,30009/25,29069.767441860466,31.7666719844,35.2139712745,2009
2009-12-29,2009-12-29,"סירני 20, ירושלים",סירני 20,30414-32-3,דירה בבית קומות,3.0,שניה,51.0,950000,,,1980.0,,2.0,3275380230,1,3041432,False,,ירושלים,סירני,,30414-32-3,30414/32,18627.45098039216,31.7604061218,35.174633341,2009
2009-12-29,2009-12-29,"כובשי קטמן 26, ירושלים",כובשי קטמן 26,30007-166-2,דירה בבית קומות,4.0,,90.0,2071000,,,1982.0,,,3300053430,1,30007166,False,,ירושלים,כובשי קטמון,,30007-166-2,30007/166,23011.11111111111,31.7631904776,35.212694917,2009
2009-12-29,2009-12-29,"נחל צין 1, ירושלים",נחל צין 1,30100-183-16,דירה בבית קומות,3.0,רביעית,69.8,1260000,,,1970.0,,5.0,3300148260,1,30100183,False,,ירושלים,נחל צין,,30100-183-16,30100/183,18051.57593123209,31.7997756508,35.2236273369,2009
2009-12-29,2009-12-29,"שמגר 16, ירושלים",שמגר 16,30079-178-40,דירה בבית קומות,6.0,,150.0,2653000,,,2003.0,,6.0,3300157590,1,30079178,False,,ירושלים,שמגר,,30079-178-40,30079/178,17686.666666666668,31.7946915582,35.2085243935,2009
2009-12-29,2009-12-29,"יד חרוצים 3, ירושלים",יד חרוצים 3,30001-47-33,דירה בבית קומות,3.0,שישית,66.75,1850000,,,2004.0,,11.0,3300075720,1,3000147,False,65% ב 5.7 שנים,ירושלים,יד חרוצים,11.4,30001-47-33,30001/47,27715.35580524345,31.7539987349,35.2176005317,2009
2009-12-29,2009-12-29,"אורוגואי 13, ירושלים",אורוגואי 13,30413-66-8,דירה בבית קומות,2.5,שניה,51.65,850000,,,1950.0,,3.0,3275353020,1,3041366,False,,ירושלים,אורוגואי,,30413-66-8,30413/66,16456.921587608907,31.758793598,35.1768864617,2009
2009-12-29,2009-12-29,"מנחם גלרנטר 20, ירושלים",מנחם גלרנטר 20,29937-53-50,דירה בבית קומות,5.0,חמישית,110.0,1365000,,,2007.0,,6.0,3300147000,1,2993753,False,,ירושלים,גלרנטר מנחם,,29937-53-50,29937/53,12409.09090909091,31.7216147241,35.2230437315,2009
2009-12-29,2009-12-29,"חזקיהו המלך 36, ירושלים",חזקיהו המלך 36,30006-69-1,דירה בבית קומות,6.0,קרקע,131.0,3868000,,,1948.0,,1.0,3300513780,1,3000669,False,,ירושלים,חזקיהו המלך,,30006-69-1,30006/69,29526.717557251908,31.761715707,35.210087544,2009
2009-12-29,2009-12-29,"בורוכוב 57, ירושלים",בורוכוב 57,30398-65-5,דירה בבית קומות,3.0,שלישית,42.65,1235000,,,1960.0,,3.0,3275358480,1,3039865,False,82% ב 11.5 שנים,ירושלים,בורוכוב,7.13,30398-65-5,30398/65,28956.62368112544,31.7628310085,35.17382012,2009
2009-12-29,2009-12-29,"סיירת דוכיפת 11, ירושלים",סיירת דוכיפת 11,30659-2-15,דירה בבית קומות,4.0,שלישית,84.21,800000,,,1980.0,,3.0,3275388180,1,306592,False,,ירושלים,סיירת דוכיפת,,30659-2-15,30659/2,9500.059375371096,31.8256923196,35.241225306,2009
2009-12-29,2009-12-29,"מעשה חשוב 10, ירושלים",מעשה חשוב 10,30187-9-30,משרד,,שניה,84.0,777000,,,1990.0,,3.0,3300468750,1,301879,False,,ירושלים,מעשה חושב,,30187-9-30,30187/9,9250.0,31.751814602,35.2166265338,2009
2009-12-29,2009-12-29,"יהודה הנשיא 1, ירושלים",יהודה הנשיא 1,30171-203-7,דירה בבית קומות,4.0,שניה,80.0,1220000,,,1950.0,,2.0,3300382860,1,30171203,False,,ירושלים,יהודה הנשיא,,30171-203-7,30171/203,15250.0,31.7563139279,35.1989259462,2009
2009-12-28,2009-12-28,"אבשלום חביב 2, ירושלים",אבשלום חביב 2,30207-4-15,דירה בבית קומות,3.0,ראשונה,75.0,875000,,,1970.0,,5.0,3275368170,1,302074,False,,ירושלים,חביב אבשלום,,30207-4-15,30207/4,11666.666666666666,31.7518759531,35.2369210192,2009
2009-12-28,2009-12-28,"עמינדב 12, ירושלים",עמינדב 12,30018-49-3,דירה בבית קומות,5.0,,149.0,3232000,,,2001.0,,1.0,3300160800,1,3001849,False,,ירושלים,עמינדב,,30018-49-3,30018/49,21691.27516778524,31.765573147,35.2271233924,2009
2009-12-28,2009-12-28,"רמת הגולן 63, ירושלים",רמת הגולן 63,30245-196-25,דירה בבית קומות,3.0,ראשונה,72.9,1137000,,,1970.0,,4.0,3275348070,1,30245196,False,,ירושלים,רמת הגולן,,30245-196-25,30245/196,15596.70781893004,31.8012035498,35.2241094636,2009
2009-12-28,2009-12-28,"אברהם שטרן 47, ירושלים",אברהם שטרן 47,30415-136-22,דירה בבית קומות,3.0,חמישית,54.0,700000,,,1970.0,,8.0,3275347320,1,30415136,False,,ירושלים,שטרן אברהם,,30415-136-22,30415/136,12962.962962962964,31.7533311932,35.1764863904,2009
2009-12-28,2009-12-28,"נתן שלם 1, ירושלים",נתן שלם 1,30163-45-47,דירה בבית קומות,4.0,קוטג',85.04,2530000,,,1950.0,,2.0,3300669480,1,3016345,False,24% ב 1.8 שנים,ירושלים,שלם נתן,13.33,30163-45-47,30163/45,29750.70555032925,31.7795213259,35.1883320593,2009
2009-12-28,2009-12-28,"מוריס פישר 17, ירושלים",מוריס פישר 17,30501-24-20,דירה בבית קומות,3.0,ראשונה,69.3,1000000,,,1970.0,,3.0,3275344110,1,3050124,False,,ירושלים,פישר מוריס,,30501-24-20,30501/24,14430.014430014431,31.7504756344,35.2008481242,2009
2009-12-28,2009-12-28,"אלבק חנוך 13, ירושלים",אלבק חנוך 13,30112-35-19,דירה בבית קומות,3.0,שניה,88.0,1275000,,,1970.0,,3.0,3300450390,1,3011235,False,,ירושלים,אלבק חנוך,,30112-35-19,30112/35,14488.636363636364,31.758979764,35.2255247759,2009
2009-12-28,2009-12-28,"גואטמאלה 3, ירושלים",גואטמאלה 3,30413-83-149,דירה בבית קומות,2.0,רביעית,49.0,900000,,,1993.0,,10.0,3300382410,1,3041383,False,,ירושלים,גואטמאלה,,30413-83-149,30413/83,18367.34693877551,31.7605160849,35.1775239406,2009
2009-12-28,2009-12-28,"הורקניה 10, ירושלים",הורקניה 10,30123-9-15,דירה בבית קומות,3.0,שניה,61.0,1137000,,,1970.0,,3.0,3300233880,1,301239,False,69% ב 7.3 שנים,ירושלים,הורקניה,9.45,30123-9-15,30123/9,18639.34426229508,31.756702525,35.2024587436,2009
2009-12-28,2009-12-28,"חרל""פ 36, ירושלים","חרל""פ 36",30023-2-9,דירה בבית קומות,3.5,שניה,70.0,1835000,,,1960.0,,2.0,3300084150,1,300232,False,18% ב 2.8 שנים,ירושלים,"חרל""פ",6.43,30023-2-9,30023/2,26214.285714285717,31.7691646059,35.2114688263,2009
2009-12-28,2009-12-28,"בית לחם 119, ירושלים",בית לחם 119,30092-1-46,דירה בבית קומות,2.0,ראשונה,27.5,567000,,,1960.0,,4.0,3300204900,1,300921,False,,ירושלים,בית לחם,,30092-1-46,30092/1,20618.18181818182,31.7478463679,35.2169952973,2009
2009-12-27,2009-12-27,"תל חי 20, ירושלים",תל חי 20,30009-116-8,דירה בבית קומות,3.0,שלישית,44.0,1404000,,,1950.0,,3.0,3300514260,1,30009116,False,,ירושלים,תל חי,,30009-116-8,30009/116,31909.090909090908,31.7631947509,35.2131070479,2009
2009-12-27,2009-12-27,"אצ""ל 12, ירושלים","אצ""ל 12",30654-55-8,דירה בבית קומות,3.0,רביעית,64.4,1020000,,,1970.0,,8.0,3275320110,1,3065455,False,57% ב 2.7 שנים,ירושלים,"אצ""ל",21.11,30654-55-8,30654/55,15838.509316770183,31.802254358,35.2349160475,2009
2009-12-27,2009-12-27,"אלי תבין 22, ירושלים",אלי תבין 22,30542-41-12,דירה בבית קומות,3.0,,75.0,990000,,,2000.0,,6.0,3275360430,1,3054241,False,,ירושלים,תבין אלי,,30542-41-12,30542/41,13200.0,31.8171286073,35.2410442724,2009
2009-12-27,2009-12-27,"גואטמאלה 23, ירושלים",גואטמאלה 23,30413-77-12,דירה בבית קומות,3.0,שישית,55.1,735000,,,1970.0,,7.0,3275320350,1,3041377,False,,ירושלים,גואטמאלה,,30413-77-12,30413/77,13339.382940108891,31.7565589307,35.1789252709,2009
2009-12-27,2009-12-27,"יהושע בן-נון 28, ירושלים",יהושע בן-נון 28,30004-82-8,דירה בבית קומות,3.0,רביעית,59.12,1070000,,,1950.0,,4.0,3300223200,1,3000482,False,86% ב 6.6 שנים,ירושלים,יהושע בן נון,13.03,30004-82-8,30004/82,18098.78213802436,31.7605460181,35.2141182065,2009
2009-12-25,2009-12-25,"הסדנה 5, ירושלים",הסדנה 5,30140-8-9,תעשיה,,,140.0,579999,,,1970.0,,4.0,3275340360,1,301408,False,,ירושלים,הסדנא,,30140-8-9,30140/8,4142.85,31.7497252664,35.2142825682,2009
2009-12-24,2009-12-24,"הרב עוזיאל 127, ירושלים",הרב עוזיאל 127,30341-235-1,דירה בבית קומות,3.0,ה' תחתונה,58.8,1417000,,,1970.0,,8.0,3275339400,1,30341235,False,21% ב 3.5 שנים,ירושלים,הרב עוזיאל,6.0,30341-235-1,30341/235,24098.639455782315,31.7634622682,35.1895071493,2009
2009-12-24,2009-12-24,"בלפור 4, ירושלים",בלפור 4,30026-50-2,דירה בבית קומות,6.0,,220.0,14790000,,,2009.0,,1.0,3300357150,1,3002650,False,,ירושלים,בלפור,,30026-50-2,30026/50,67227.27272727272,31.7735463367,35.2168710565,2009
2009-12-24,2009-12-24,"בלפור 4, ירושלים",בלפור 4,30026-50-1,דירה בבית קומות,5.0,שניה,230.0,11315000,,,2009.0,,1.0,3300654390,1,3002650,False,,ירושלים,בלפור,,30026-50-1,30026/50,49195.65217391304,31.7735463367,35.2168710565,2009
2009-12-24,2009-12-24,"אצ""ל 8, ירושלים","אצ""ל 8",30654-54-10,דירה בבית קומות,3.0,רביעית,64.4,1125000,,,1970.0,,8.0,3275313630,1,3065454,False,62% ב 7.6 שנים,ירושלים,"אצ""ל",8.16,30654-54-10,30654/54,17468.94409937888,31.8027600891,35.2352047214,2009
2009-12-24,2009-12-24,"אריה מקלף 7, ירושלים",אריה מקלף 7,30312-34-1,דירה בבית קומות,4.5,,105.0,2190000,,,1960.0,,,3275289150,1,3031234,False,,ירושלים,מקלף אריה,,30312-34-1,30312/34,20857.14285714286,31.7919353656,35.1678457957,2009
2009-12-24,2009-12-24,"בלפור 4, ירושלים",בלפור 4,30026-50-3,דירה בבית קומות,5.0,ראשונה,250.0,12160000,,,2009.0,,1.0,3300649680,1,3002650,False,,ירושלים,בלפור,,30026-50-3,30026/50,48640.0,31.7735463367,35.2168710565,2009
2009-12-24,2009-12-24,"גד 13, ירושלים",גד 13,30001-34-71,דירה בבית קומות,3.0,שלישית,58.1,860000,,,1960.0,,4.0,3300180360,1,3000134,False,,ירושלים,גד,,30001-34-71,30001/34,14802.065404475044,31.7550276287,35.2182227289,2009
2009-12-24,2009-12-24,"פרבשטיין 6, ירושלים",פרבשטיין 6,30153-148-13,דירה בבית קומות,3.0,שניה,53.0,1030000,,,2024.0,,3.0,3275389440,1,30153148,False,,ירושלים,פרבשטיין,,30153-148-13,30153/148,19433.962264150945,31.7835841951,35.1920644056,2009
2009-12-24,2009-12-24,"תלמודי אברהם 14, ירושלים",תלמודי אברהם 14,30085-22-6,דירה בבית קומות,6.0,שניה,153.0,1600000,,,1960.0,,2.0,3275334960,1,3008522,False,,ירושלים,תלמודי אברהם,,30085-22-6,30085/22,10457.51633986928,31.7923962518,35.2200610996,2009
2009-12-24,2009-12-24,"תל חי 2, ירושלים",תל חי 2,30009-77-1,דירה בבית קומות,5.0,ראשונה,194.0,4499000,,,2010.0,,,3300682380,1,3000977,False,,ירושלים,תל חי,,30009-77-1,30009/77,23190.72164948453,31.7658023764,35.2134893815,2009
2009-12-24,2009-12-24,"רבנו פוליטי 11, ירושלים",רבנו פוליטי 11,30139-250-4,דירה בבית קומות,5.0,ראשונה ושניה,120.5,2280000,,,1980.0,,1.0,3300289530,1,30139250,False,23% ב 2.6 שנים,ירושלים,רבנו פוליטי,8.85,30139-250-4,30139/250,18921.16182572614,31.7474509295,35.2192375299,2009
2009-12-23,2009-12-23,"המהר""ל מפראג 24, ירושלים","המהר""ל מפראג 24",29939-36-43,דירה בבית קומות,5.0,קרקע,110.77,1485000,,,2008.0,,7.0,3300449460,1,2993936,False,,ירושלים,"המהר""ל מפראג",,29939-36-43,29939/36,13406.156901688184,31.7209904197,35.2262146707,2009
2009-12-23,2009-12-23,"קדימה 41, ירושלים",קדימה 41,30733-7-18,דירה בבית קומות,4.0,ראשונה,99.5,1290000,,,1980.0,,4.0,3300105660,1,307337,False,,ירושלים,קדימה,,30733-7-18,30733/7,12964.824120603014,31.8144983652,35.1973260325,2009
2009-12-23,2009-12-23,"בית וגן 47, ירושלים",בית וגן 47,30166-7-1,דירה בבית קומות,2.0,קרקע,50.0,1160000,,,1970.0,,2.0,3275347080,1,301667,False,,ירושלים,בית וגן,,30166-7-1,30166/7,23200.0,31.7686884374,35.1852706381,2009
2009-12-23,2009-12-23,"האייל 81, ירושלים",האייל 81,30453-8-12,דירה בבית קומות,6.0,ראשונה ושניה,122.6,2100000,,,1990.0,,11.0,3300385380,1,304538,False,,ירושלים,האייל,,30453-8-12,30453/8,17128.874388254488,31.7494593062,35.1801116671,2009
2009-12-23,2009-12-23,"יפה רום 87, ירושלים",יפה רום 87,28051-33-14,דירה בבית קומות,4.0,שלישית,86.35,1050000,,,1982.0,,4.0,3300183090,1,2805133,False,23% ב 1.5 שנים,ירושלים,יפה רום,15.33,28051-33-14,28051/33,12159.814707585409,31.7341349689,35.1886999268,2009
2009-12-23,2009-12-23,"הדולב 3, ירושלים",הדולב 3,28051-32-24,דירה בבית קומות,4.0,קרקע,78.4,1125000,,,1980.0,,2.0,3275261940,1,2805132,False,,ירושלים,הדולב,,28051-32-24,28051/32,14349.489795918364,31.7336633142,35.1886984635,2009
2009-12-23,2009-12-23,"הקבלן 3, ירושלים",הקבלן 3,30333-39-3,דירה בבית קומות,4.0,קרקע,97.62,1840000,,,1986.0,,4.0,3275387940,1,3033339,False,,ירושלים,הקבלן,,30333-39-3,30333/39,18848.596599057568,31.7871999966,35.1752152666,2009
2009-12-23,2009-12-23,"יצחק ברויאר 9, ירושלים",יצחק ברויאר 9,30342-97-2,דירה בבית קומות,4.0,,95.0,1690000,,,1950.0,,3.0,3300208170,1,3034297,False,,ירושלים,ברויאר יצחק,,30342-97-2,30342/97,17789.473684210527,31.7662302856,35.1832942102,2009
2009-12-23,2009-12-23,"עזה 64, ירושלים",עזה 64,30025-165-9,דירה בבית קומות,2.0,ראשונה,48.0,955000,,,1950.0,,3.0,3275350050,1,30025165,False,,ירושלים,עזה,,30025-165-9,30025/165,19895.83333333333,31.770446997,35.2116494851,2009
2009-12-23,2009-12-23,"הרצל 18, ירושלים",הרצל 18,30138-35-23,דירה בבית קומות,3.0,קרקע,63.0,1300000,,,1950.0,,3.0,3300501900,1,3013835,False,99% ב 2.7 שנים,ירושלים,הרצל,36.67,30138-35-23,30138/35,20634.92063492064,,,2009
2009-12-23,2009-12-23,"רבקה 7, ירושלים",רבקה 7,30001-50-112,דירה בבית קומות,4.0,שישית,84.6,1365000,,,1970.0,,8.0,3300197220,1,3000150,False,,ירושלים,רבקה,,30001-50-112,30001/50,16134.751773049646,31.7538968709,35.2186954593,2009
2009-12-23,2009-12-23,"האחות זלמה 24, ירושלים",האחות זלמה 24,30424-26-19,דירה בבית קומות,3.0,שלישית,67.9,1250000,,,1980.0,,4.0,3275318610,1,3042426,False,,ירושלים,האחות זלמה,,30424-26-19,30424/26,18409.42562592047,31.7486957005,35.1690160727,2009
2009-12-23,2009-12-23,"בוסתנאי 33, ירושלים",בוסתנאי 33,30007-167-36,דירה בבית קומות,2.0,שניה,28.87,420000,,,1960.0,,2.0,3275380980,1,30007167,False,,ירושלים,בוסתנאי,,30007-167-36,30007/167,14547.973675095254,31.7630272524,35.2123370712,2009
2009-12-23,2009-12-23,"המהר""ל מפראג 22, ירושלים","המהר""ל מפראג 22",29939-36-9,דירה בבית קומות,4.0,קרקע,89.32,1160000,,,2008.0,,7.0,3300450630,1,2993936,False,,ירושלים,"המהר""ל מפראג",,29939-36-9,29939/36,12987.012987012988,31.7209904197,35.2262146707,2009
2009-12-23,2009-12-23,"מרדכי בוקסבוים 4, ירושלים",מרדכי בוקסבוים 4,30563-18-6,דירה בבית קומות,3.0,שניה,72.25,1360000,,,1984.0,,2.0,3275274300,1,3056318,False,,ירושלים,בוקסבאום מרדכי,,30563-18-6,30563/18,18823.529411764703,31.8108897954,35.2206928367,2009
2009-12-22,2009-12-22,"דיזרעאלי 3, ירושלים",דיזרעאלי 3,30021-36-17,דירה בבית קומות,2.0,שניה,44.0,1400000,,,1950.0,,3.0,3275301810,1,3002136,False,88% ב 11.8 שנים,ירושלים,דישראלי,7.46,30021-36-17,30021/36,31818.18181818182,31.7700270353,35.217710183,2009
2009-12-22,2009-12-22,"מעגלות הרב פרדס 416, ירושלים",מעגלות הרב פרדס 416,30644-17-29,דירה בבית קומות,4.0,שלישית,74.0,960000,,,1970.0,,4.0,3275258430,1,3064417,False,,ירושלים,מעגלות הרב פרדס,,30644-17-29,30644/17,12972.972972972972,31.8401682595,35.2457702047,2009
2009-12-22,2009-12-22,"בורוכוב 57, ירושלים",בורוכוב 57,30398-65-18,דירה בבית קומות,3.0,שלישית,42.65,1100000,,,1960.0,,3.0,3300037350,1,3039865,False,68% ב 5.5 שנים,ירושלים,בורוכוב,12.36,30398-65-18,30398/65,25791.324736225088,31.7628310085,35.17382012,2009
2009-12-22,2009-12-22,"קורא הדורות 5, ירושלים",קורא הדורות 5,30115-73-4,דירה בבית קומות,4.0,שניה,78.0,1379000,,,1960.0,,3.0,3275312670,1,3011573,False,,ירושלים,קורא הדורות,,30115-73-4,30115/73,17679.48717948718,31.7519267306,35.223142893,2009
2009-12-22,2009-12-22,"מנדלי מוכר ספרים 8, ירושלים",מנדלי מוכר ספרים 8,30027-56-5,דירה בבית קומות,2.0,קרקע,60.0,1558000,,,1930.0,,2.0,3275247120,1,3002756,False,,ירושלים,מנדלי מוכר ספרים,,30027-56-5,30027/56,25966.666666666668,31.7722034015,35.2201255089,2009
2009-12-22,2009-12-22,"הניידות 33, ירושלים",הניידות 33,30659-8-1,דירה בבית קומות,6.5,קרקע וראשונה,121.05,1550000,,,1985.0,,2.0,3275354250,1,306598,False,,ירושלים,הניידות,,30659-8-1,30659/8,12804.626187525815,31.8264383804,35.2418059689,2009
2009-12-22,2009-12-22,"שאול אביגור 40, ירושלים",שאול אביגור 40,29935-44-5,דירה בבית קומות,4.0,שניה,88.85,1195000,,,2003.0,,4.0,3300027960,1,2993544,False,,ירושלים,אביגור שאול,,29935-44-5,29935/44,13449.63421496905,31.7246328457,35.2230121419,2009
2009-12-22,2009-12-22,"אצ""ל 7, ירושלים","אצ""ל 7",30654-6-16,דירה בבית קומות,4.0,שניה,93.0,1350000,,,1970.0,,6.0,3275246880,1,306546,False,59% ב 10.5 שנים,ירושלים,"אצ""ל",5.62,30654-6-16,30654/6,14516.129032258064,31.8025377914,35.236282385,2009
2009-12-21,2009-12-21,"קדושת אהרון 8, ירושלים",קדושת אהרון 8,30299-38-4,דירה בבית קומות,4.0,,100.0,1486000,,,1960.0,,1.0,3300049740,1,3029938,False,,ירושלים,קדושת אהרון,,30299-38-4,30299/38,14860.0,31.7967891524,35.2088058061,2009
2009-12-21,2009-12-21,"הרב ניסים יצחק 69, ירושלים",הרב ניסים יצחק 69,29937-41-80,דירה בבית קומות,4.0,ראשונה,89.05,1295000,,,2000.0,,7.0,3275239920,1,2993741,False,22% ב 0.9 שנים,ירושלים,הרב ניסים יצחק,24.44,29937-41-80,29937/41,14542.391914654689,31.7227424706,35.2215935355,2009
2009-12-21,2009-12-21,"אברהם שטרן 31, ירושלים",אברהם שטרן 31,30415-229-8,דירה בבית קומות,3.0,שלישית,56.0,750000,,,1960.0,,9.0,3275239470,1,30415229,False,,ירושלים,שטרן אברהם,,30415-229-8,30415/229,13392.857142857143,31.7528359046,35.1790424198,2009
2009-12-21,2009-12-21,"משה שרת 10, ירושלים",משה שרת 10,30193-58-1,דירה בבית קומות,5.0,שניה,132.9,2370000,,,1998.0,,6.0,3275237430,1,3019358,False,,ירושלים,שרת משה,,30193-58-1,30193/58,17832.95711060948,31.7560712121,35.1866444692,2009
2009-12-21,2009-12-21,"המאירי 8, ירושלים",המאירי 8,30153-18-1,דירה בבית קומות,3.0,מרתף,50.0,920000,,,1950.0,,3.0,3275258970,1,3015318,False,,ירושלים,המאירי,,30153-18-1,30153/18,18400.0,31.7859037843,35.1948640945,2009
2009-12-21,2009-12-21,"בלפור 5, ירושלים",בלפור 5,30027-7-2,דירה בבית קומות,1.5,ראשונה,33.0,900000,,,1950.0,,4.0,3300448230,1,300277,False,,ירושלים,בלפור,,30027-7-2,30027/7,27272.727272727272,31.7732042876,35.217359893,2009
2009-12-21,2009-12-21,"סן מרטין 1, ירושלים",סן מרטין 1,30169-9-51,דירה בבית קומות,2.0,רביעית,50.0,850000,,,1960.0,,5.0,3300312060,1,301699,False,,ירושלים,סן מרטין,,30169-9-51,30169/9,17000.0,31.7564308876,35.1951839023,2009
2009-12-21,2009-12-21,"מולכו 3, ירושלים",מולכו 3,30026-86-3,דירה בבית קומות,3.0,ביניים,65.0,1805000,,,1960.0,,5.0,3300342000,1,3002686,False,40% ב 3.6 שנים,ירושלים,מולכו,11.11,30026-86-3,30026/86,27769.23076923077,31.7720246016,35.2155618556,2009
2009-12-21,2009-12-21,"בנין 2, ירושלים",בנין 2,30185-170-50,דירה בבית קומות,5.0,ראשונה,141.0,3050000,,,1980.0,,7.0,3275240400,1,30185170,False,,ירושלים,בנין,,30185-170-50,30185/170,21631.205673758865,31.7634361945,35.203904644,2009
2009-12-21,2009-12-21,"נופך 7, ירושלים",נופך 7,28049-13-102,דירה בבית קומות,3.0,ראשונה,68.3,820000,,,1980.0,,3.0,3275289630,1,2804913,False,119% ב 7.7 שנים,ירושלים,נופך,15.45,28049-13-102,28049/13,12005.856515373353,31.7311403392,35.1944368626,2009
2009-12-20,2009-12-20,"שלמה בן-יוסף 51, ירושלים",שלמה בן-יוסף 51,30204-38-7,דירה בבית קומות,3.0,קרקע,56.0,825000,,,1981.0,,3.0,3275199840,1,3020438,False,,ירושלים,בן יוסף שלמה,,30204-38-7,30204/38,14732.142857142857,31.7496120249,35.2349349131,2009
2009-12-20,2009-12-20,"ששת הימים 4, ירושלים",ששת הימים 4,30246-4-14,דירה בבית קומות,3.5,שניה,79.5,1480000,,,1970.0,,3.0,3275286660,1,302464,False,,ירושלים,ששת הימים,,30246-4-14,30246/4,18616.35220125786,31.8013473729,35.2305406652,2009
2009-12-20,2009-12-20,"יעקב ונחמה אבן חן 9, ירושלים",יעקב ונחמה אבן חן 9,29935-98-11,דירה בבית קומות,5.0,שישית,115.2,1840000,,,2009.0,,,3300758790,1,2993598,False,,ירושלים,אבן חן יעקב,,29935-98-11,29935/98,15972.222222222224,31.7249043354,35.2258796268,2009
2009-12-20,2009-12-20,"שמגר 21, ירושלים",שמגר 21,30236-146-66,דירה בבית קומות,3.0,שישית,37.4,1210000,,,2014.0,,16.0,3275297580,1,30236146,False,,ירושלים,שמגר,,30236-146-66,30236/146,32352.94117647059,31.7945371234,35.2077155037,2009
2009-12-20,2009-12-20,"חנה בבלי 36, ירושלים",חנה בבלי 36,30590-380-1,דירה בבית קומות,6.0,,140.0,3100000,,,2000.0,,,3275246640,1,30590380,False,,ירושלים,בבלי חנה,,30590-380-1,30590/380,22142.85714285714,31.8200097875,35.2585847798,2009
2009-12-20,2009-12-20,"המרפא 1, ירושלים",המרפא 1,30241-105-1,חנות,,ראשונה,5500.0,40000000,,,1990.0,,1.0,3300342540,1,30241105,False,,ירושלים,המרפא,,30241-105-1,30241/105,7272.727272727273,31.8004623898,35.2119119681,2009
2009-12-20,2009-12-20,"רחובות הבוכרים 3, ירושלים",רחובות הבוכרים 3,30085-107-5,דירה בבית קומות,1.0,ראשונה,24.3,250000,,,2010.0,,3.0,3275317590,1,30085107,False,,ירושלים,רחובות הבוכרים,,30085-107-5,30085/107,10288.065843621398,31.7905818381,35.2209158774,2009
2009-12-20,2009-12-20,"רבקה 10, ירושלים",רבקה 10,30001-38-1,דירה בבית קומות,3.0,קרקע,51.0,1325000,,,1960.0,,2.0,3275307990,1,3000138,False,,ירושלים,רבקה,,30001-38-1,30001/38,25980.392156862745,31.7547064572,35.2187710741,2009
2009-12-20,2009-12-20,"גרמי ציון 12, ירושלים",גרמי ציון 12,30590-300-15,דירה בבית קומות,4.0,,87.0,1450000,,,1986.0,,4.0,3275279040,1,30590300,False,,ירושלים,גרמי ציון,,30590-300-15,30590/300,16666.666666666668,31.8193670111,35.2567346034,2009
2009-12-17,2009-12-17,"רחובות הבוכרים 20, ירושלים",רחובות הבוכרים 20,30084-110-6,דירה בבית קומות,5.0,קרקע,110.0,1216000,,,2012.0,,9.0,3275317830,1,30084110,False,,ירושלים,רחובות הבוכרים,,30084-110-6,30084/110,11054.545454545454,31.7931536763,35.2175086621,2009
2009-12-17,2009-12-17,"המגיד 5, ירושלים",המגיד 5,30012-46-4,דירה בבית קומות,2.0,,30.0,888000,,,1950.0,,1.0,3300080400,1,3001246,False,,ירושלים,המגיד,,30012-46-4,30012/46,29600.0,31.7653888531,35.220126339,2009
2009-12-17,2009-12-17,"שבו 1, ירושלים",שבו 1,28053-37-1,דירה בבית קומות,3.0,קרקע תחתונה,81.1,990000,,,1980.0,,3.0,3275295870,1,2805337,False,,ירושלים,שבו,,28053-37-1,28053/37,12207.15166461159,31.7315540055,35.1855274126,2009
2009-12-17,2009-12-17,"הרצל 42, ירושלים",הרצל 42,30153-56-9,דירה בבית קומות,4.0,שלישית,63.0,1230000,,,1960.0,,3.0,3300209640,1,3015356,False,,ירושלים,הרצל,,30153-56-9,30153/56,19523.809523809523,31.7838799456,35.1955113139,2009
2009-12-17,2009-12-17,"ביאליק 14, ירושלים",ביאליק 14,30163-78-8,דירה בבית קומות,4.0,שניה,83.0,1500000,,,1960.0,,2.0,3275382960,1,3016378,False,,ירושלים,ביאליק,,30163-78-8,30163/78,18072.289156626503,31.7785322928,35.1889204835,2009
2009-12-17,2009-12-17,"נגבה 3, ירושלים",נגבה 3,30007-126-7,דירה בבית קומות,3.0,שניה,49.12,1500000,,,1967.0,,2.0,3275231730,1,30007126,False,55% ב 3.7 שנים,ירושלים,נגבה,14.86,30007-126-7,30007/126,30537.459283387623,31.7632879084,35.2116959613,2009
2009-12-16,2009-12-16,"חברון 130, ירושלים",חברון 130,30187-36-21,דירה בבית קומות,3.0,שניה,48.2,675000,,,1960.0,,3.0,3275211480,1,3018736,False,23% ב 1.2 שנים,ירושלים,חברון,19.17,30187-36-21,30187/36,14004.14937759336,31.7492999488,35.2178343823,2009
2009-12-16,2009-12-16,"הדולב 3, ירושלים",הדולב 3,28051-32-38,דירה בבית קומות,4.0,ראשונה,76.2,1050000,,,1980.0,,2.0,3275203290,1,2805132,False,,ירושלים,הדולב,,28051-32-38,28051/32,13779.527559055115,31.7336633142,35.1886984635,2009
2009-12-16,2009-12-16,"בן ציון 21, ירושלים",בן ציון 21,30162-121-2,דירה בבית קומות,4.0,שניה,67.3,1875000,,,1976.0,,4.0,3275254980,1,30162121,False,,ירושלים,בן ציון,,30162-121-2,30162/121,27860.32689450223,31.7894842949,35.1938703108,2009
2009-12-16,2009-12-16,"אנטיגונוס 31, ירושלים",אנטיגונוס 31,30143-34-4,דירה בבית קומות,2.0,ראשונה,35.84,1350000,,,1960.0,,2.0,3275241180,1,3014334,False,13% ב 2.4 שנים,ירושלים,אנטיגנוס,5.42,30143-34-4,30143/34,37667.41071428571,31.755590284,35.2062994254,2009
2009-12-16,2009-12-16,"לשם 800, ירושלים",לשם 800,28052-3-19,דירה בבית קומות,3.0,שניה,61.0,146000,,,1980.0,,4.0,3275358720,1,280523,False,,ירושלים,לשם,,28052-3-19,28052/3,2393.44262295082,31.7303037875,35.1880010834,2009
2009-12-16,2009-12-16,"הורקניה 6, ירושלים",הורקניה 6,30143-14-5,דירה בבית קומות,2.0,,37.0,1200000,,,1950.0,,2.0,3275239680,1,3014314,False,,ירושלים,הורקניה,,30143-14-5,30143/14,32432.432432432437,31.7557631211,35.2028043791,2009
2009-12-15,2009-12-15,"הרב חסדאי קרשקש 9, ירושלים",הרב חסדאי קרשקש 9,29937-93-47,דירה בבית קומות,5.0,מרתף שני,113.6,1429000,,,2008.0,,3.0,3275257950,1,2993793,False,,ירושלים,הרב חסדאי קרשקש,,29937-93-47,29937/93,12579.225352112677,31.7199946687,35.22395404,2009
2009-12-15,2009-12-15,"עציון גבר 3, ירושלים",עציון גבר 3,30245-195-16,דירה בבית קומות,3.0,שלישית,75.2,1325000,,,1970.0,,3.0,3300085410,1,30245195,False,,ירושלים,עציון גבר,,30245-195-16,30245/195,17619.68085106383,31.8011065189,35.2246101513,2009
2009-12-15,2009-12-15,"גולדברג לאה 4, ירושלים",גולדברג לאה 4,30645-55-64,דירה בבית קומות,4.0,שביעית,82.4,930000,,,1970.0,,8.0,3275309220,1,3064555,False,,ירושלים,גולדברג לאה,,30645-55-64,30645/55,11286.40776699029,31.8417128559,35.2408443065,2009
2009-12-15,2009-12-15,"ברזיל 14, ירושלים",ברזיל 14,30407-8-29,דירה בבית קומות,3.0,תשיעית,45.0,750000,,,1960.0,,9.0,3275130510,1,304078,False,125% ב 6.2 שנים,ירושלים,ברזיל,20.16,30407-8-29,30407/8,16666.666666666668,,,2009
2009-12-15,2009-12-15,"אליהו קורן 30, ירושלים",אליהו קורן 30,29938-18-1,דירה בבית קומות,4.0,קרקע,89.8,1315000,,,2009.0,,6.0,3275256960,1,2993818,False,,ירושלים,קורן אליהו,,29938-18-1,29938/18,14643.652561247216,31.7235031265,35.2265621781,2009
2009-12-15,2009-12-15,"דיסקין 1, ירושלים",דיסקין 1,30165-2-20,דירה בבית קומות,5.0,,121.0,2272000,,,1970.0,,6.0,3275197350,1,301652,False,,ירושלים,דיסקין,,30165-2-20,30165/2,18776.85950413223,31.7752845889,35.2102605517,2009
2009-12-15,2009-12-15,"מקווה ישראל 128, ירושלים",מקווה ישראל 128,30100-134-29,דירה בבית קומות,3.0,שלישית,54.1,1138000,,,1970.0,,4.0,3275148330,1,30100134,False,79% ב 8 שנים,ירושלים,מקוה ישראל,9.88,30100-134-29,30100/134,21035.120147874302,31.7972772951,35.224685207,2009
2009-12-15,2009-12-15,"התאנה 13, ירושלים",התאנה 13,28051-67-77,דירה בבית קומות,4.5,ראשונה,91.2,1065000,,,1980.0,,4.0,3275130990,1,2805167,False,,ירושלים,התאנה,,28051-67-77,28051/67,11677.631578947368,31.7346177816,35.1902014269,2009
2009-12-15,2009-12-15,"מרווה 32, ירושלים",מרווה 32,28113-8-28,דירה בבית קומות,4.0,שניה,91.0,1220000,,,1980.0,,3.0,3275122140,1,281138,False,,ירושלים,מרוה,,28113-8-28,28113/8,13406.593406593409,31.7307231385,35.1815333795,2009
2009-12-15,2009-12-15,"שמגר 21, ירושלים",שמגר 21,30236-146-81,דירה בבית קומות,2.0,שביעית,40.75,579000,,,2014.0,,16.0,3275253270,1,30236146,False,,ירושלים,שמגר,,30236-146-81,30236/146,14208.588957055215,31.7945371234,35.2077155037,2009
2009-12-14,2009-12-14,"הרב רחמים חי חוויתה כהן 3, ירושלים",הרב רחמים חי חוויתה כהן 3,29938-18-12,דירה בבית קומות,5.0,ראשונה,107.3,1452000,,,2008.0,,7.0,3275257710,1,2993818,False,,ירושלים,הרב חוויתה כהן רחמי,,29938-18-12,29938/18,13532.15284249767,31.7235031265,35.2265621781,2009
2009-12-14,2009-12-14,"שאול המלך 38, ירושלים",שאול המלך 38,30106-129-5,דירה בבית קומות,4.0,שניה,103.1,1625000,,,1970.0,,4.0,3275255460,1,30106129,False,,ירושלים,שאול המלך,,30106-129-5,30106/129,15761.396702230844,31.7993669915,35.2200653544,2009
2009-12-14,2009-12-14,"משה ברזני 2, ירושלים",משה ברזני 2,30209-48-4,דירה בבית קומות,4.5,ראשונה,75.6,900000,,,1970.0,,3.0,3300012330,1,3020948,False,,ירושלים,ברזני משה,,30209-48-4,30209/48,11904.761904761906,31.7455069624,35.2390433855,2009
2009-12-13,2009-12-13,"אלקנה 10, ירושלים",אלקנה 10,30079-199-49,דירה בבית קומות,3.0,ראשונה,57.88,950000,,,1960.0,,3.0,3275073840,1,30079199,False,,ירושלים,אלקנה,,30079-199-49,30079/199,16413.268832066344,31.7933206003,35.2129835191,2009
2009-12-13,2009-12-13,"הרב רחמים חי חוויתה כהן 5, ירושלים",הרב רחמים חי חוויתה כהן 5,29938-18-32,דירה בבית קומות,4.0,שישית,88.0,1109000,,,2012.0,,7.0,3275257200,1,2993818,False,,ירושלים,הרב חוויתה כהן רחמי,,29938-18-32,29938/18,12602.272727272728,31.7235031265,35.2265621781,2009
2009-12-13,2009-12-13,"כ""ט בנובמבר 27, ירושלים","כ""ט בנובמבר 27",30009-57-6,דירה בבית קומות,4.0,ראשונה,71.0,2435000,,,1960.0,,2.0,3300017070,1,3000957,False,98% ב 1.5 שנים,ירושלים,כט' בנובמבר,65.33,30009-57-6,30009/57,34295.77464788732,31.7658630393,35.2141201225,2009
2009-12-13,2009-12-13,"אגסי שמעון 6, ירושלים",אגסי שמעון 6,30255-72-5,דירה בבית קומות,7.0,שלישית,175.0,2660000,,,1980.0,,12.0,3275123610,1,3025572,True,-5% ב 0.8 שנים,ירושלים,אגסי שמעון,-6.25,30255-72-5,30255/72,15200.0,31.7858877413,35.1748444693,2009
2009-12-13,2009-12-13,"יצחק קצנלסון 10, ירושלים",יצחק קצנלסון 10,30185-175-68,דירה בבית קומות,5.0,שישית,159.1,3625000,,,1980.0,,6.0,3275095860,1,30185175,False,,ירושלים,קצנלסון,,30185-175-68,30185/175,22784.41231929604,31.7621691761,35.2033001781,2009
2009-12-13,2009-12-13,"קורא הדורות 23, ירושלים",קורא הדורות 23,30117-52-5,דירה בבית קומות,4.0,שלישית,103.0,1600000,,,1972.0,,4.0,3275162160,1,3011752,False,,ירושלים,קורא הדורות,,30117-52-5,30117/52,15533.980582524273,31.7498394511,35.2228082234,2009
2009-12-13,2009-12-13,"אליעזר לבנה 2, ירושלים",אליעזר לבנה 2,30644-7-10,דירה בבית קומות,4.0,קרקע,90.0,850000,,,1980.0,,4.0,3275073060,1,306447,False,,ירושלים,לבנה אליעזר,,30644-7-10,30644/7,9444.444444444443,31.8396820837,35.2432242978,2009
2009-12-13,2009-12-13,"בן-גבריאל 35, ירושלים",בן-גבריאל 35,30116-111-2,דירה בבית קומות,4.0,קרקע,112.4,1815000,,,2008.0,,1.0,3275195370,1,30116111,True,-15% ב 0.6 שנים,ירושלים,בן גבריאל,-25.0,30116-111-2,30116/111,16147.686832740214,31.7503077479,35.2212038164,2009
2009-12-13,2009-12-13,"שכם 2, ירושלים",שכם 2,30504-7-2,דירה בבית קומות,4.0,,90.0,1730000,,,1998.0,,,3275149800,1,305047,False,,ירושלים,שכם,,30504-7-2,30504/7,19222.222222222223,31.7954307622,35.2303151942,2009
2009-12-13,2009-12-13,"חסדא 6, ירושלים",חסדא 6,30004-101-140,דירה בבית קומות,3.0,רביעית,58.02,1050000,,,1960.0,,4.0,3275221110,1,30004101,False,,ירושלים,חסדא,,30004-101-140,30004/101,18097.20785935884,31.7598289136,35.2141016675,2009
2009-12-13,2009-12-13,"אליעזר לבנה 2, ירושלים",אליעזר לבנה 2,30644-7-10,דירה בבית קומות,4.0,קרקע,90.0,850000,,,1980.0,,4.0,3275073060,1,306447,False,,ירושלים,לבנה,,30644-7-10,30644/7,9444.444444444443,31.8396820837,35.2432242978,2009
2009-12-13,2009-12-13,"אליהו קורן 19, ירושלים",אליהו קורן 19,29937-53-37,דירה בבית קומות,5.0,חמישית,110.0,1380000,,,2007.0,,6.0,3275234220,1,2993753,False,,ירושלים,קורן אליהו,,29937-53-37,29937/53,12545.454545454546,31.7216147241,35.2230437315,2009
2009-12-13,2009-12-13,"משכן שילה 8, ירושלים",משכן שילה 8,30338-220-3,דירה בבית קומות,2.5,ראשונה,95.7,1220000,,,2010.0,,4.0,3275090940,1,30338220,False,,ירושלים,משכן שילה,,30338-220-3,30338/220,12748.171368861023,31.7741205051,35.1890798421,2009
2009-12-11,2009-11-12,"גרטרוד קראוס 10, ירושלים",גרטרוד קראוס 10,30424-26-47,דירה בבית קומות,6.0,שלישית + רביעית,134.75,1880000,,,2000.0,,5.0,3274579800,1,3042426,False,,ירושלים,קראוס גרטרוד,,30424-26-47,30424/26,13951.762523191095,31.7486957005,35.1690160727,2009
2009-12-11,2009-11-12,"זרח ברנט 9, ירושלים",זרח ברנט 9,30255-159-14,דירה בבית קומות,5.0,שישית,112.5,1639000,,,1980.0,,6.0,3275157000,1,30255159,False,141% ב 10 שנים,ירושלים,ברנט זרח,14.1,30255-159-14,30255/159,14568.888888888889,31.7822819568,35.1747152304,2009
2009-12-11,2009-11-12,"דב גרונר 24, ירושלים",דב גרונר 24,30203-4-15,דירה בבית קומות,4.0,רביעית,101.5,1000000,,,1980.0,,4.0,3274541430,1,302034,False,,ירושלים,גרונר דב,,30203-4-15,30203/4,9852.216748768473,31.7518688613,35.2359798259,2009
2009-12-11,2009-11-12,"יעקב ארנון 5, ירושלים",יעקב ארנון 5,30338-269-6,דירה בבית קומות,4.0,ראשונה,91.15,420000,,,2000.0,,2.0,3274883280,1,30338269,False,,ירושלים,ארנון יעקב,,30338-269-6,30338/269,4607.789358200767,31.7700589392,35.1900215617,2009
2009-12-11,2009-11-12,"יצחק ברויאר 7, ירושלים",יצחק ברויאר 7,30342-98-7,דירה בבית קומות,2.5,שלישית,65.0,1150000,,,1950.0,,1.0,3274634280,1,3034298,False,,ירושלים,ברויאר יצחק,,30342-98-7,30342/98,17692.30769230769,31.766020443,35.1833804246,2009
2009-12-11,2009-11-12,"משה נובומיסקי 4, ירושלים",משה נובומיסקי 4,30193-3-78,דירה בבית קומות,4.5,שניה,102.3,1600000,,,1985.0,,4.0,3274534770,1,301933,False,,ירושלים,נובומיסקי משה,,30193-3-78,30193/3,15640.273704789834,31.7589075331,35.185531851,2009
2009-12-11,2009-11-12,"המעפילים 17, ירושלים",המעפילים 17,30185-181-33,דירה בבית קומות,4.0,,105.0,1930000,,,1980.0,,6.0,3274551120,1,30185181,False,,ירושלים,המעפילים,,30185-181-33,30185/181,18380.95238095238,31.7620440405,35.2047594669,2009
2009-12-11,2009-11-12,"מנחם מנדל משקלוב 5, ירושלים",מנחם מנדל משקלוב 5,30271-52-14,דירה בבית קומות,4.0,רביעית,89.4,1199000,,,1980.0,,6.0,3274865160,1,3027152,False,23% ב 1 שנים,ירושלים,מנחם מנדל משקלוב,23.0,30271-52-14,30271/52,13411.633109619686,31.7882562689,35.1729946727,2009
2009-12-11,2009-11-12,"עולי הגרדום 29, ירושלים",עולי הגרדום 29,30208-19-15,דירה בבית קומות,4.0,רביעית,95.0,1000000,,,1974.0,,4.0,3274614990,1,3020819,False,,ירושלים,עולי הגרדום,,30208-19-15,30208/19,10526.315789473683,31.7493328222,35.2376200573,2009
2009-12-11,2009-11-12,"דברי חיים 24, ירושלים",דברי חיים 24,30298-14-13,דירה בבית קומות,5.0,חמישית,144.0,2220000,,,2011.0,,9.0,3275393640,1,3029814,False,,ירושלים,דברי חיים,,30298-14-13,30298/14,15416.666666666666,31.7983944679,35.2078915708,2009
2009-12-11,2009-11-12,"המ""ג 31, ירושלים","המ""ג 31",30234-31-10,דירה בבית קומות,3.0,חמישית,51.7,1345000,,,1960.0,,5.0,3274532760,1,3023431,False,,ירושלים,"המ""ג",,30234-31-10,30234/31,26015.47388781431,31.7949013732,35.1991940225,2009
2009-12-11,2009-11-12,"הממציא 5, ירושלים",הממציא 5,29934-53-49,דירה בבית קומות,5.0,חמישית,111.2,1462000,,,2002.0,,8.0,3274618710,1,2993453,False,,ירושלים,הממציא,,29934-53-49,29934/53,13147.482014388488,31.7262563225,35.2219215336,2009
2009-12-11,2009-11-12,"אברהם אידלזון 20, ירושלים",אברהם אידלזון 20,30729-4-159,דירה בבית קומות,5.0,רביעית,125.0,1100000,,,1980.0,,4.0,3274526100,1,307294,False,,ירושלים,אידלזון אברהם,,30729-4-159,30729/4,8800.0,31.8196019654,35.1894879198,2009
2009-12-10,2009-10-12,"בית יעקב 11, ירושלים",בית יעקב 11,30073-84-9,דירה בבית קומות,3.0,ראשונה,62.0,900000,,,1950.0,,4.0,3274078170,1,3007384,True,-7% ב 1.8 שנים,ירושלים,בית יעקב,-3.89,30073-84-9,30073/84,14516.129032258064,31.7849784936,35.2112157629,2009
2009-12-10,2009-10-12,"יהודה המכבי 5, ירושלים",יהודה המכבי 5,30076-184-6,תעשיה,,קרקע,116.0,630000,,,1950.0,,2.0,3274220430,1,30076184,False,,ירושלים,יהודה המכבי,,30076-184-6,30076/184,5431.0344827586205,31.7883717557,35.2089619721,2009
2009-12-08,2009-08-12,"בלפור 17, ירושלים",בלפור 17,30027-16-7,דירה בבית קומות,2.0,ראשונה,41.0,1500000,,,1950.0,,4.0,3273632610,1,3002716,False,109% ב 8.6 שנים,ירושלים,בלפור,12.67,30027-16-7,30027/16,36585.365853658535,31.771918737,35.2172976745,2009
2009-12-08,2009-08-12,"ליכטנשטיין 9, ירושלים",ליכטנשטיין 9,29935-50-34,דירה בבית קומות,5.0,שביעית,91.6,1135000,,,2003.0,,9.0,3273259620,1,2993550,False,,ירושלים,ליכטנשטיין,,29935-50-34,29935/50,12390.829694323143,31.7242117439,35.2227916946,2009
2009-12-08,2009-08-12,"אבשלום חביב 26, ירושלים",אבשלום חביב 26,30207-11-30,דירה בבית קומות,4.0,שלישית,75.0,840000,,,1980.0,,4.0,3273692730,1,3020711,False,57% ב 4.5 שנים,ירושלים,חביב אבשלום,12.67,30207-11-30,30207/11,11200.0,31.7510603036,35.2389463289,2009
2009-12-08,2009-08-12,"פטרסון 6, ירושלים",פטרסון 6,30011-11-2,דירה בבית קומות,1.0,קרקע,,65000,,,1980.0,,1.0,3273466500,1,3001111,False,,ירושלים,פטרסון,,30011-11-2,30011/11,,31.7661172064,35.2236403913,2009
2009-12-08,2009-08-12,"פטרסון 6, ירושלים",פטרסון 6,30011-11-3,דירה בבית קומות,1.0,קרקע,,64000,,,1980.0,,1.0,3273467280,1,3001111,False,,ירושלים,פטרסון,,30011-11-3,30011/11,,31.7661172064,35.2236403913,2009
2009-12-08,2009-08-12,"ורבורג 2, ירושלים",ורבורג 2,30412-133-18,דירה בבית קומות,4.0,שישית,80.0,930000,,,1970.0,,8.0,3273209670,1,30412133,False,37% ב 5.6 שנים,ירושלים,ורבורג,6.61,30412-133-18,30412/133,11625.0,31.7648173021,35.1753222291,2009
2009-12-08,2009-08-12,"הקבלן 63, ירושלים",הקבלן 63,30333-11-10,דירה בבית קומות,4.0,רביעית,88.8,1280000,,,1970.0,,6.0,3273254940,1,3033311,False,,ירושלים,הקבלן,,30333-11-10,30333/11,14414.414414414416,31.7878174117,35.1788158234,2009
2009-12-08,2009-08-12,"הרב עוזי קלכהיים 9, ירושלים",הרב עוזי קלכהיים 9,30563-13-7,דירה בבית קומות,3.0,ראשונה,70.0,990000,,,1993.0,,2.0,3273207420,1,3056313,False,,ירושלים,הרב קלכהיים עוזי,,30563-13-7,30563/13,14142.857142857143,31.8106477875,35.2223461156,2009
2009-12-08,2009-08-12,"הרצל 72, ירושלים",הרצל 72,30153-146-8,דירה בבית קומות,3.0,שלישית,53.0,1035000,,,1950.0,,3.0,3273316080,1,30153146,False,,ירושלים,הרצל,,30153-146-8,30153/146,19528.30188679245,31.7830649919,35.1911664978,2009
2009-12-08,2009-08-12,"שח""ל 53, ירושלים","שח""ל 53",30183-124-29,דירה בבית קומות,3.0,שמינית,59.0,950000,,,1970.0,,10.0,3273578910,1,30183124,False,26% ב 1.5 שנים,ירושלים,"שח""ל",17.33,30183-124-29,30183/124,16101.694915254237,31.7634371624,35.1950066235,2009
2009-12-07,2009-07-12,"לבונה 1, ירושלים",לבונה 1,28046-26-14,דירה בבית קומות,3.0,שלישית,56.0,700000,,,1970.0,,4.0,3272608770,1,2804626,False,,ירושלים,לבונה,,28046-26-14,28046/26,12500.0,31.7347070319,35.1969622143,2009
2009-12-07,2009-07-12,"המאירי 12, ירושלים",המאירי 12,30157-94-14,דירה בבית קומות,5.0,שלישית,125.0,1525000,,,1970.0,,3.0,3273102960,1,3015794,False,,ירושלים,המאירי,,30157-94-14,30157/94,12200.0,31.7865397365,35.1950660097,2009
2009-12-07,2009-07-12,"אבא אבן 1, ירושלים",אבא אבן 1,30864-7-82,דירה בבית קומות,3.0,שניה,75.0,2530000,,,2010.0,,7.0,3272728080,1,308647,False,,ירושלים,אבא אבן,,30864-7-82,30864/7,33733.333333333336,31.7857455439,35.2058083274,2009
2009-12-07,2009-07-12,"ישראל אלדד 2, ירושלים",ישראל אלדד 2,30695-9-109,דירה בבית קומות,4.5,ראשונה,105.7,1585000,,,2000.0,,7.0,3272805000,1,306959,False,,ירושלים,ישראל אלדד,,30695-9-109,30695/9,14995.26963103122,31.7531634359,35.2247071652,2009
2009-12-07,2009-07-12,"מנה 6, ירושלים",מנה 6,30021-70-19,דירה בבית קומות,6.0,שניה,225.0,9198000,,,1950.0,,5.0,3273160590,1,3002170,False,,ירושלים,מנה,,30021-70-19,30021/70,40880.0,31.7691292211,35.219661157,2009
2009-12-07,2009-07-12,"הצוף 18, ירושלים",הצוף 18,28046-7-25,דירה בבית קומות,3.0,שלישית,60.4,640000,,,1980.0,,3.0,3272785740,1,280467,False,,ירושלים,הצוף,,28046-7-25,28046/7,10596.026490066226,31.7331757366,35.1978314407,2009
2009-12-06,2009-06-12,"מרווה 8, ירושלים",מרווה 8,28113-3-21,דירה בבית קומות,3.0,רביעית,75.2,1000000,,,1980.0,,4.0,3272265690,1,281133,False,30% ב 3.6 שנים,ירושלים,מרוה,8.33,28113-3-21,28113/3,13297.87234042553,31.7324869171,35.1809356961,2009
2009-12-05,2009-05-12,"התאנה 11, ירושלים",התאנה 11,28051-67-75,דירה בבית קומות,3.0,רביעית,62.8,640000,,,1980.0,,4.0,3271609350,1,2805167,False,,ירושלים,התאנה,,28051-67-75,28051/67,10191.082802547771,31.7346177816,35.1902014269,2009
2009-12-05,2009-05-12,"גדוד חרמש 22, ירושלים",גדוד חרמש 22,30666-29-1,דירה בבית קומות,3.0,ראשונה,80.8,730000,,,1980.0,,4.0,3271850670,1,3066629,False,16% ב 1.9 שנים,ירושלים,גדוד חרמש,8.42,30666-29-1,30666/29,9034.653465346537,31.8306547967,35.2428701337,2009
2009-12-05,2009-05-12,"המהר""ל מפראג 8, ירושלים","המהר""ל מפראג 8",29939-40-42,דירה בבית קומות,5.0,רביעית,109.0,1090000,,,2008.0,,7.0,3271762290,1,2993940,False,,ירושלים,"המהר""ל מפראג",,29939-40-42,29939/40,10000.0,31.721304848,35.2279383358,2009
2009-12-05,2009-05-12,"התאנה 11, ירושלים",התאנה 11,28051-67-74,דירה בבית קומות,3.0,רביעית,62.8,675000,,,1980.0,,4.0,3271707090,1,2805167,False,,ירושלים,התאנה,,28051-67-74,28051/67,10748.407643312104,31.7346177816,35.1902014269,2009
2009-12-05,2009-05-12,"טללים 10, ירושלים",טללים 10,30717-19-10,דירה בבית קומות,3.0,ראשונה,66.0,1000000,,,1970.0,,4.0,3272002380,1,3071719,False,,ירושלים,טללים,,30717-19-10,30717/19,15151.515151515152,31.8162587311,35.1984869678,2009
2009-12-05,2009-05-12,"מרכוס 16, ירושלים",מרכוס 16,30022-27-1,דירה בבית קומות,6.0,קרקע,120.0,7380000,,,1948.0,,2.0,3271527420,1,3002227,False,,ירושלים,מרכוס,,30022-27-1,30022/27,61500.0,31.7692501903,35.2165718596,2009
2009-12-05,2009-05-12,"שח""ל 65, ירושלים","שח""ל 65",30183-149-3,דירה בבית קומות,4.0,ראשונה,93.0,1400000,,,1960.0,,4.0,3271516770,1,30183149,False,,ירושלים,"שח""ל",,30183-149-3,30183/149,15053.763440860215,31.7645056206,35.1940367167,2009
2009-12-05,2009-05-12,"הבנאי 15, ירושלים",הבנאי 15,30154-46-4,דירה בבית קומות,5.0,----,129.0,2360000,,,1974.0,,1.0,3271575420,1,3015446,False,,ירושלים,הבנאי,,30154-46-4,30154/46,18294.57364341085,31.775899485,35.1915948165,2009
2009-12-05,2009-05-12,"מרווה 20, ירושלים",מרווה 20,28113-7-16,דירה בבית קומות,3.0,שניה,70.2,855000,,,1990.0,,3.0,3271754610,1,281137,False,,ירושלים,מרוה,,28113-7-16,28113/7,12179.48717948718,31.7315011476,35.1812618471,2009
2009-12-05,2009-05-12,"הנמר 19, ירושלים",הנמר 19,30454-9-3,דירה בבית קומות,5.0,,105.0,2650000,,,2000.0,,,3271735530,1,304549,False,,ירושלים,הנמר,,30454-9-3,30454/9,25238.09523809524,31.7522545969,35.1806158652,2009
2009-12-05,2009-05-12,"קוסטה ריקה 44, ירושלים",קוסטה ריקה 44,30439-88-20,דירה בבית קומות,5.0,שביעית,136.1,1750000,,,2007.0,,7.0,3271644750,1,3043988,False,,ירושלים,קוסטה ריקה,,30439-88-20,30439/88,12858.192505510657,31.7516775386,35.1723254239,2009
2009-12-05,2009-05-12,"אליהו מני 6, ירושלים",אליהו מני 6,30073-154-181,דירה בבית קומות,4.0,,101.0,1993000,,,1998.0,,7.0,3272405520,1,30073154,False,,ירושלים,מני אליהו,,30073-154-181,30073/154,19732.67326732673,31.7855349378,35.2098403026,2009
2009-12-05,2009-05-12,"אורוגוואי 3, ירושלים",אורוגוואי 3,30413-123-16,דירה בבית קומות,3.0,קומה ‎2‏,75.1,750000,,,2000.0,,11.0,3272065740,1,30413123,False,,ירושלים,אורוגואי,,30413-123-16,30413/123,9986.684420772304,31.7610182212,35.1771031137,2009
2009-12-05,2009-05-12,"פנקס 5, ירושלים",פנקס 5,30184-120-12,דירה בבית קומות,3.0,שלישית,65.5,980000,,,1970.0,,4.0,3271630830,1,30184120,False,,ירושלים,פנקס,,30184-120-12,30184/120,14961.832061068702,31.761824692,35.1988231893,2009
2009-12-04,2009-04-12,"סיירת גולני 13, ירושלים",סיירת גולני 13,30666-8-7,דירה בבית קומות,2.0,,30.0,333000,,,1970.0,,3.0,3271744470,1,306668,False,,ירושלים,סיירת גולני,,30666-8-7,30666/8,11100.0,31.8304160873,35.2442046716,2009
2009-12-03,2009-03-12,"חרל""פ 5, ירושלים","חרל""פ 5",30023-45-4,דירה בבית קומות,3.0,שניה,76.0,1350000,,,1910.0,,5.0,3270755910,1,3002345,False,,ירושלים,"חרל""פ",,30023-45-4,30023/45,17763.157894736843,31.7702981094,35.2127877872,2009
2009-12-03,2009-03-12,"עמק רפאים 55, ירושלים",עמק רפאים 55,30003-36-4,דירה בבית קומות,2.5,ראשונה,46.0,1025000,,,1950.0,,3.0,3270853470,1,3000336,False,27% ב 1.8 שנים,ירושלים,עמק רפאים,15.0,30003-36-4,30003/36,22282.60869565217,31.7611576217,35.2170752786,2009
2009-12-03,2009-03-12,"הרב קצנלבוגן רפאל 28, ירושלים",הרב קצנלבוגן רפאל 28,30333-79-6,דירה בבית קומות,4.0,שלישית,97.1,1549000,,,1970.0,,7.0,3270882150,1,3033379,False,,ירושלים,הרב קצנלבוגן רפאל,,30333-79-6,30333/79,15952.626158599383,31.7866960457,35.1746782099,2009
2009-12-03,2009-03-12,"הכפיר 33, ירושלים",הכפיר 33,30456-49-5,דירה בבית קומות,6.0,מרתף קרקע ראשונה,172.7,2375000,,,1992.0,,2.0,3270898020,1,3045649,False,,ירושלים,הכפיר,,30456-49-5,30456/49,13752.171395483498,31.7528124843,35.1859784611,2009
2009-12-03,2009-03-12,"ההדס 2, ירושלים",ההדס 2,30724-86-2,דירה בבית קומות,7.0,קרקע וראשונה,134.5,2600000,,,1983.0,,,3270912330,1,3072486,False,,ירושלים,ההדס,,30724-86-2,30724/86,19330.85501858736,31.8109362296,35.1914153028,2009
2009-12-03,2009-03-12,"אחלמה 307, ירושלים",אחלמה 307,28050-35-51,דירה בבית קומות,4.0,רביעית,74.0,770000,,,1980.0,,4.0,3270804210,1,2805035,False,,ירושלים,אחלמה,,28050-35-51,28050/35,10405.405405405403,31.7273502742,35.1884624665,2009
2009-12-03,2009-03-12,"הקבלן 27, ירושלים",הקבלן 27,30333-29-1,דירה בבית קומות,7.0,ראשונה ושניה,199.8,4805000,,,1989.0,,7.0,3271064070,1,3033329,False,,ירושלים,הקבלן,,30333-29-1,30333/29,24049.04904904905,31.7900790639,35.1744873794,2009
2009-12-03,2009-03-12,"שמעוני 42, ירושלים",שמעוני 42,30122-2-7,דירה בבית קומות,4.0,"א' עליונה, ג' תחתונה",91.0,2120000,,,1970.0,,6.0,3270750930,1,301222,False,48% ב 0.7 שנים,ירושלים,שמעוני,68.57,30122-2-7,30122/2,23296.703296703297,31.7627039696,35.200589217,2009
2009-12-03,2009-03-12,"שטרן אברהם 21, ירושלים",שטרן אברהם 21,30415-227-6,דירה בבית קומות,3.0,שניה,58.0,650000,,,1970.0,,6.0,3270756630,1,30415227,False,81% ב 5.5 שנים,ירושלים,שטרן אברהם,14.73,30415-227-6,30415/227,11206.896551724138,31.7536906306,35.1794257245,2009
2009-12-03,2009-03-12,"רפאל בר-לביא 4, ירושלים",רפאל בר-לביא 4,29937-32-27,דירה בבית קומות,4.0,,100.0,1075000,,,2008.0,,1.0,3270831900,1,2993732,False,,ירושלים,בר לביא רפאל,,29937-32-27,29937/32,10750.0,31.7233860335,35.2248309181,2009
2009-12-03,2009-03-12,"יצחק בן-צבי 39, ירושלים",יצחק בן-צבי 39,30040-86-163,דירה בבית קומות,2.5,שביעית,56.95,630000,,,1980.0,,10.0,3271292730,1,3004086,False,,ירושלים,בן צבי יצחק,,30040-86-163,30040/86,11062.33538191396,31.7790474473,35.2095480449,2009
2009-12-03,2009-03-12,"אריה קובובי 25, ירושלים",אריה קובובי 25,30190-161-22,דירה בבית קומות,4.0,חמישית,83.0,1220000,,,1970.0,,7.0,3270757170,1,30190161,False,,ירושלים,קובובי,,30190-161-22,30190/161,14698.795180722893,31.761833132,35.1793788199,2009
2009-12-03,2009-03-12,"רמת הגולן 1, ירושלים",רמת הגולן 1,30245-183-14,דירה בבית קומות,3.0,רביעית,70.0,1120000,,,1960.0,,4.0,3271283100,1,30245183,False,,ירושלים,רמת הגולן,,30245-183-14,30245/183,16000.0,31.8015264645,35.2232789588,2009
2009-12-03,2009-03-12,"רבדים 27, ירושלים",רבדים 27,30139-301-4,דירה בבית קומות,5.0,שניה,116.5,2200000,,,1991.0,,2.0,3270931170,1,30139301,False,,ירושלים,רבדים,,30139-301-4,30139/301,18884.12017167382,31.7470649405,35.218513691,2009
2009-12-02,2009-02-12,"שערי תורה 11, ירושלים",שערי תורה 11,30342-123-7,דירה בבית קומות,3.0,שלישית,86.0,1520000,,,1970.0,,3.0,3270430950,1,30342123,False,,ירושלים,שערי תורה,,30342-123-7,30342/123,17674.418604651164,31.7650890394,35.1832212252,2009
2009-12-02,2009-02-12,"בוסתנאי 34, ירושלים",בוסתנאי 34,30007-161-4,דירה בבית קומות,3.0,ראשונה,50.0,1400000,,,1960.0,,4.0,3270357240,1,30007161,False,,ירושלים,בוסתנאי,,30007-161-4,30007/161,28000.0,31.7628377737,35.211581769,2009
2009-12-02,2009-02-12,"הכפיר 91, ירושלים",הכפיר 91,30457-39-7,דירה בבית קומות,6.0,"מרתף,קרקע,ראשונה",197.1,2600000,,,1995.0,,,3270408450,1,3045739,False,,ירושלים,הכפיר,,30457-39-7,30457/39,13191.273465246068,31.7511171171,35.1845879528,2009
2009-12-02,2009-02-12,"אסטורה 122, ירושלים",אסטורה 122,30644-57-26,דירה בבית קומות,4.0,שניה,80.0,1040000,,,1980.0,,2.0,3270407430,1,3064457,False,,ירושלים,אסטורה,,30644-57-26,30644/57,13000.0,31.8399093039,35.246843939,2009
2009-12-02,2009-02-12,"הרב רפאל קצנלבוגן 2, ירושלים",הרב רפאל קצנלבוגן 2,30333-68-30,דירה בבית קומות,4.0,ראשונה,110.5,1750000,,,1990.0,,7.0,3270334440,1,3033368,False,,ירושלים,הרב קצנלבוגן רפאל,,30333-68-30,30333/68,15837.10407239819,31.7893291831,35.1731219562,2009
2009-12-02,2009-02-12,"הפלמ""ח 18, ירושלים","הפלמ""ח 18",30023-147-13,דירה בבית קומות,3.0,שלישית,64.0,1200000,,,1950.0,,4.0,3270348030,1,30023147,False,,ירושלים,"הפלמ""ח",,30023-147-13,30023/147,18750.0,31.7678959406,35.2117055501,2009
2009-12-02,2009-02-12,"הרב ברלין 21, ירושלים",הרב ברלין 21,30024-166-3,דירה בבית קומות,2.0,קרקע,43.0,1500000,,,1970.0,,2.0,3270736860,1,30024166,False,60% ב 1.5 שנים,ירושלים,הרב ברלין,40.0,30024-166-3,30024/166,34883.72093023256,31.7689341464,35.2108899674,2009
2009-12-02,2009-02-12,"הורקניה 22, ירושלים",הורקניה 22,30123-4-19,דירה בבית קומות,4.0,שלישית,61.0,1190000,,,1970.0,,4.0,3270384930,1,301234,False,,ירושלים,הורקניה,,30123-4-19,30123/4,19508.19672131148,,,2009
2009-12-02,2009-02-12,"הרב חסדאי קרשקש 9, ירושלים",הרב חסדאי קרשקש 9,29937-93-52,דירה בבית קומות,4.0,ראשונה,88.7,1105000,,,2008.0,,3.0,3270602190,1,2993793,False,,ירושלים,הרב חסדאי קרשקש,,29937-93-52,29937/93,12457.72266065389,31.7199946687,35.22395404,2009
2009-12-01,2009-01-12,"ניות 30, ירושלים",ניות 30,30145-27-9,דירה בבית קומות,3.0,ראשונה,79.0,960000,,,1960.0,,2.0,3245542650,1,3014527,False,,ירושלים,ניות,,30145-27-9,30145/27,12151.898734177215,31.768429355,35.2042845164,2009
2009-12-01,2009-01-12,"חיים בג'יו 1, ירושלים",חיים בג'יו 1,30010-108-33,דירה בבית קומות,3.0,שלישית,75.5,1575000,,,1990.0,,3.0,3270133200,1,30010108,False,,ירושלים,בג'יו חיים,,30010-108-33,30010/108,20860.92715231788,31.7642966998,35.2152772414,2009
2009-12-01,2009-01-12,"מלאכי 9, ירושלים",מלאכי 9,30082-95-1,דירה בבית קומות,5.0,שניה,132.0,2040000,,,1920.0,,2.0,3270259920,1,3008295,False,,ירושלים,מלאכי,,30082-95-1,30082/95,15454.545454545454,31.7897195277,35.2163054736,2009
2009-12-01,2009-01-12,"בוסתנאי 32, ירושלים",בוסתנאי 32,30007-161-28,דירה בבית קומות,3.0,שלישית,50.0,960000,,,1960.0,,4.0,3270363360,1,30007161,False,,ירושלים,בוסתנאי,,30007-161-28,30007/161,19200.0,31.7628377737,35.211581769,2009
2009-12-01,2009-01-12,"קולומביה 29, ירושלים",קולומביה 29,30435-40-26,דירה בבית קומות,3.0,ראשונה,49.5,680000,,,1960.0,,4.0,3270014130,1,3043540,False,,ירושלים,קולומביה,,30435-40-26,30435/40,13737.373737373737,,,2009
2009-12-01,2009-01-12,"דן פגיס 3, ירושלים",דן פגיס 3,30690-55-7,דירה בבית קומות,2.0,שניה,52.4,550000,,,1992.0,,3.0,3245541420,1,3069055,False,,ירושלים,פגיס דן,,30690-55-7,30690/55,10496.18320610687,31.8202337808,35.2545672746,2009
2009-12-01,2009-01-12,"אברהם שטרן 5, ירושלים",אברהם שטרן 5,30415-256-43,דירה בבית קומות,5.0,שניה,125.0,730000,,,1970.0,,5.0,3270096060,1,30415256,False,,ירושלים,שטרן אברהם,,30415-256-43,30415/256,5840.0,31.7551772293,35.1801685234,2009
2009-12-01,2009-01-12,"יוסף קארו 16, ירושלים",יוסף קארו 16,30091-25-1,דירה בבית קומות,7.0,,134.0,2104000,,,1940.0,,2.0,3245535960,1,3009125,False,,ירושלים,קארו יוסף,,30091-25-1,30091/25,15701.492537313432,31.7913843967,35.2230897374,2009
2009-12-01,2009-01-12,"משה שרת 3, ירושלים",משה שרת 3,30193-115-10,דירה בבית קומות,4.0,ראשונה,108.1,620000,,,2007.0,,12.0,3270282930,1,30193115,False,,ירושלים,שרת משה,,30193-115-10,30193/115,5735.430157261795,31.7566743093,35.1841273634,2009
2009-12-01,2009-01-12,"גואטמאלה 27, ירושלים",גואטמאלה 27,30415-181-19,דירה בבית קומות,3.5,חמישית,54.6,700000,,,1970.0,,6.0,3270023820,1,30415181,False,,ירושלים,גואטמאלה,,30415-181-19,30415/181,12820.51282051282,31.7558252327,35.1787826684,2009
2009-12-01,2009-01-12,"כתב סופר 6, ירושלים",כתב סופר 6,30096-107-3,דירה בבית קומות,4.0,ראשונה,120.4,1200000,,,2008.0,,7.0,3270176520,1,30096107,False,,ירושלים,כתב סופר,,30096-107-3,30096/107,9966.777408637874,31.7920217716,35.1952975221,2009
2009-12-01,2009-01-12,"שמגר 16, ירושלים",שמגר 16,30079-178-49,דירה בבית קומות,5.0,,125.0,1947000,,,2003.0,,6.0,3270605940,1,30079178,False,,ירושלים,שמגר,,30079-178-49,30079/178,15576.0,31.7946915582,35.2085243935,2009
2009-12-01,2009-01-12,"יהושע בן-גמלא 6, ירושלים",יהושע בן-גמלא 6,30004-71-11,דירה בבית קומות,3.0,שלישית,47.35,1300000,,,1950.0,,3.0,3245550780,1,3000471,False,54% ב 4 שנים,ירושלים,בן גמלא יהושע,13.5,30004-71-11,30004/71,27455.121436114045,31.760030608,35.2125577763,2009
2009-12-01,2009-01-12,"כתב סופר 6, ירושלים",כתב סופר 6,30096-107-11,דירה בבית קומות,5.0,חמישית,120.7,1540000,,,2008.0,,7.0,3270177000,1,30096107,False,,ירושלים,כתב סופר,,30096-107-11,30096/107,12758.90637945319,31.7920217716,35.1952975221,2009
2009-11-30,2009-11-30,"הרב מן ההר 12, ירושלים",הרב מן ההר 12,29937-83-23,דירה בבית קומות,4.0,קרקע,108.3,1553000,,,2010.0,,5.0,3275042640,1,2993783,False,,ירושלים,הרב מן ההר,,29937-83-23,29937/83,14339.796860572484,31.7220883268,35.2257868458,2009
2009-11-30,2009-11-30,"ורבורג 2, ירושלים",ורבורג 2,30412-133-27,דירה בבית קומות,4.0,שמינית,100.0,1060000,,,1970.0,,8.0,3274880070,1,30412133,False,,ירושלים,ורבורג,,30412-133-27,30412/133,10600.0,31.7648173021,35.1753222291,2009
2009-11-30,2009-11-30,"ההגנה 2, ירושלים",ההגנה 2,30654-63-13,דירה בבית קומות,3.0,חמישית,64.0,850000,,,1970.0,,9.0,3300052950,1,3065463,False,23% ב 2.8 שנים,ירושלים,ההגנה,8.21,30654-63-13,30654/63,13281.25,31.8039852383,35.2357126523,2009
2009-11-30,2009-11-30,"אייזיק רמבה 602, ירושלים",אייזיק רמבה 602,30178-110-11,דירה בבית קומות,3.0,רביעית,62.6,935000,,,1980.0,,6.0,3275054280,1,30178110,False,85% ב 3 שנים,ירושלים,רמבה אייזיק,28.33,30178-110-11,30178/110,14936.102236421724,31.7509074039,35.2289010767,2009
2009-11-30,2009-11-30,"אבא אבן 1, ירושלים",אבא אבן 1,30864-7-81,דירה בבית קומות,3.0,,86.0,2162000,,,2010.0,,7.0,3275314410,1,308647,False,,ירושלים,אבא אבן,,30864-7-81,30864/7,25139.53488372093,31.7857455439,35.2058083274,2009
2009-11-30,2009-11-30,"אבא אבן 1, ירושלים",אבא אבן 1,30864-7-14,דירה,3.0,שלישית,88.0,2200000,1.0,דה סופרים-מתחם משרד החוץ הישן,2010.0,,7.0,11181216480,1,308647,False,,ירושלים,אבא אבן,,30864-7-14,30864/7,25000.0,31.7857455439,35.2058083274,2009
2009-11-30,2009-11-30,"הרב רחמים חי חוויתה כהן 3, ירושלים",הרב רחמים חי חוויתה כהן 3,29938-18-21,דירה בבית קומות,6.0,שישית,124.4,1641000,,,2008.0,,7.0,3275015910,1,2993818,False,,ירושלים,הרב חוויתה כהן רחמי,,29938-18-21,29938/18,13191.318327974275,31.7235031265,35.2265621781,2009
2009-11-30,2009-11-30,"פרץ ברנשטיין 56, ירושלים",פרץ ברנשטיין 56,30194-53-3,דירה בבית קומות,6.0,קרקע+III+II+I,204.2,3300000,,,1987.0,,1.0,3274987920,1,3019453,False,,ירושלים,ברנשטיין פרץ,,30194-53-3,30194/53,16160.626836434869,31.7588815946,35.1893262418,2009
2009-11-30,2009-11-30,"שלום עליכם 7, ירושלים",שלום עליכם 7,30027-89-20,דירה בבית קומות,5.0,,110.0,1817000,,,1960.0,,5.0,3275226030,1,3002789,False,,ירושלים,שלום עליכם,,30027-89-20,30027/89,16518.18181818182,31.7712312443,35.221287291,2009
2009-11-29,2009-11-29,"איסלנד 21, ירושלים",איסלנד 21,30435-16-16,דירה בבית קומות,4.0,רביעית,75.4,720000,,,1970.0,,4.0,3300558330,1,3043516,False,,ירושלים,איסלנד,,30435-16-16,30435/16,9549.071618037136,31.7591179103,35.1644646376,2009
2009-11-29,2009-11-29,"ליכטנשיין 19, ירושלים",ליכטנשיין 19,29935-54-8,דירה בבית קומות,4.0,שלישית,88.78,1250000,,,2000.0,,4.0,3274917210,1,2993554,False,92% ב 9.6 שנים,ירושלים,ליכטנשטיין,9.58,29935-54-8,29935/54,14079.747690921378,31.7249711265,35.2243350795,2009
2009-11-29,2009-11-29,"הרב הירשלר 12, ירושלים",הרב הירשלר 12,30562-36-5,דירה בבית קומות,4.0,שניה,84.8,1000000,,,1995.0,,4.0,3300178920,1,3056236,False,,ירושלים,הרב הירשלר,,30562-36-5,30562/36,11792.45283018868,31.8079885562,35.2220557587,2009
2009-11-29,2009-11-29,"בובליק גדליה 3, ירושלים",בובליק גדליה 3,30720-35-10,דירה בבית קומות,4.0,שניה,82.3,1200000,,,1980.0,,3.0,3274763460,1,3072035,False,,ירושלים,בובליק גדליה,,30720-35-10,30720/35,14580.801944106926,31.8157404598,35.2011175067,2009
2009-11-29,2009-11-29,"קולומביה 29, ירושלים",קולומביה 29,30435-40-35,דירה בבית קומות,2.0,שניה,29.1,559000,,,1960.0,,4.0,3274856790,1,3043540,False,,ירושלים,קולומביה,,30435-40-35,30435/40,19209.621993127148,,,2009
2009-11-29,2009-11-29,"תורה מציון 12, ירושלים",תורה מציון 12,30075-129-6,דירה בבית קומות,4.0,שניה,111.4,2220000,,,1985.0,,9.0,3274924800,1,30075129,False,,ירושלים,תורה מציון,,30075-129-6,30075/129,19928.18671454219,31.7896945363,35.2059414924,2009
2009-11-29,2009-11-29,"אבא אבן 1, ירושלים",אבא אבן 1,30864-7-13,דירה,3.0,שניה,100.0,2530500,1.0,דה סופרים-מתחם משרד החוץ הישן,2010.0,,7.0,11181216479,1,308647,False,,ירושלים,אבא אבן,,30864-7-13,30864/7,25305.0,31.7857455439,35.2058083274,2009
2009-11-29,2009-11-29,"אבא אבן 1, ירושלים",אבא אבן 1,30864-7-12,דירה,3.0,שלישית,86.0,2162215,1.0,דה סופרים-מתחם משרד החוץ הישן,2010.0,,7.0,11181216478,1,308647,False,,ירושלים,אבא אבן,,30864-7-12,30864/7,25142.03488372093,31.7857455439,35.2058083274,2009
2009-11-29,2009-11-29,"כ""ט בנובמבר 14, ירושלים","כ""ט בנובמבר 14",30009-31-1,דירה בבית קומות,4.0,ראשונה,105.0,3175000,,,1970.0,,4.0,3274991910,1,3000931,False,,ירושלים,כט' בנובמבר,,30009-31-1,30009/31,30238.09523809524,31.7664129329,35.2146566544,2009
2009-11-29,2009-11-29,"הרב מן ההר 12, ירושלים",הרב מן ההר 12,29937-83-30,דירה בבית קומות,4.0,שלישית,100.6,1160000,,,2010.0,,5.0,3274858050,1,2993783,False,,ירושלים,הרב מן ההר,,29937-83-30,29937/83,11530.815109343936,31.7220883268,35.2257868458,2009
2009-11-29,2009-11-29,"אלכסנדר רובוביץ 2, ירושלים",אלכסנדר רובוביץ 2,30209-17-11,דירה בבית קומות,4.0,שניה,75.8,885000,,,1970.0,,4.0,3275021850,1,3020917,False,54% ב 2.7 שנים,ירושלים,רובוביץ אלכסנדר,20.0,30209-17-11,30209/17,11675.461741424802,31.7440052568,35.2385318582,2009
2009-11-29,2009-11-29,,,30153-49-35,דירה בבית קומות,3.0,שניה,83.0,1500000,,,2009.0,,,3275357460,2,3015349,False,,ירושלים,פיק חיים,,30153-49-35,30153/49,18072.289156626503,31.7846731623,35.1963261167,2009
2009-11-29,2009-11-29,"הרב מן ההר 1, ירושלים",הרב מן ההר 1,29937-81-2,דירה בבית קומות,5.0,קרקע וראשונה,125.5,1360000,,,2007.0,,9.0,3275154570,1,2993781,False,13% ב 1.6 שנים,ירושלים,הרב מן ההר,8.12,29937-81-2,29937/81,10836.653386454183,31.7221675839,35.2246868689,2009
2009-11-29,2009-11-29,"שמעון אגסי 62, ירושלים",שמעון אגסי 62,30265-125-9,דירה בבית קומות,3.0,שלישית,67.45,1500000,,,1990.0,,8.0,3274786980,1,30265125,False,,ירושלים,אגסי שמעון,,30265-125-9,30265/125,22238.69532987398,31.7838030842,35.1793183828,2009
2009-11-29,2009-11-29,"גנרל פייר קניג 35, ירושלים",גנרל פייר קניג 35,30140-1-50,תעשיה,,ראשונה,103.9,653000,,,1970.0,,5.0,3275071350,1,301401,False,,ירושלים,גנרל קניג פייר,,30140-1-50,30140/1,6284.889316650625,31.7528295349,35.2147891708,2009
2009-11-29,2009-11-29,"דקר 3, ירושלים",דקר 3,30654-15-7,דירה בבית קומות,5.0,רביעית,106.1,1460000,,,1970.0,,7.0,3275112210,1,3065415,False,33% ב 2.3 שנים,ירושלים,דקר,14.35,30654-15-7,30654/15,13760.603204524035,31.8015853064,35.2372939253,2009
2009-11-28,2009-11-28,"סיירת דוכיפת 1, ירושלים",סיירת דוכיפת 1,30659-22-26,דירה בבית קומות,3.0,שניה,93.4,1120000,,,1985.0,,6.0,3275083980,1,3065922,False,,ירושלים,סיירת דוכיפת,,30659-22-26,30659/22,11991.434689507494,31.8258248005,35.2406462641,2009
2009-11-27,2009-11-27,"קויפמן יחזקאל 21, ירושלים",קויפמן יחזקאל 21,30730-10-53,דירה בבית קומות,4.0,שלישית,84.0,1350000,,,1980.0,,4.0,3274768470,1,3073010,False,,ירושלים,קויפמן יחזקאל,,30730-10-53,30730/10,16071.42857142857,31.8162824947,35.1938789743,2009
2009-11-26,2009-11-26,"ההגנה 25, ירושלים",ההגנה 25,30655-21-3,דירה בבית קומות,3.0,ראשונה,62.9,880000,,,1970.0,,9.0,3274888230,1,3065521,False,,ירושלים,ההגנה,,30655-21-3,30655/21,13990.46104928458,31.8018347272,35.2387917979,2009
2009-11-26,2009-11-26,"מנחם גלרנטר 7, ירושלים",מנחם גלרנטר 7,29937-61-20,דירה בבית קומות,4.0,חמישית,89.5,1100000,,,2009.0,,6.0,3274878840,1,2993761,False,,ירושלים,גלרנטר מנחם,,29937-61-20,29937/61,12290.50279329609,31.7204328622,35.2211571449,2009
2009-11-26,2009-11-26,"אהרון פישל 30, ירושלים",אהרון פישל 30,30103-59-5,דירה בבית קומות,1.0,מרתף,27.0,150000,,,1960.0,,2.0,3300006390,1,3010359,False,,ירושלים,פישל אהרן,,30103-59-5,30103/59,5555.555555555556,31.794416673,35.2206194588,2009
2009-11-26,2009-11-26,"הבבא סאלי 13, ירושלים",הבבא סאלי 13,29939-53-1,דירה בבית קומות,5.0,ראשונה,102.8,1480000,,,2009.0,,6.0,3274859280,1,2993953,False,,ירושלים,הבבא סאלי,,29939-53-1,29939/53,14396.887159533077,31.721824859,35.2293206393,2009
2009-11-26,2009-11-26,"החסידה 14, ירושלים",החסידה 14,28053-9-1,דירה בבית קומות,5.0,מרתף+קרקע+ראשונה,205.8,1874000,,,1990.0,,3.0,3274881570,1,280539,False,78% ב 11.7 שנים,ירושלים,החסידה,6.67,28053-9-1,28053/9,9105.92808551992,31.7328996169,35.181790087,2009
2009-11-26,2009-11-26,"אייזיק רמבה 602, ירושלים",אייזיק רמבה 602,30178-110-23,דירה בבית קומות,4.0,ראשונה,83.6,1100000,,,1980.0,,6.0,3274786230,1,30178110,False,,ירושלים,רמבה אייזיק,,30178-110-23,30178/110,13157.894736842109,31.7509074039,35.2289010767,2009
2009-11-26,2009-11-26,"עליית הנוער 1, ירושלים",עליית הנוער 1,30723-56-4,דירה בבית קומות,6.0,קרקע ראשונה,137.5,1900000,,,1980.0,,1.0,3275155050,1,3072356,False,,ירושלים,עלית הנוער,,30723-56-4,30723/56,13818.181818181818,31.8090550864,35.1994168464,2009
2009-11-25,2009-11-25,"החורש 173, ירושלים",החורש 173,30724-110-1,דירה בבית קומות,7.0,ראשונה,180.0,4100000,,,1980.0,,1.0,3275124330,1,30724110,False,,ירושלים,החורש,,30724-110-1,30724/110,22777.777777777777,31.8099098743,35.192250019,2009
2009-11-25,2009-11-25,"אבשלום חביב 30, ירושלים",אבשלום חביב 30,30207-13-21,דירה בבית קומות,3.0,ראשונה,59.5,750000,,,1970.0,,4.0,3274721640,1,3020713,False,,ירושלים,חביב אבשלום,,30207-13-21,30207/13,12605.042016806725,31.7510289739,35.2395537747,2009
2009-11-25,2009-11-25,"נאות דשא 1, ירושלים",נאות דשא 1,30820-2-25,דירה בבית קומות,2.0,,62.0,1888000,,,1997.0,,3.0,3274849830,1,308202,False,,ירושלים,נאות דשא,,30820-2-25,30820/2,30451.612903225807,31.7769100503,35.2242747202,2009
2009-11-25,2009-11-25,"אצ""ל 4, ירושלים","אצ""ל 4",30654-53-15,דירה בבית קומות,3.0,שישית,64.1,810000,,,1970.0,,9.0,3275015130,1,3065453,False,,ירושלים,"אצ""ל",,30654-53-15,30654/53,12636.50546021841,31.8032912277,35.2354735064,2009
2009-11-25,2009-11-25,"ראובן גמזון 29, ירושלים",ראובן גמזון 29,30646-8-40,דירה בבית קומות,3.5,שניה,65.0,850000,,,1970.0,,3.0,3274764720,1,306468,False,,ירושלים,גמזון ראובן,,30646-8-40,30646/8,13076.923076923076,31.8436054201,35.2398336285,2009
2009-11-25,2009-11-25,"חברון 72, ירושלים",חברון 72,30013-57-8,דירה בבית קומות,2.0,ראשונה,40.0,795000,,,2000.0,,2.0,3274795890,1,3001357,False,,ירושלים,חברון,,30013-57-8,30013/57,19875.0,31.7571825998,35.2222115083,2009
2009-11-25,2009-11-25,"רוממה 1, ירושלים",רוממה 1,30075-41-10,דירה בבית קומות,2.0,ראשונה,53.0,775000,,,1950.0,,3.0,3274938960,1,3007541,False,,ירושלים,רוממה,,30075-41-10,30075/41,14622.641509433965,31.7889647502,35.2046521767,2009
2009-11-25,2009-11-25,"יהושע ביצור 1, ירושלים",יהושע ביצור 1,30422-9-9,דירה בבית קומות,5.0,,123.0,2000000,,,1980.0,,1.0,3274853820,1,304229,False,,ירושלים,ביצור יהושע,,30422-9-9,30422/9,16260.162601626016,31.7509764337,35.1671274773,2009
2009-11-25,2009-11-25,"קרית משה 7, ירושלים",קרית משה 7,30153-40-16,דירה בבית קומות,2.0,שלישית,42.59,775000,,,1970.0,,3.0,3275285940,1,3015340,False,,ירושלים,קרית משה,,30153-40-16,30153/40,18196.7598027706,31.7855380573,35.1960408878,2009
2009-11-24,2009-11-24,"קורץ 5, ירושלים",קורץ 5,30696-45-84,דירה בבית קומות,4.0,ראשונה,117.4,2106000,,,2008.0,,7.0,3274883760,1,3069645,False,,ירושלים,קורץ,,30696-45-84,30696/45,17938.671209540033,31.7484970507,35.2264314802,2009
2009-11-24,2009-11-24,"ברכה צפירה 6, ירושלים",ברכה צפירה 6,30193-87-22,דירה בבית קומות,4.0,שלישית,91.5,2100000,,,2002.0,,4.0,3275096640,1,3019387,False,,ירושלים,צפירה ברכה,,30193-87-22,30193/87,22950.819672131147,31.7550883706,35.1855494995,2009
2009-11-24,2009-11-24,"קורץ 13, ירושלים",קורץ 13,30696-45-3,דירה בבית קומות,4.0,ראשונה,117.0,1895000,,,2008.0,,4.0,3275088210,1,3069645,False,,ירושלים,קורץ,,30696-45-3,30696/45,16196.581196581195,31.7484970507,35.2264314802,2009
2009-11-24,2009-11-24,"יסמין 3, ירושלים",יסמין 3,28046-31-6,דירה בבית קומות,4.0,ראשונה,74.2,970000,,,2021.0,,4.0,3274890180,1,2804631,False,82% ב 5.3 שנים,ירושלים,יסמין,15.47,28046-31-6,28046/31,13072.77628032345,31.7344249553,35.1977846972,2009
2009-11-24,2009-11-24,"אלכסנדר איג 126, ירושלים",אלכסנדר איג 126,30714-12-115,דירה בבית קומות,3.0,ראשונה,59.0,1000000,,,1980.0,,7.0,3274702800,1,3071412,False,,ירושלים,איג אלכסנדר,,30714-12-115,30714/12,16949.15254237288,31.8105989433,35.1973274506,2009
2009-11-24,2009-11-24,"מעגלות הרב פרדס 416, ירושלים",מעגלות הרב פרדס 416,30644-17-16,דירה בבית קומות,4.0,שניה,74.0,1000000,,,1970.0,,4.0,3274683510,1,3064417,False,,ירושלים,מעגלות הרב פרדס,,30644-17-16,30644/17,13513.513513513511,31.8401682595,35.2457702047,2009
2009-11-24,2009-11-24,"עזריאל הילדסהיימר 3, ירושלים",עזריאל הילדסהיימר 3,30010-129-31,דירה בבית קומות,4.0,שניה,100.5,3150000,,,1996.0,,3.0,3274938720,1,30010129,False,,ירושלים,הילדסהיימר עזריאל,,30010-129-31,30010/129,31343.283582089556,31.7640041449,35.2174946269,2009
2009-11-24,2009-11-24,"לבונה 7, ירושלים",לבונה 7,28046-22-10,דירה בבית קומות,3.0,ראשונה,56.0,800000,,,1970.0,,4.0,3275099850,1,2804622,False,,ירושלים,לבונה,,28046-22-10,28046/22,14285.714285714286,31.7339620863,35.1971012476,2009
2009-11-24,2009-11-24,"שילר 14, ירושלים",שילר 14,30163-63-38,דירה בבית קומות,2.0,ראשונה,55.0,1050000,,,1960.0,,2.0,3274880310,1,3016363,False,57% ב 10.9 שנים,ירושלים,שילר,5.23,30163-63-38,30163/63,19090.90909090909,31.7774050035,35.18704174,2009
2009-11-24,2009-11-24,"חטיבת הראל 101, ירושלים",חטיבת הראל 101,30102-132-41,דירה בבית קומות,3.0,שניה,47.6,1050000,,,1960.0,,5.0,3274746600,1,30102132,False,,ירושלים,חטיבת הראל,,30102-132-41,30102/132,22058.82352941177,31.7961093037,35.2218325035,2009
2009-11-24,2009-11-24,"המהר""ל מפראג 22, ירושלים","המהר""ל מפראג 22",29939-36-17,דירה בבית קומות,5.0,רביעית,124.4,1600000,,,2008.0,,7.0,3274860480,1,2993936,False,,ירושלים,"המהר""ל מפראג",,29939-36-17,29939/36,12861.736334405145,31.7209904197,35.2262146707,2009
2009-11-24,2009-11-24,"הרב ניסים יצחק 29, ירושלים",הרב ניסים יצחק 29,29934-28-146,דירה בבית קומות,5.5,שישית,147.0,1525000,,,2002.0,,5.0,3300169260,1,2993428,False,,ירושלים,הרב ניסים יצחק,,29934-28-146,29934/28,10374.149659863946,31.7264560928,35.2199084559,2009
2009-11-23,2009-11-23,"רב אלוף לסקוב 7, ירושלים",רב אלוף לסקוב 7,30668-12-73,דירה בבית קומות,4.0,שישית,77.3,935000,,,1987.0,,7.0,3274709280,1,3066812,False,,ירושלים,רב אלוף לסקוב,,30668-12-73,30668/12,12095.730918499354,31.8315231965,35.2434202104,2009
2009-11-23,2009-11-23,"מנחם גלרנטר 5, ירושלים",מנחם גלרנטר 5,29937-61-10,דירה בבית קומות,4.0,חמישית,89.5,1100000,,,2008.0,,6.0,3274783770,1,2993761,False,,ירושלים,גלרנטר מנחם,,29937-61-10,29937/61,12290.50279329609,31.7204328622,35.2211571449,2009
2009-11-23,2009-11-23,"מעגלות הרב פרדס 36, ירושלים",מעגלות הרב פרדס 36,30644-20-10,דירה בבית קומות,4.0,שניה,99.4,1110000,,,1970.0,,4.0,3274699140,1,3064420,False,64% ב 3.7 שנים,ירושלים,מעגלות הרב פרדס,17.3,30644-20-10,30644/20,11167.002012072437,31.8419220442,35.2448917539,2009
2009-11-23,2009-11-23,"חברון 148, ירושלים",חברון 148,30092-6-7,דירה בבית קומות,3.0,שלישית,47.0,715000,,,1960.0,,4.0,3275049060,1,300926,False,45% ב 9.9 שנים,ירושלים,חברון,4.55,30092-6-7,30092/6,15212.765957446809,31.7461120177,35.216131627,2009
2009-11-23,2009-11-23,"חביב חיים 7, ירושלים",חביב חיים 7,30407-117-1,דירה בבית קומות,3.5,ראשונה,69.0,1250000,,,1970.0,,7.0,3274729080,1,30407117,False,,ירושלים,חביב חיים,,30407-117-1,30407/117,18115.942028985508,31.7681445454,35.1732539749,2009
2009-11-23,2009-11-23,"הרב גולדקנופף 45, ירושלים",הרב גולדקנופף 45,30563-31-6,דירה בבית קומות,4.0,קרקע,97.65,1645000,,,1995.0,,2.0,3274913460,1,3056331,False,,ירושלים,הרב גולדקנופף,,30563-31-6,30563/31,16845.878136200718,31.8114602461,35.2178766229,2009
2009-11-23,2009-11-23,"רד""ק 22, ירושלים","רד""ק 22",30026-113-7,דירה בבית קומות,3.0,שניה,67.0,1600000,,,1960.0,,3.0,3275054760,1,30026113,False,8% ב 2 שנים,ירושלים,"רד""ק",4.0,30026-113-7,30026/113,23880.597014925374,31.7715515094,35.2143012836,2009
2009-11-23,2009-11-23,"בושם 438, ירושלים",בושם 438,28051-39-93,דירה בבית קומות,3.0,רביעית,62.2,747000,,,1980.0,,4.0,3300011850,1,2805139,False,,ירושלים,בושם,,28051-39-93,28051/39,12009.646302250803,31.7347157865,35.1891025227,2009
2009-11-23,2009-11-23,"שושנה 7, ירושלים",שושנה 7,30153-44-14,דירה בבית קומות,3.5,שניה,63.0,1420000,,,1960.0,,2.0,3274720170,1,3015344,False,85% ב 9.2 שנים,ירושלים,שושנה,9.24,30153-44-14,30153/44,22539.68253968254,31.7850803216,35.1956142467,2009
2009-11-22,2009-11-22,"האדמו""ר מויז'ניץ 1, ירושלים","האדמו""ר מויז'ניץ 1",30244-138-2,דירה בבית קומות,8.0,,200.0,2715000,,,1970.0,,3.0,3274848360,1,30244138,False,,ירושלים,"האדמו""ר מויז'ניץ",,30244-138-2,30244/138,13575.0,31.8019097785,35.218981931,2009
2009-11-22,2009-11-22,"קדיש לוז 8, ירושלים",קדיש לוז 8,30191-26-57,דירה בבית קומות,4.0,קרקע,88.0,1250000,,,1970.0,,7.0,3275024340,1,3019126,False,,ירושלים,קדיש לוז,,30191-26-57,30191/26,14204.545454545454,31.7593748579,35.18383329,2009
2009-11-22,2009-11-22,"החלוץ 18, ירושלים",החלוץ 18,30149-22-2,דירה בבית קומות,4.0,קרקע,112.0,2075000,,,1960.0,,1.0,3274756500,1,3014922,False,37% ב 2.1 שנים,ירושלים,החלוץ,17.62,30149-22-2,30149/22,18526.785714285717,31.7804841417,35.1921888542,2009
2009-11-22,2009-11-22,"לוי אשכול 38, ירושלים",לוי אשכול 38,30100-167-6,דירה בבית קומות,4.0,שניה,72.0,1444000,,,1970.0,,3.0,3274727580,1,30100167,False,37% ב 4.1 שנים,ירושלים,לוי אשכול,9.02,30100-167-6,30100/167,20055.555555555555,31.7993732445,35.2236969457,2009
2009-11-22,2009-11-22,"אליעזר לבנה 6, ירושלים",אליעזר לבנה 6,30644-8-12,דירה בבית קומות,1.0,קרקע,34.1,690000,,,1970.0,,4.0,3274793160,1,306448,False,41% ב 0.7 שנים,ירושלים,לבנה,58.57,30644-8-12,30644/8,20234.604105571845,31.8398212328,35.2437948623,2009
2009-11-22,2009-11-22,"ליש 402, ירושלים",ליש 402,28052-15-30,דירה בבית קומות,4.0,שניה,73.7,953000,,,1980.0,,4.0,3274682730,1,2805215,False,,ירושלים,ליש,,28052-15-30,28052/15,12930.80054274084,31.7308069258,35.1862986079,2009
2009-11-22,2009-11-22,"רבי חייא 8, ירושלים",רבי חייא 8,30004-47-16,דירה בבית קומות,2.0,ראשונה,50.0,880000,,,1960.0,,2.0,3300033360,1,3000447,False,,ירושלים,רבי חייא,,30004-47-16,30004/47,17600.0,31.7616484095,35.2127903723,2009
2009-11-22,2009-11-22,"הפלמ""ח 36, ירושלים","הפלמ""ח 36",30024-128-12,דירה בבית קומות,3.0,שלישית,83.0,1910000,,,1960.0,,4.0,3275044380,1,30024128,False,,ירושלים,"הפלמ""ח",,30024-128-12,30024/128,23012.048192771083,31.7671224259,35.2095712666,2009
2009-11-22,2009-11-22,"בני בתירא 10, ירושלים",בני בתירא 10,30123-37-20,דירה בבית קומות,4.0,חמישית,100.3,1645000,,,1970.0,,7.0,3274697640,1,3012337,False,,ירושלים,בני בתירא,,30123-37-20,30123/37,16400.797607178465,31.7577518746,35.2049122373,2009
2009-11-22,2009-11-22,"הפלמ""ח 77, ירושלים","הפלמ""ח 77",30185-73-6,דירה בבית קומות,4.0,שלישית,103.0,1530000,,,1960.0,,3.0,3274672170,1,3018573,False,102% ב 9.4 שנים,ירושלים,"הפלמ""ח",10.85,30185-73-6,30185/73,14854.368932038837,31.7634615044,35.2048841125,2009
2009-11-22,2009-11-22,"סיירת דוכיפת 19, ירושלים",סיירת דוכיפת 19,30659-4-3,דירה בבית קומות,3.0,ראשונה,69.34,735000,,,1984.0,,3.0,3274750350,1,306594,False,,ירושלים,סיירת דוכיפת,,30659-4-3,30659/4,10599.942313239111,31.8259155209,35.2419939967,2009
2009-11-22,2009-11-22,"אליעזר לבנה 6, ירושלים",אליעזר לבנה 6,30644-8-12,דירה בבית קומות,1.0,קרקע,34.1,690000,,,1970.0,,4.0,3274793160,1,306448,False,41% ב 0.7 שנים,ירושלים,לבנה אליעזר,58.57,30644-8-12,30644/8,20234.604105571845,31.8398212328,35.2437948623,2009
2009-11-22,2009-11-22,"חברון 114, ירושלים",חברון 114,30001-86-17,דירה בבית קומות,4.0,שלישית,85.0,1300000,,,1960.0,,4.0,3275056020,1,3000186,False,,ירושלים,חברון,,30001-86-17,30001/86,15294.117647058823,31.7519565659,35.219106775,2009
2009-11-22,2009-11-22,"חצרות 1, ירושלים",חצרות 1,30245-211-5,דירה בבית קומות,4.0,שניה,85.2,1800000,,,1970.0,2010.0,4.0,3274702110,1,30245211,False,,ירושלים,חצרות,,30245-211-5,30245/211,21126.76056338028,31.8002422083,35.2225321471,2009
2009-11-21,2009-11-21,"תכלת מרדכי 17, ירושלים",תכלת מרדכי 17,30236-117-15,מחסנים,,ראשונה,,90000,,,2004.0,,5.0,3275328540,1,30236117,False,,ירושלים,תכלת מרדכי,,30236-117-15,30236/117,,31.7938163984,35.2073056721,2009
2009-11-20,2009-11-20,"שמעון בן-חמו 5, ירושלים",שמעון בן-חמו 5,29937-22-45,דירה בבית קומות,5.0,,102.0,1400000,,,2005.0,,5.0,3274941930,1,2993722,False,,ירושלים,בן חמו שמעון,,29937-22-45,29937/22,13725.490196078432,31.7236545869,35.2230323095,2009
2009-11-19,2009-11-19,"הגפן 228, ירושלים",הגפן 228,28050-42-60,דירה בבית קומות,4.0,שלישית,72.0,865000,,,1980.0,,3.0,3274664970,1,2805042,False,75% ב 4.5 שנים,ירושלים,הגפן,16.67,28050-42-60,28050/42,12013.888888888889,31.7280907266,35.1919854674,2009
2009-11-19,2009-11-19,"כתב סופר 20, ירושלים",כתב סופר 20,30096-66-8,דירה בבית קומות,3.0,ראשונה,64.0,1250000,,,1960.0,,4.0,3274647420,1,3009666,False,,ירושלים,כתב סופר,,30096-66-8,30096/66,19531.25,31.7924700287,35.193687483,2009
2009-11-19,2009-11-19,"נחמה 7, ירושלים",נחמה 7,29935-21-29,דירה בבית קומות,4.0,רביעית,92.27,1120000,,,2002.0,,6.0,3274847100,1,2993521,False,,ירושלים,נחמה,,29935-21-29,29935/21,12138.289801669016,31.7267372884,35.2248697155,2009
2009-11-19,2009-11-19,"נפתלי 9, ירושלים",נפתלי 9,30014-163-8,דירה בבית קומות,4.0,ראשונה ושניה,116.4,2200000,,,1988.0,,3.0,3274652310,1,30014163,False,,ירושלים,נפתלי,,30014-163-8,30014/163,18900.34364261168,31.759008593,35.21681849,2009
2009-11-19,2009-11-19,"פנמה 4, ירושלים",פנמה 4,30435-116-17,דירה בבית קומות,4.0,שניה,72.0,895000,,,1960.0,,2.0,3274628340,1,30435116,False,,ירושלים,פנמה,,30435-116-17,30435/116,12430.555555555557,31.7571264066,35.1619027402,2009
2009-11-19,2009-11-19,"יעקב שרייבום 7, ירושלים",יעקב שרייבום 7,30337-245-7,דירה בבית קומות,4.0,שלישית,125.05,1950000,,,2008.0,,3.0,3274660740,1,30337245,False,11% ב 0.2 שנים,ירושלים,שרייבום יעקב,55.0,30337-245-7,30337/245,15593.762495002,31.7728813709,35.1934179914,2009
2009-11-19,2009-11-19,"מעגלי הרי""ם לוין 108, ירושלים","מעגלי הרי""ם לוין 108",30244-130-74,דירה בבית קומות,2.0,חמישית,54.8,1400000,,,1970.0,,5.0,3274714680,1,30244130,False,1% ב 0.7 שנים,ירושלים,"מעגלי הרי""ם לוין",1.43,30244-130-74,30244/130,25547.445255474453,31.8025294412,35.2168602169,2009
2009-11-18,2009-11-18,"נטר 129, ירושלים",נטר 129,30100-135-38,דירה בבית קומות,5.0,רביעית וחמישית,109.7,1700000,,,1970.0,,4.0,3274904070,1,30100135,False,36% ב 3.5 שנים,ירושלים,נטר,10.29,30100-135-38,30100/135,15496.809480401094,31.7965732793,35.2252251885,2009
2009-11-18,2009-11-18,"נפתלי 17, ירושלים",נפתלי 17,30015-91-77,דירה בבית קומות,2.0,שניה,37.58,910000,,,1960.0,,5.0,3274737750,1,3001591,False,119% ב 3.6 שנים,ירושלים,נפתלי,33.06,30015-91-77,30015/91,24215.007982969662,31.7601940318,35.2174906225,2009
2009-11-18,2009-11-18,"השישה עשר 45, ירושלים",השישה עשר 45,30667-6-8,דירה בבית קומות,3.0,,72.0,730000,,,1985.0,,1.0,3274904310,1,306676,False,,ירושלים,השישה עשר,,30667-6-8,30667/6,10138.888888888889,31.8299044192,35.2456921803,2009
2009-11-18,2009-11-18,"אריה בן-אליעזר 62, ירושלים",אריה בן-אליעזר 62,28048-55-44,דירה בבית קומות,5.0,רביעית,100.3,961000,,,1970.0,,4.0,3274675140,1,2804855,False,,ירושלים,בן אליעזר אריה,,28048-55-44,28048/55,9581.256231306084,31.7365852919,35.1992908563,2009
2009-11-18,2009-11-18,"קורא הדורות 2, ירושלים",קורא הדורות 2,30115-42-2,מחסנים,,,,414000,,,1920.0,,,3300894240,1,3011542,False,,ירושלים,קורא הדורות,,30115-42-2,30115/42,,31.7524323541,35.2228288743,2009
2009-11-18,2009-11-18,"גדרה 4, ירושלים",גדרה 4,30234-17-3,דירה בבית קומות,3.0,ראשונה,51.6,1360000,,,1950.0,,2.0,3274775340,1,3023417,False,,ירושלים,גדרה,,30234-17-3,30234/17,26356.58914728682,31.7945683719,35.1989035585,2009
2009-11-18,2009-11-18,"שרי ישראל 13, ירושלים",שרי ישראל 13,30076-195-14,דירה בבית קומות,4.0,שישית,94.55,1754000,,,2006.0,,8.0,3300123960,1,30076195,False,,ירושלים,שרי ישראל,,30076-195-14,30076/195,18551.031200423055,31.7894329646,35.2068171222,2009
2009-11-18,2009-11-18,"רפאל בר-לביא 4, ירושלים",רפאל בר-לביא 4,29937-32-18,דירה בבית קומות,4.0,,90.0,1200000,,,2008.0,,1.0,3274642710,1,2993732,False,,ירושלים,בר לביא רפאל,,29937-32-18,29937/32,13333.333333333334,31.7233860335,35.2248309181,2009
2009-11-18,2009-11-18,"הגומא 1, ירושלים",הגומא 1,28051-49-30,דירה בבית קומות,3.5,שלישית,70.1,840000,,,1980.0,,4.0,3274709520,1,2805149,False,,ירושלים,הגומא,,28051-49-30,28051/49,11982.881597717547,31.7359501099,35.1900705484,2009
2009-11-18,2009-11-18,"ברזיל 26, ירושלים",ברזיל 26,30399-7-12,דירה בבית קומות,3.0,שביעית,55.8,785000,,,1960.0,,8.0,3274613250,1,303997,False,,ירושלים,ברזיל,,30399-7-12,30399/7,14068.10035842294,31.7644100903,35.1721481831,2009
2009-11-18,2009-11-18,"צבי מסליאנסקי 10, ירושלים",צבי מסליאנסקי 10,30710-3-46,דירה בבית קומות,4.0,שניה,107.0,1820000,,,1990.0,,1.0,3274879320,1,307103,False,,ירושלים,מסליאנסקי צבי,,30710-3-46,30710/3,17009.345794392524,31.8173727978,35.1888774739,2009
2009-11-18,2009-11-18,"דוד מרץ 14, ירושלים",דוד מרץ 14,30193-4-26,דירה בבית קומות,4.0,שישית + שביעית,91.9,1435000,,,1980.0,,7.0,3274700850,1,301934,False,39% ב 5.6 שנים,ירושלים,מרץ דוד,6.96,30193-4-26,30193/4,15614.79869423286,31.7591457881,35.1866613753,2009
2009-11-18,2009-11-18,"בושם 438, ירושלים",בושם 438,28051-39-59,דירה בבית קומות,3.0,שלישית,67.45,820000,,,1980.0,,4.0,3274619970,1,2805139,False,55% ב 6 שנים,ירושלים,בושם,9.17,28051-39-59,28051/39,12157.153446997776,31.7347157865,35.1891025227,2009
2009-11-18,2009-11-18,"הבבא סאלי 13, ירושלים",הבבא סאלי 13,29939-53-3,דירה בבית קומות,5.0,שניה,102.8,1240000,,,2009.0,,6.0,3274707570,1,2993953,False,,ירושלים,הבבא סאלי,,29939-53-3,29939/53,12062.256809338522,31.721824859,35.2293206393,2009
2009-11-18,2009-11-18,"חברון 116, ירושלים",חברון 116,30187-25-16,דירה בבית קומות,4.0,ראשונה,69.6,945000,,,1970.0,,3.0,3274722360,1,3018725,False,,ירושלים,חברון,,30187-25-16,30187/25,13577.586206896553,,,2009
2009-11-18,2009-11-18,"האדמו""ר מרוז'ין 27, ירושלים","האדמו""ר מרוז'ין 27",30271-43-12,דירה בבית קומות,4.0,רביעית,102.5,1600000,,,1980.0,,6.0,3274715940,1,3027143,False,,ירושלים,"האדמו""ר מרוז'ין",,30271-43-12,30271/43,15609.756097560976,31.7880774413,35.1711629194,2009
2009-11-18,2009-11-18,"אלכסנדרון 3, ירושלים",אלכסנדרון 3,30172-48-1,דירה בבית קומות,4.5,ראשונה,25.76,1930000,,,1960.0,,2.0,3274747140,1,3017248,False,,ירושלים,אלכסנדריון,,30172-48-1,30172/48,74922.3602484472,31.7549293357,35.2019639765,2009
2009-11-17,2009-11-17,"ראובן 22, ירושלים",ראובן 22,30015-45-6,דירה בבית קומות,4.0,שניה,79.9,2400000,,,1930.0,,2.0,3274620150,1,3001545,False,,ירושלים,ראובן,,30015-45-6,30015/45,30037.546933667083,31.759647878,35.2178391792,2009
2009-11-17,2009-11-17,"התאנה 9, ירושלים",התאנה 9,28051-67-60,דירה בבית קומות,4.0,שלישית,79.7,1000000,,,1980.0,,4.0,3274625610,1,2805167,False,54% ב 2.9 שנים,ירושלים,התאנה,18.62,28051-67-60,28051/67,12547.051442910915,31.7346177816,35.1902014269,2009
2009-11-17,2009-11-17,"הפלמ""ח 20, ירושלים","הפלמ""ח 20",30023-145-12,דירה בבית קומות,4.0,,66.0,1713000,,,1950.0,,4.0,3275208990,1,30023145,False,,ירושלים,"הפלמ""ח",,30023-145-12,30023/145,25954.545454545456,31.76764416,35.2113484914,2009
2009-11-17,2009-11-17,"הרצל 26, ירושלים",הרצל 26,30153-113-8,דירה בבית קומות,3.0,שניה,58.0,1266000,,,1937.0,,22.0,3275064690,1,30153113,False,,ירושלים,הרצל,,30153-113-8,30153/113,21827.58620689655,31.7851725859,35.1969647599,2009
2009-11-17,2009-11-17,"אביעזר 5, ירושלים",אביעזר 5,30730-9-15,דירה בבית קומות,5.0,קרקע+ראשונה,148.3,2100000,,,1985.0,,4.0,3274602330,1,307309,False,,ירושלים,אביעזר,,30730-9-15,30730/9,14160.48550236008,31.8151236709,35.1926231469,2009
2009-11-17,2009-11-17,"דברי חיים 24, ירושלים",דברי חיים 24,30298-14-23,דירה בבית קומות,4.0,שביעית,113.3,1760000,,,2011.0,,9.0,3274635540,1,3029814,False,,ירושלים,דברי חיים,,30298-14-23,30298/14,15533.980582524273,31.7983944679,35.2078915708,2009
2009-11-17,2009-11-17,"הבבא סאלי 17, ירושלים",הבבא סאלי 17,29939-53-29,דירה בבית קומות,4.0,רביעית,94.7,1125000,,,2009.0,,6.0,3275213430,1,2993953,False,,ירושלים,הבבא סאלי,,29939-53-29,29939/53,11879.619852164731,31.721824859,35.2293206393,2009
2009-11-17,2009-11-17,"הצוף 3, ירושלים",הצוף 3,28046-21-10,דירה בבית קומות,3.0,קרקע,62.9,840000,,,1970.0,,3.0,3274684980,1,2804621,False,,ירושלים,הצוף,,28046-21-10,28046/21,13354.531001589825,31.733669193,35.1975154218,2009
2009-11-17,2009-11-17,"מקור חיים 44, ירושלים",מקור חיים 44,30141-37-8,דירה בבית קומות,4.0,קרקע,89.3,1850000,,,1996.0,,2.0,3274663950,1,3014137,False,,ירושלים,מקור חיים,,30141-37-8,30141/37,20716.685330347143,31.7535617226,35.2105205032,2009
2009-11-16,2009-11-16,"מרגלית 31, ירושלים",מרגלית 31,28052-57-13,דירה בבית קומות,3.0,שלישית,64.4,685000,,,1980.0,,4.0,3300053970,1,2805257,False,,ירושלים,מרגלית,,28052-57-13,28052/57,10636.64596273292,31.7292356565,35.185850552,2009
2009-11-16,2009-11-16,"הנטקה 68, ירושלים",הנטקה 68,30399-22-1,דירה בבית קומות,4.0,קרקע,100.0,930000,,,1960.0,,2.0,3274630080,1,3039922,False,,ירושלים,הנטקה,,30399-22-1,30399/22,9300.0,31.7651409789,35.1732147696,2009
2009-11-16,2009-11-16,"הרב חסדאי קרשקש 1, ירושלים",הרב חסדאי קרשקש 1,29937-93-1,דירה בבית קומות,6.0,מרתף שלישי,130.0,1705000,,,2009.0,,3.0,3274686720,1,2993793,False,,ירושלים,הרב חסדאי קרשקש,,29937-93-1,29937/93,13115.384615384615,31.7199946687,35.22395404,2009
2009-11-16,2009-11-16,"כתב סופר 6, ירושלים",כתב סופר 6,30096-107-4,דירה בבית קומות,5.0,שניה,121.0,1600000,,,2008.0,,7.0,3275317140,1,30096107,False,3% ב 1 שנים,ירושלים,כתב סופר,3.0,30096-107-4,30096/107,13223.140495867769,31.7920217716,35.1952975221,2009
2009-11-16,2009-11-16,"בן גמלא יהושע 5, ירושלים",בן גמלא יהושע 5,30005-73-9,דירה בבית קומות,3.0,שלישית,47.39,1150000,,,1957.0,,3.0,3274568940,1,3000573,False,,ירושלים,בן גמלא יהושע,,30005-73-9,30005/73,24266.72293732855,31.7602438931,35.212010381,2009
2009-11-16,2009-11-16,"משה חובב 4, ירושלים",משה חובב 4,30164-308-18,דירה בבית קומות,3.0,ראשונה,77.35,1600000,,,2003.0,,4.0,3274609050,1,30164308,False,,ירושלים,חובב משה,,30164-308-18,30164/308,20685.197155785398,31.7741800861,35.1871024058,2009
2009-11-16,2009-11-16,"ליכטנשטיין 1, ירושלים",ליכטנשטיין 1,29937-41-10,דירה בבית קומות,4.0,חמישית,78.3,970000,,,2003.0,,7.0,3274585290,1,2993741,False,,ירושלים,ליכטנשטיין,,29937-41-10,29937/41,12388.250319284802,31.7227424706,35.2215935355,2009
2009-11-16,2009-11-16,"הדקל 1, ירושלים",הדקל 1,30073-50-4,דירה בבית קומות,3.0,,70.0,990000,,,1930.0,,4.0,3274615230,1,3007350,False,,ירושלים,הדקל,,30073-50-4,30073/50,14142.857142857143,31.7852629401,35.2111642876,2009
2009-11-16,2009-11-16,"המהר""ל מפראג 22, ירושלים","המהר""ל מפראג 22",29939-36-10,דירה בבית קומות,5.0,קרקע,98.92,1342000,,,2008.0,,7.0,3274859760,1,2993936,False,,ירושלים,"המהר""ל מפראג",,29939-36-10,29939/36,13566.518398706025,31.7209904197,35.2262146707,2009
2009-11-16,2009-11-16,"שלמה דוגה 37, ירושלים",שלמה דוגה 37,28110-27-4,דירה בבית קומות,6.0,ראשונה וחלל גג,129.4,1570000,,,1990.0,,2.0,3274598100,1,2811027,False,49% ב 3.3 שנים,ירושלים,דוגה שלמה,14.85,28110-27-4,28110/27,12132.92117465224,31.7292480632,35.1987828618,2009
2009-11-16,2009-11-16,"בר-יוחאי 3, ירושלים",בר-יוחאי 3,30200-17-21,דירה בבית קומות,2.0,קומה ‎3‏,53.2,690000,,,1960.0,,5.0,3275181540,1,3020017,False,,ירושלים,בר יוחאי,,30200-17-21,30200/17,12969.924812030074,31.753706515,35.1991312578,2009
2009-11-15,2009-11-15,"ארץ חפץ 113, ירושלים",ארץ חפץ 113,30100-69-19,דירה בבית קומות,4.0,חמישית,80.0,1025000,,,1960.0,,5.0,3274777320,1,3010069,False,,ירושלים,ארץ חפץ,,30100-69-19,30100/69,12812.5,31.7961260621,35.2236727956,2009
2009-11-15,2009-11-15,"התומר 10, ירושלים",התומר 10,30161-157-1,דירה בבית קומות,3.0,ראשונה,62.75,931000,,,1970.0,,4.0,3274671150,1,30161157,False,,ירושלים,התומר,,30161-157-1,30161/157,14836.653386454183,31.7784892854,35.1853675237,2009
2009-11-15,2009-11-15,"בית לחם 91, ירושלים",בית לחם 91,30001-85-8,דירה בבית קומות,4.0,שלישית,75.0,1135000,,,1960.0,,4.0,3274620390,1,3000185,False,,ירושלים,בית לחם,,30001-85-8,30001/85,15133.333333333334,31.7522144997,35.2192216019,2009
2009-11-15,2009-11-15,"בנין 2, ירושלים",בנין 2,30185-170-51,דירה בבית קומות,5.0,שניה,125.0,2460000,,,1980.0,,7.0,3274739700,1,30185170,False,,ירושלים,בנין,,30185-170-51,30185/170,19680.0,31.7634361945,35.203904644,2009
2009-11-15,2009-11-15,"בית הכרם 16, ירושלים",בית הכרם 16,30150-22-2,דירה בבית קומות,5.0,ראשונה,96.0,1900000,,,1970.0,,3.0,3274544400,1,3015022,False,,ירושלים,בית הכרם,,30150-22-2,30150/22,19791.666666666668,31.7807856078,35.1906672661,2009
2009-11-15,2009-11-15,"בית הכרם 16, ירושלים",בית הכרם 16,30150-22-2,דירה בבית קומות,5.0,ראשונה,96.0,1900000,,,1970.0,,3.0,3274544400,1,3015022,False,,ירושלים,גבעת בית הכרם,,30150-22-2,30150/22,19791.666666666668,31.7807856078,35.1906672661,2009
2009-11-15,2009-11-15,"מקור חיים 51, ירושלים",מקור חיים 51,30130-24-13,דירה בבית קומות,5.0,רביעית,147.2,2122000,,,2004.0,,4.0,3275035740,1,3013024,False,10% ב 2.4 שנים,ירושלים,מקור חיים,4.17,30130-24-13,30130/24,14415.760869565218,31.7519486625,35.2108886233,2009
2009-11-13,2009-11-13,"החלוץ 18, ירושלים",החלוץ 18,30149-22-8,דירה בבית קומות,3.5,ראשונה,68.0,1420000,,,1960.0,,1.0,3274541970,1,3014922,False,,ירושלים,החלוץ,,30149-22-8,30149/22,20882.352941176472,31.7804841417,35.1921888542,2009
2009-11-13,2009-11-13,"הגדוד העברי 15, ירושלים",הגדוד העברי 15,30023-105-6,דירה בבית קומות,3.0,שניה,87.0,2010000,,,1950.0,,2.0,3274673640,1,30023105,False,,ירושלים,הגדוד העברי,,30023-105-6,30023/105,23103.44827586207,31.7671593829,35.2138323346,2009
2009-11-13,2009-11-13,"גואטמאלה 25, ירושלים",גואטמאלה 25,30415-182-20,דירה בבית קומות,3.0,שביעית,51.65,770000,,,1960.0,,7.0,3274794660,1,30415182,False,,ירושלים,גואטמאלה,,30415-182-20,30415/182,14908.0348499516,31.7561046845,35.1788580907,2009
2009-11-13,2009-11-13,"אריה מקלף 9, ירושלים",אריה מקלף 9,30312-33-1,דירה בבית קומות,4.0,,105.0,1358000,,,1974.0,,,3275361690,1,3031233,False,,ירושלים,מקלף אריה,,30312-33-1,30312/33,12933.333333333334,31.7917511062,35.1678271491,2009
2009-11-12,2009-12-11,"הרב עוזיאל 21, ירושלים",הרב עוזיאל 21,30164-233-8,דירה בבית קומות,3.5,שניה,63.0,1750000,,,1970.0,,2.0,3275307750,1,30164233,False,,ירושלים,הרב עוזיאל,,30164-233-8,30164/233,27777.777777777777,31.7712715844,35.1849271221,2009
2009-11-12,2009-12-11,"קרית משה 7, ירושלים",קרית משה 7,30153-40-6,דירה בבית קומות,2.0,ראשונה,42.59,880000,,,2019.0,,3.0,3300154860,1,3015340,False,,ירושלים,קרית משה,,30153-40-6,30153/40,20662.12725992017,31.7855380573,35.1960408878,2009
2009-11-11,2009-11-11,"גואטמאלה 3, ירושלים",גואטמאלה 3,30413-83-150,דירה בבית קומות,3.0,,75.0,1030000,,,1993.0,,10.0,3274726560,1,3041383,False,,ירושלים,גואטמאלה,,30413-83-150,30413/83,13733.333333333334,31.7605160849,35.1775239406,2009
2009-11-11,2009-11-11,"סולם יעקב 8, ירושלים",סולם יעקב 8,30716-13-9,דירה בבית קומות,3.0,רביעית,59.1,1020000,,,1970.0,,4.0,3274905030,1,3071613,False,81% ב 6.3 שנים,ירושלים,סולם יעקב,12.86,30716-13-9,30716/13,17258.883248730963,31.8196596384,35.2010208873,2009
2009-11-11,2009-11-11,"הרב צבי יהודה 7, ירושלים",הרב צבי יהודה 7,30138-35-101,דירה בבית קומות,3.0,שניה,73.0,1335000,,,1950.0,,2.0,3274925580,1,3013835,False,,ירושלים,הרב צבי יהודה,,30138-35-101,30138/35,18287.671232876717,,,2009
2009-11-11,2009-11-11,"הרב צבי יהודה 7, ירושלים",הרב צבי יהודה 7,30138-35-101,דירה בבית קומות,3.0,שניה,73.0,1335000,,,1950.0,,2.0,3274925580,1,3013835,False,,ירושלים,יהודה,,30138-35-101,30138/35,18287.671232876717,,,2009
2009-11-11,2009-11-11,"הרצל 62, ירושלים",הרצל 62,30153-151-12,דירה בבית קומות,3.0,ראשונה,57.9,1080000,,,1960.0,,3.0,3274526640,1,30153151,False,18% ב 0.5 שנים,ירושלים,הרצל,36.0,30153-151-12,30153/151,18652.849740932645,31.7832274489,35.193148103,2009
2009-11-11,2009-11-11,"האדמו""ר מגור 2, ירושלים","האדמו""ר מגור 2",30244-141-9,דירה בבית קומות,4.0,שלישית,110.0,1750000,,,1930.0,,5.0,3274540950,1,30244141,False,,ירושלים,"האדמו""ר מגור",,30244-141-9,30244/141,15909.09090909091,31.8009696591,35.2182802586,2009
2009-11-11,2009-11-11,"מנחת יצחק 15, ירושלים",מנחת יצחק 15,30079-170-16,מחסנים,,שישית+שביעית,229.95,200000,,,1995.0,,9.0,3275033490,1,30079170,False,,ירושלים,מנחת יצחק,,30079-170-16,30079/170,869.7542944118287,31.7946943505,35.2102181992,2009
2009-11-11,2009-11-11,"הרב ריינס 17, ירושלים",הרב ריינס 17,30162-10-12,דירה בבית קומות,3.0,שניה,60.0,1390000,,,1970.0,,3.0,3274508760,1,3016210,False,,ירושלים,הרב ריינס,,30162-10-12,30162/10,23166.666666666668,31.7892510306,35.1956310596,2009
2009-11-10,2009-10-11,"גשר החיים 19, ירושלים",גשר החיים 19,30076-171-26,דירה בבית קומות,4.0,קרקע,66.0,1500000,,,1970.0,,1.0,3274245930,1,30076171,False,,ירושלים,גשר החיים,,30076-171-26,30076/171,22727.272727272728,31.7895680728,35.2076313556,2009
2009-11-10,2009-10-11,"החרצית 5, ירושלים",החרצית 5,30435-11-7,דירה בבית קומות,4.0,שניה,67.1,1200000,,,1966.0,,4.0,3274118190,1,3043511,False,,ירושלים,החרצית,,30435-11-7,30435/11,17883.755588673623,31.7580515678,35.163320049,2009
2009-11-10,2009-10-11,"גליק נלסון 25, ירושלים",גליק נלסון 25,30712-13-9,דירה בבית קומות,3.0,ראשונה,68.0,855000,,,1980.0,,2.0,3274061040,1,3071213,False,34% ב 6.2 שנים,ירושלים,גליק נלסון,5.48,30712-13-9,30712/13,12573.529411764706,31.8145105099,35.1938007615,2009
2009-11-10,2009-10-11,"בן-לברט 9, ירושלים",בן-לברט 9,30025-176-8,דירה בבית קומות,4.0,ראשונה,120.0,3176000,,,1939.0,,1.0,3274440450,1,30025176,False,,ירושלים,בן לברט,,30025-176-8,30025/176,26466.666666666668,31.7707704947,35.2106006691,2009
2009-11-10,2009-10-11,"פנים מאירות 9, ירושלים",פנים מאירות 9,30234-81-7,דירה בבית קומות,3.0,שניה,68.39,1214000,,,1960.0,,6.0,3274054110,1,3023481,False,,ירושלים,פנים מאירות,,30234-81-7,30234/81,17751.133206609153,31.7960144572,35.2020510451,2009
2009-11-10,2009-10-11,"אחד העם 6, ירושלים",אחד העם 6,30027-10-2,דירה בבית קומות,2.0,קרקע,50.0,1370000,,,1950.0,,3.0,3274468200,1,3002710,False,,ירושלים,אחד העם,,30027-10-2,30027/10,27400.0,31.7733768361,35.2184956518,2009
2009-11-10,2009-10-11,"לבונה 9, ירושלים",לבונה 9,28046-22-22,דירה בבית קומות,3.0,שלישית,56.0,770000,,,1970.0,,4.0,3274028640,1,2804622,False,37% ב 9.4 שנים,ירושלים,לבונה,3.94,28046-22-22,28046/22,13750.0,31.7339620863,35.1971012476,2009
2009-11-09,2009-09-11,"יעקב נחום אפשטיין 7, ירושלים",יעקב נחום אפשטיין 7,30343-43-0,קרקע למגורים,,,6381.0,43497000,,,1960.0,,4.0,3483443580,1,3034343,True,-3% ב 2 שנים,ירושלים,אפשטיין יעקב נחום,-1.5,30343-43-0,30343/43,6816.643159379408,31.7693291504,35.1799672806,2009
2009-11-09,2009-09-11,"אלקבץ 2, ירושלים",אלקבץ 2,30160-39-7,תעשיה,,שניה,405.0,1938000,,,1979.0,,2.0,3274637730,1,3016039,False,,ירושלים,אלקבץ,,30160-39-7,30160/39,4785.185185185185,31.7922928235,35.1912011096,2009
2009-11-09,2009-09-11,"הרב בצלאל ז'ולטי 9, ירושלים",הרב בצלאל ז'ולטי 9,30563-81-3,דירה בבית קומות,3.0,ראשונה,90.25,1290000,,,1995.0,,3.0,3274156110,1,3056381,False,,ירושלים,הרב ז'ולטי בצלאל,,30563-81-3,30563/81,14293.628808864269,31.8113596861,35.2153855538,2009
2009-11-09,2009-09-11,"בובליק גדליה 17, ירושלים",בובליק גדליה 17,30720-4-25,דירה בבית קומות,5.0,שניה,83.0,1440000,,,1980.0,,3.0,3273849660,1,307204,False,70% ב 4.5 שנים,ירושלים,בובליק גדליה,15.56,30720-4-25,30720/4,17349.397590361445,31.8150069901,35.2026099007,2009
2009-11-09,2009-09-11,"האחות זלמה 22, ירושלים",האחות זלמה 22,30424-26-12,דירה בבית קומות,3.0,שניה,84.7,1250000,,,1980.0,,4.0,3273973470,1,3042426,False,,ירושלים,האחות זלמה,,30424-26-12,30424/26,14757.969303423848,31.7486957005,35.1690160727,2009
2009-11-08,2009-08-11,"בנימין מטודלה 11, ירושלים",בנימין מטודלה 11,30025-145-10,דירה בבית קומות,3.0,שניה,54.0,1500000,,,1950.0,,2.0,3273196020,1,30025145,False,,ירושלים,בנימין מטודלה,,30025-145-10,30025/145,27777.777777777777,31.771793441,35.2121043877,2009
2009-11-08,2009-08-11,"סולם יעקב 50, ירושלים",סולם יעקב 50,30716-16-22,דירה בבית קומות,2.0,קרקע,28.2,680000,,,1970.0,,4.0,3273212820,1,3071616,False,2% ב 1.1 שנים,ירושלים,סולם יעקב,1.82,30716-16-22,30716/16,24113.475177304965,31.8176374595,35.200375514,2009
2009-11-08,2009-08-11,"אחינועם 11, ירושלים",אחינועם 11,30099-63-5,דירה בבית קומות,3.0,שלישית,75.0,1380000,,,1980.0,,3.0,3273173010,1,3009963,False,,ירושלים,אחינעם,,30099-63-5,30099/63,18400.0,31.7985333268,35.2206207931,2009
2009-11-08,2009-08-11,"סן מרטין 1, ירושלים",סן מרטין 1,30169-9-53,דירה בבית קומות,2.0,שניה,50.0,635000,,,1960.0,,5.0,3273159360,1,301699,False,,ירושלים,סן מרטין,,30169-9-53,30169/9,12700.0,31.7564308876,35.1951839023,2009
2009-11-08,2009-08-11,"קורץ 11, ירושלים",קורץ 11,30696-45-24,דירה בבית קומות,4.0,ראשונה,119.2,1742000,,,2008.0,,7.0,3273445500,1,3069645,False,,ירושלים,קורץ,,30696-45-24,30696/45,14614.093959731545,31.7484970507,35.2264314802,2009
2009-11-08,2009-08-11,"דולצ'ין 24, ירושלים",דולצ'ין 24,30424-17-16,דירה בבית קומות,3.0,רביעית,71.5,1220000,,,1997.0,,4.0,3273204690,1,3042417,False,,ירושלים,דולצ'ין,,30424-17-16,30424/17,17062.937062937064,31.7505784403,35.1691220464,2009
2009-11-08,2009-08-11,"חזון ציון 8, ירושלים",חזון ציון 8,30147-98-23,דירה בבית קומות,3.0,שמינית,52.0,1200000,,,1970.0,,8.0,3273215070,1,3014798,False,51% ב 6.4 שנים,ירושלים,חזון ציון,7.97,30147-98-23,30147/98,23076.92307692308,31.7823889732,35.1942094333,2009
2009-11-08,2009-08-11,"יואל 21, ירושלים",יואל 21,30085-106-7,חנות,,ראשונה,,11402000,,,1900.0,,3.0,3273859350,1,30085106,False,,ירושלים,יואל,,30085-106-7,30085/106,,31.7905005909,35.2210416392,2009
2009-11-08,2009-08-11,"יואל 21, ירושלים",יואל 21,30085-106-6,חנות,,ראשונה,23.0,9302000,,,1930.0,,3.0,3273858870,1,30085106,False,,ירושלים,יואל,,30085-106-6,30085/106,404434.7826086957,31.7905005909,35.2210416392,2009
2009-11-08,2009-08-11,"מרכוס 8, ירושלים",מרכוס 8,30022-4-1,דירה בבית קומות,4.0,קרקע,100.0,6385000,,,1997.0,,3.0,3273731640,1,300224,False,,ירושלים,מרכוס,,30022-4-1,30022/4,63850.0,31.7701288117,35.2166113659,2009
2009-11-08,2009-08-11,"קורץ 9, ירושלים",קורץ 9,30696-45-51,דירה בבית קומות,3.0,רביעית,95.8,1820000,,,2008.0,,6.0,3273444810,1,3069645,False,,ירושלים,קורץ,,30696-45-51,30696/45,18997.91231732777,31.7484970507,35.2264314802,2009
2009-11-07,2009-07-11,"ישראל אלדד 2, ירושלים",ישראל אלדד 2,30695-9-111,דירה בבית קומות,4.0,שניה,92.86,1430000,,,2000.0,,7.0,3272936190,1,306959,False,,ירושלים,ישראל אלדד,,30695-9-111,30695/9,15399.526168425587,31.7531634359,35.2247071652,2009
2009-11-06,2009-06-11,"עולי הגרדום 29, ירושלים",עולי הגרדום 29,30208-19-8,דירה בבית קומות,2.0,שניה,42.0,540000,,,1974.0,,4.0,3272244930,1,3020819,False,,ירושלים,עולי הגרדום,,30208-19-8,30208/19,12857.142857142857,31.7493328222,35.2376200573,2009
2009-11-06,2009-06-11,"חזקיהו המלך 23, ירושלים",חזקיהו המלך 23,30004-11-6,דירה בבית קומות,3.0,ראשונה,57.0,1160000,,,1963.0,,3.0,3272108280,1,3000411,False,,ירושלים,חזקיהו המלך,,30004-11-6,30004/11,20350.877192982454,31.7619243881,35.2115682057,2009
2009-11-06,2009-06-11,"עזה 33, ירושלים",עזה 33,30026-130-13,דירה בבית קומות,2.0,שניה,44.0,1137000,,,1960.0,,3.0,3272305080,1,30026130,False,55% ב 4.7 שנים,ירושלים,עזה,11.7,30026-130-13,30026/130,25840.90909090909,31.7715405711,35.2132912199,2009
2009-11-06,2009-06-11,"המחתרות 13, ירושלים",המחתרות 13,30209-43-5,דירה בבית קומות,4.0,שניה,73.0,765000,,,1970.0,,4.0,3272115720,1,3020943,False,21% ב 1.3 שנים,ירושלים,המחתרות,16.15,30209-43-5,30209/43,10479.45205479452,31.7454930844,35.2375568194,2009
2009-11-06,2009-06-11,"הרב שמואל נתן 6, ירושלים",הרב שמואל נתן 6,30424-25-37,דירה בבית קומות,3.0,שניה,69.3,1045000,,,1996.0,,2.0,3272432490,1,3042425,False,51% ב 7.1 שנים,ירושלים,הרב שמואל נתן,7.18,30424-25-37,30424/25,15079.36507936508,31.7487647536,35.169997692,2009
2009-11-06,2009-06-11,"רמת הגולן 2, ירושלים",רמת הגולן 2,30245-190-15,דירה בבית קומות,3.0,שלישית,71.0,1313000,,,1960.0,,3.0,3272220630,1,30245190,False,109% ב 7.9 שנים,ירושלים,רמת הגולן,13.8,30245-190-15,30245/190,18492.957746478874,31.8019798269,35.2236292989,2009
