DEALDATE,DEALDATETIME,FULLADRESS,DISPLAYADRESS,GUSH,DEALNATUREDESCRIPTION,ASSETROOMNUM,FLOORNO,DEALNATURE,DEALAMOUNT,NEWPROJECTTEXT,PROJECTNAME,BUILDINGYEAR,YEARBUILT,BUILDINGFLOORS,KEYVALUE,TYPE,POLYGON_ID,TREND_IS_NEGATIVE,TREND_FORMAT,city_name,street,presentage per year,GUSH - Copy,Gush_Helka,Price per sqm,lat,lon,Year
2003-12-31,2003-12-31,"שלווה 49, הרצלייה",שלווה 49,6666-725-2,,5.0,קרקע+עליונה,140.02,2517000,,,1973.0,,,7696515040,1,6666725,False,,הרצלייה,שלוה,,6666-725-2,6666/725,17976.0034280817,32.1721874464,34.8110961528,2003
2003-12-31,2003-12-31,"אבן גבירול 16, הרצלייה",אבן גבירול 16,6527-264-1,משרד,,מרתף,88.3,464000,,,1970.0,,3.0,7696805786,1,6527264,False,,הרצלייה,אבן גבירול,,6527-264-1,6527/264,5254.813137032843,32.167121784,34.8363754587,2003
2003-12-31,2003-12-31,"ההגנה 59, הרצלייה",ההגנה 59,6536-850-10,,4.0,שלישית ורביעית,115.5,1597000,,,1980.0,,3.0,7696274540,1,6536850,False,,הרצלייה,ההגנה,,6536-850-10,6536/850,13826.839826839829,32.1730579364,34.8495268594,2003
2003-12-30,2003-12-30,"רמב""ם 4, הרצלייה","רמב""ם 4",6538-101-2,,2.0,קרקע,41.5,544000,,,1960.0,,2.0,7696639656,1,6538101,False,,הרצלייה,"רמב""ם",,6538-101-2,6538/101,13108.43373493976,32.1633323329,34.8430441064,2003
2003-12-30,2003-12-30,"צמרות 2, הרצלייה",צמרות 2,6546-858-1,מחסנים,,מרתף תחתון,,66000,,,1998.0,,17.0,7696980870,1,6546858,False,,הרצלייה,צמרות,,6546-858-1,6546/858,,32.1515729734,34.8431441388,2003
2003-12-30,2003-12-30,"רבי עקיבא 3, הרצלייה",רבי עקיבא 3,6546-532-2,,3.0,ראשונה,39.5,479000,,,1960.0,,3.0,7696941946,1,6546532,False,,הרצלייה,רבי עקיבא,,6546-532-2,6546/532,12126.582278481012,32.1538842728,34.8430483731,2003
2003-12-29,2003-12-29,"סוקולוב 81, הרצלייה",סוקולוב 81,6532-33-21,חנות,,ראשונה,,234000,,,1960.0,,5.0,7696810078,1,653233,False,,הרצלייה,סוקולוב,,6532-33-21,6532/33,,32.1673743532,34.847761524,2003
2003-12-29,2003-12-29,"פינס 10, הרצלייה",פינס 10,6546-652-2,,4.0,שניה,100.2,1063000,,,1980.0,,6.0,7696695156,1,6546652,False,,הרצלייה,פינס,,6546-652-2,6546/652,10608.78243512974,32.155895411,34.8439950524,2003
2003-12-29,2003-12-29,"רמז 40, הרצלייה",רמז 40,6558-196-2,קוטג' דו משפחתי,2.0,ראשונה,45.7,1033000,,,1958.0,,1.0,7696518000,1,6558196,False,,הרצלייה,רמז,,6558-196-2,6558/196,22603.93873085339,32.1644549592,34.8546472705,2003
2003-12-29,2003-12-29,"קרת 9, הרצלייה",קרת 9,6541-157-2,,4.0,ראשונה+שניה,108.75,1485000,,,1980.0,,1.0,7696129352,1,6541157,False,,הרצלייה,קרת,,6541-157-2,6541/157,13655.172413793103,32.1581649392,34.8480684103,2003
2003-12-28,2003-12-28,"אמה טאובר 2, הרצלייה",אמה טאובר 2,6536-906-7,דירה בבית קומות,4.0,שניה,96.0,1110000,,,2003.0,,7.0,7696397232,1,6536906,False,,הרצלייה,טאובר אמה,,6536-906-7,6536/906,11562.5,32.1754439708,34.8493858698,2003
2003-12-28,2003-12-28,"יהושע בן-נון 4, הרצלייה",יהושע בן-נון 4,6517-283-2,,6.0,ראשונה,220.0,3274000,,,1980.0,,1.0,7696699374,1,6517283,False,,הרצלייה,יהושע בן נון,,6517-283-2,6517/283,14881.818181818182,32.1671577042,34.8053597592,2003
2003-12-28,2003-12-28,"דוד שמעוני 18, הרצלייה",דוד שמעוני 18,6526-295-12,דירה בבית קומות,4.0,רביעית,104.4,1300000,,,2005.0,,8.0,7696962592,1,6526295,False,,הרצלייה,שמעוני דוד,,6526-295-12,6526/295,12452.107279693486,32.1725509174,34.8365674126,2003
2003-12-28,2003-12-28,"אנפה 1, הרצלייה",אנפה 1,6540-118-1,,4.0,ראשונה,101.0,1549930,,,1993.0,,2.0,7696073186,1,6540118,False,,הרצלייה,אנפה,,6540-118-1,6540/118,15345.841584158416,32.1624341219,34.8501455832,2003
2003-12-25,2003-12-25,"צה""ל 1, הרצלייה","צה""ל 1",6558-660-21,דירה בבית קומות,2.0,ראשונה,31.5,422000,,,1960.0,,2.0,7697587744,1,6558660,False,,הרצלייה,"צה""ל",,6558-660-21,6558/660,13396.825396825398,32.1670220219,34.8562111898,2003
2003-12-25,2003-12-25,"אמה טאובר 2, הרצלייה",אמה טאובר 2,6536-906-2,דירה בבית קומות,3.0,קרקע,80.0,975000,,,2003.0,,7.0,7696399008,1,6536906,False,,הרצלייה,טאובר אמה,,6536-906-2,6536/906,12187.5,32.1754439708,34.8493858698,2003
2003-12-25,2003-12-25,"זבולון 2, הרצלייה",זבולון 2,6517-400-48,דירה בבית קומות,2.0,שניה+ביניים,50.35,925000,,,1990.0,,7.0,7696698856,1,6517400,False,,הרצלייה,זבולון,,6517-400-48,6517/400,18371.40019860973,32.1677311795,34.8004387596,2003
2003-12-24,2003-12-24,"זבולון 12, הרצלייה",זבולון 12,6517-18-21,דירת גן,6.0,ראשונה,180.0,1396000,,,1970.0,,3.0,7696045658,1,651718,False,,הרצלייה,זבולון,,6517-18-21,6517/18,7755.555555555556,32.1676353985,34.8016164205,2003
2003-12-24,2003-12-24,"תפוח 13, הרצלייה",תפוח 13,6558-757-3,,3.0,שניה,59.6,86000,,,1970.0,,2.0,7697404594,1,6558757,False,,הרצלייה,תפוח,,6558-757-3,6558/757,1442.9530201342282,32.1717473282,34.8587586994,2003
2003-12-24,2003-12-24,"הגאון מוילנה 13, הרצלייה",הגאון מוילנה 13,6546-487-11,,2.0,שניה,28.5,91000,,,1960.0,,2.0,7696223258,1,6546487,False,,הרצלייה,הגאון מוילנה,,6546-487-11,6546/487,3192.9824561403507,32.1531935867,34.8438655945,2003
2003-12-23,2003-12-23,"אלברט איינשטיין 1, הרצלייה",אלברט איינשטיין 1,6668-1427-4,דירה בבית קומות,5.0,קומה ‎1‏,143.0,3378000,,,2004.0,,2.0,7697100602,1,66681427,False,,הרצלייה,איינשטיין,,6668-1427-4,6668/1427,23622.377622377626,32.1755756832,34.802882237,2003
2003-12-22,2003-12-22,"כיבוש העבודה 12, הרצלייה",כיבוש העבודה 12,6536-873-13,,5.0,רביעית,127.3,1819000,,,1994.0,,5.0,7633816246,1,6536873,False,,הרצלייה,כבוש העבודה,,6536-873-13,6536/873,14289.080911233308,32.1718513996,34.8440808072,2003
2003-12-22,2003-12-22,"א""ד גורדון 53, הרצלייה","א""ד גורדון 53",6546-686-2,,4.0,ראשונה,99.65,920000,,,1980.0,,3.0,7696283198,1,6546686,False,,הרצלייה,גורדון א ד,,6546-686-2,6546/686,9232.313095835423,32.1546671468,34.8446304716,2003
2003-12-22,2003-12-22,"שלווה 30, הרצלייה",שלווה 30,6667-297-1,,9.0,ראשונה,330.0,15672000,,,1990.0,,1.0,7696104858,1,6667297,False,,הרצלייה,שלוה,,6667-297-1,6667/297,47490.90909090909,32.1757353625,34.8122656763,2003
2003-12-22,2003-12-22,"אלי לנדאו 2, הרצלייה",אלי לנדאו 2,6668-1374-258,דירה בבית קומות,1.0,אחת עשרה,36.0,789000,,,1970.0,,15.0,7696552854,1,66681374,False,,הרצלייה,רמת ים,,6668-1374-258,6668/1374,21916.666666666668,32.1789670705,34.8029711574,2003
2003-12-21,2003-12-21,"יהודה הלוי 31, הרצלייה",יהודה הלוי 31,6527-263-4,,5.0,ראשונה,109.5,973000,,,1970.0,,9.0,7696280090,1,6527263,False,,הרצלייה,יהודה הלוי,,6527-263-4,6527/263,8885.844748858448,32.1673747296,34.8360354094,2003
2003-12-19,2003-12-19,"הרב קוק 45, הרצלייה",הרב קוק 45,6535-74-69,,3.0,רביעית,70.0,543000,,,1960.0,,4.0,7633665360,1,653574,False,,הרצלייה,הרב קוק,,6535-74-69,6535/74,7757.142857142857,32.1616689808,34.8367176378,2003
2003-12-18,2003-12-18,"הס 24, הרצלייה",הס 24,6533-120-3,,3.0,שניה,71.6,766000,,,1988.0,,4.0,7633695256,1,6533120,False,,הרצלייה,הס,,6533-120-3,6533/120,10698.324022346367,32.1650814403,34.8411443128,2003
2003-12-18,2003-12-18,"האשל 96, הרצלייה",האשל 96,6668-443-2,,8.0,ראשונה,400.0,15833000,,,1979.0,,1.0,7633736252,1,6668443,False,,הרצלייה,האשל,,6668-443-2,6668/443,39582.5,32.1803272714,34.8085484603,2003
2003-12-17,2003-12-17,"מנחם בן-סרוק 9, הרצלייה",מנחם בן-סרוק 9,6527-237-14,,3.0,שניה,41.3,568000,,,1960.0,,2.0,7696523550,1,6527237,False,,הרצלייה,בן סרוק מנחם,,6527-237-14,6527/237,13753.026634382568,32.1639861863,34.8318965802,2003
2003-12-16,2003-12-16,"דוד שמעוני 22, הרצלייה",דוד שמעוני 22,6526-295-46,דירה בבית קומות,4.0,קרקע,100.5,1440000,,,2005.0,,7.0,7697383800,1,6526295,False,,הרצלייה,שמעוני דוד,,6526-295-46,6526/295,14328.358208955224,32.1725509174,34.8365674126,2003
2003-12-15,2003-12-15,"בארי 30, הרצלייה",בארי 30,6546-834-3,,5.0,קרקע ראשונה +גג,150.44,1414000,,,1980.0,,2.0,7697330150,1,6546834,False,,הרצלייה,בארי,,6546-834-3,6546/834,9399.095985110343,32.1557045551,34.839367854,2003
2003-12-15,2003-12-15,"דוד שמעוני 18, הרצלייה",דוד שמעוני 18,6526-295-1,דירה בבית קומות,5.0,קרקע,113.8,1530000,,,2005.0,,8.0,7696659858,1,6526295,False,,הרצלייה,שמעוני דוד,,6526-295-1,6526/295,13444.63971880492,32.1725509174,34.8365674126,2003
2003-12-15,2003-12-15,"אלי לנדאו 2, הרצלייה",אלי לנדאו 2,6668-1374-259,דירה בבית קומות,2.0,אחת עשרה,30.0,652000,,,1970.0,,15.0,7696544344,1,66681374,False,,הרצלייה,רמת ים,,6668-1374-259,6668/1374,21733.33333333333,32.1789670705,34.8029711574,2003
2003-12-14,2003-12-14,"הנדיב 53, הרצלייה",הנדיב 53,6527-309-6,,3.0,שניה,54.2,725000,,,1970.0,,4.0,7633523206,1,6527309,False,,הרצלייה,הנדיב,,6527-309-6,6527/309,13376.383763837635,32.1700587621,34.8349190715,2003
2003-12-13,2003-12-13,"בר-אילן 35, הרצלייה",בר-אילן 35,6538-388-45,,2.0,ראשונה,44.8,610000,,,1950.0,,2.0,7696926554,1,6538388,False,,הרצלייה,בר אילן,,6538-388-45,6538/388,13616.07142857143,32.1641016323,34.8389530098,2003
2003-12-12,2003-12-12,"אריה לייב יפה 4, הרצלייה",אריה לייב יפה 4,6530-98-6,,6.0,שלישית+גג,135.8,1471000,,,1993.0,,3.0,7633539042,1,653098,False,,הרצלייה,יפה אריה לייב,,6530-98-6,6530/98,10832.106038291604,32.1709994522,34.8426343366,2003
2003-12-11,2003-11-12,"הנשיא יצחק 159, הרצלייה",הנשיא יצחק 159,6667-448-1,,6.0,ראשונה,180.0,3391000,,,1980.0,,,7696820290,1,6667448,False,,הרצלייה,הנשיא יצחק בן צבי,,6667-448-1,6667/448,18838.88888888889,32.1709032401,34.8072994079,2003
2003-12-09,2003-09-12,"הרצוג 7, הרצלייה",הרצוג 7,6532-326-12,,4.0,שניה,77.0,883000,,,1994.0,,3.0,7631342426,1,6532326,False,,הרצלייה,הרצוג,,6532-326-12,6532/326,11467.532467532468,32.1678739025,34.8465791185,2003
2003-12-08,2003-08-12,"צמרות 10, הרצלייה",צמרות 10,6545-38-139,,5.0,חמישה עשר,143.8,1866000,,,2000.0,,29.0,7629980900,1,654538,False,,הרצלייה,צמרות,,6545-38-139,6545/38,12976.35605006954,32.1514074582,34.8458200181,2003
2003-12-08,2003-08-12,"צמרות 10, הרצלייה",צמרות 10,6545-38-238,דירה בבית קומות,4.5,שלישית,121.1,1625000,,,2000.0,,29.0,7630011388,1,654538,False,,הרצלייה,צמרות,,6545-38-238,6545/38,13418.6622625929,32.1514074582,34.8458200181,2003
2003-12-08,2003-08-12,"הבנים 18, הרצלייה",הבנים 18,6539-39-3,,5.0,שניה +גג,101.9,1202000,,,1988.0,,3.0,7629404514,1,653939,False,0% ב 3.9 שנים,הרצלייה,הבנים,0.0,6539-39-3,6539/39,11795.878312070658,32.1620964235,34.8463557806,2003
2003-12-05,2003-05-12,"סוקולוב 105, הרצלייה",סוקולוב 105,6537-252-7,,4.0,שניה,82.61,847000,,,1989.0,,4.0,7626334476,1,6537252,False,,הרצלייה,סוקולוב,,6537-252-7,6537/252,10252.996005326231,32.1681467339,34.8524769463,2003
2003-12-05,2003-05-12,"צמרות 4, הרצלייה",צמרות 4,6546-859-38,,4.5,עשירית,133.3,1784000,,,1994.0,,16.0,7626366148,1,6546859,False,,הרצלייה,צמרות,,6546-859-38,6546/859,13383.345836459112,32.1515486343,34.8439945172,2003
2003-12-05,2003-05-12,"בארי 39, הרצלייה",בארי 39,6546-261-5,,6.0,מרתף+קרקע+ראשונה+גג,186.0,1558000,,,1990.0,,,7627097712,1,6546261,False,,הרצלייה,בארי,,6546-261-5,6546/261,8376.344086021505,32.1550494738,34.8400446388,2003
2003-12-03,2003-03-12,"שירת גאולים 20, הרצלייה",שירת גאולים 20,7291-133-1,,2.0,ראשונה,34.1,570000,,,1950.0,,2.0,7624600582,1,7291133,False,,הרצלייה,שירת גאולים,,7291-133-1,7291/133,16715.542521994135,32.1548946388,34.8380313549,2003
2003-12-01,2003-01-12,"עולי בבל 1, הרצלייה",עולי בבל 1,6527-423-14,,5.0,ראשונה,110.4,1250000,,,1988.0,,2.0,7622916194,1,6527423,False,,הרצלייה,עולי בבל,,6527-423-14,6527/423,11322.463768115942,32.168640304,34.8334734866,2003
2003-12-01,2003-01-12,"שמואל הנגיד 20, הרצלייה",שמואל הנגיד 20,6527-303-18,,3.0,שניה,61.8,759000,,,2022.0,,3.0,7622552336,1,6527303,False,22% ב 3.8 שנים,הרצלייה,שמואל הנגיד,5.79,6527-303-18,6527/303,12281.553398058251,32.1674476249,34.833566215,2003
2003-11-30,2003-11-30,"אלוף יגאל אלון 17, הרצלייה",אלוף יגאל אלון 17,6536-486-24,,4.0,שניה,100.6,805000,,,1969.0,,6.0,7633266648,1,6536486,False,,הרצלייה,אלוף אלון יגאל,,6536-486-24,6536/486,8001.988071570577,32.1691802395,34.846764808,2003
2003-11-30,2003-11-30,"שז""ר 33, הרצלייה","שז""ר 33",6668-785-1,,7.0,ראשונה,245.0,2891000,,,1980.0,,1.0,7633291142,1,6668785,False,,הרצלייה,"שז""ר",,6668-785-1,6668/785,11800.0,32.1712598907,34.8052009149,2003
2003-11-30,2003-11-30,"ויצמן 10, הרצלייה",ויצמן 10,6535-103-9,,3.0,שלישית,62.0,611000,,,1970.0,,3.0,7633282632,1,6535103,False,,הרצלייה,ויצמן,,6535-103-9,6535/103,9854.83870967742,32.1635045238,34.8352232388,2003
2003-11-30,2003-11-30,"האילנות 76, הרצלייה",האילנות 76,6663-234-5,,6.0,מרתף+קרקע+ראשונה,157.6,1656000,,,1985.0,,3.0,7633654334,1,6663234,False,,הרצלייה,האילנות,,6663-234-5,6663/234,10507.61421319797,32.1772910259,34.8500346344,2003
2003-11-28,2003-11-28,"הניצנים 2, הרצלייה",הניצנים 2,6529-95-86,משרד,,קרקע,,173000,,,1970.0,,7.0,7633803370,1,652995,False,,הרצלייה,הניצנים,,6529-95-86,6529/95,,32.167335999,34.8395007227,2003
2003-11-28,2003-11-28,"בוסל 12, הרצלייה",בוסל 12,6530-284-2,,4.0,ראשונה,99.4,1045000,,,1989.0,,4.0,7633319854,1,6530284,False,,הרצלייה,בוסל,,6530-284-2,6530/284,10513.078470824948,32.1701631308,34.8436538187,2003
2003-11-27,2003-11-27,"פתח תקווה 22, הרצלייה",פתח תקווה 22,6542-56-1,משרד,,ראשונה,24.0,455000,,,1962.0,,1.0,7633115318,1,654256,False,,הרצלייה,פתח תקווה,,6542-56-1,6542/56,18958.33333333333,32.1599828802,34.8502477222,2003
2003-11-27,2003-11-27,"שירת הזמיר 3, הרצלייה",שירת הזמיר 3,6546-175-0,בית בודד,3.0,,95.0,2540000,,,1940.0,,3.0,7696593184,1,6546175,False,,הרצלייה,שירת הזמיר,,6546-175-0,6546/175,26736.84210526316,32.1602402076,34.8435747577,2003
2003-11-26,2003-11-26,"צמרות 2, הרצלייה",צמרות 2,6546-858-113,,5.0,אחת עשרה,135.7,1965000,,,1998.0,,17.0,7696994412,1,6546858,False,,הרצלייה,צמרות,,6546-858-113,6546/858,14480.471628592484,32.1515729734,34.8431441388,2003
2003-11-26,2003-11-26,"אלברט איינשטיין 1, הרצלייה",אלברט איינשטיין 1,6668-1427-1,דירה בבית קומות,5.0,מרתף ‎-1‏,91.7,3014000,,,2004.0,,2.0,7696356458,1,66681427,False,,הרצלייה,איינשטיין,,6668-1427-1,6668/1427,32868.0479825518,32.1755756832,34.802882237,2003
2003-11-26,2003-11-26,"גלי תכלת 8, הרצלייה",גלי תכלת 8,6669-156-4,,8.0,ראשונה,365.0,9511000,,,1991.0,,1.0,7633704432,1,6669156,False,,הרצלייה,גלי תכלת,,6669-156-4,6669/156,26057.534246575346,32.1852578593,34.8077501595,2003
2003-11-26,2003-11-26,"רכב ישראל 9, הרצלייה",רכב ישראל 9,6558-192-2,,2.0,ראשונה,42.0,741000,,,1960.0,,2.0,7633509146,1,6558192,False,,הרצלייה,רכב ישראל,,6558-192-2,6558/192,17642.85714285714,32.1647622369,34.8552708417,2003
2003-11-25,2003-11-25,"אברהם שטרן 7, הרצלייה",אברהם שטרן 7,6546-555-11,,4.0,שלישית,93.0,1100000,,,1970.0,,9.0,7632855208,1,6546555,False,,הרצלייה,שטרן אברהם,,6546-555-11,6546/555,11827.956989247312,32.1541389308,34.8403127481,2003
2003-11-25,2003-11-25,"חנה סנש 25, הרצלייה",חנה סנש 25,6424-151-16,,4.0,חמישית,109.84,1172000,,,1998.0,,7.0,7632876002,1,6424151,False,22% ב 5.3 שנים,הרצלייה,סנש חנה,4.15,6424-151-16,6424/151,10670.065549890747,32.1586925243,34.8389299183,2003
2003-11-25,2003-11-25,"מבצע קדש 8, הרצלייה",מבצע קדש 8,7291-221-1,,5.0,ראשונה,133.0,1387000,,,1974.0,,1.0,7632854024,1,7291221,False,,הרצלייה,מבצע קדש,,7291-221-1,7291/221,10428.57142857143,32.1539470122,34.8358518382,2003
2003-11-25,2003-11-25,"השומר 10, הרצלייה",השומר 10,6531-148-12,,3.0,שלישית,59.0,604000,,,1970.0,,3.0,7633148840,1,6531148,False,,הרצלייה,השומר,,6531-148-12,6531/148,10237.28813559322,32.1681663566,34.8450175548,2003
2003-11-25,2003-11-25,"ברנר 23, הרצלייה",ברנר 23,6546-726-2,,6.0,"מרתף,קרקע,ראשונה",161.72,1723000,,,1983.0,,2.0,7632975532,1,6546726,False,,הרצלייה,ברנר,,6546-726-2,6546/726,10654.217165471186,32.1576226765,34.8454439247,2003
2003-11-25,2003-11-25,"הבעל שם טוב 14, הרצלייה",הבעל שם טוב 14,6538-671-22,,5.0,חמישית,135.2,1320000,,,1994.0,,6.0,7633145214,1,6538671,False,,הרצלייה,הבעל שם טוב,,6538-671-22,6538/671,9763.313609467456,32.1628603574,34.8406683261,2003
2003-11-24,2003-11-24,"שלונסקי 25, הרצלייה",שלונסקי 25,6666-353-1,,7.0,ראשונה,295.0,5166000,,,1983.0,,1.0,7697029266,1,6666353,False,,הרצלייה,שלונסקי,,6666-353-1,6666/353,17511.86440677966,32.169029509,34.8100521831,2003
2003-11-23,2003-11-23,"יל""ג 9, הרצלייה","יל""ג 9",6530-159-47,,3.0,שלישית,71.0,695000,,,2024.0,,6.0,7696214156,1,6530159,False,,הרצלייה,"יל""ג",,6530-159-47,6530/159,9788.732394366198,32.1688223282,34.8434662762,2003
2003-11-23,2003-11-23,"הגליל 5, הרצלייה",הגליל 5,6531-63-7,,4.0,שלישית,74.2,736000,,,1960.0,,3.0,7633411466,1,653163,False,,הרצלייה,הגליל,,6531-63-7,6531/63,9919.137466307277,32.1653974201,34.8440175188,2003
2003-11-20,2003-11-20,"דובדבן 14, הרצלייה",דובדבן 14,6558-800-6,,3.0,שניה,65.9,684000,,,1992.0,,2.0,7632746502,1,6558800,False,9% ב 4.5 שנים,הרצלייה,דובדבן,2.0,6558-800-6,6558/800,10379.3626707132,32.1662204834,34.8631644011,2003
2003-11-20,2003-11-20,"העצמאות 1, הרצלייה",העצמאות 1,6535-119-7,דירה בבית קומות,2.0,שניה,50.1,402000,,,1950.0,,2.0,7632745318,1,6535119,False,,הרצלייה,העצמאות,,6535-119-7,6535/119,8023.952095808383,32.16295508,34.8378125126,2003
2003-11-19,2003-11-19,"דוד רזיאל 31, הרצלייה",דוד רזיאל 31,6541-201-1,קוטג' חד משפחתי,5.0,,100.0,390000,,,1970.0,,,7696287416,1,6541201,False,,הרצלייה,רזיאל דוד,,6541-201-1,6541/201,3900.0,32.1569929866,34.8485886066,2003
2003-11-19,2003-11-19,"שמעוני דוד 4, הרצלייה",שמעוני דוד 4,6526-190-24,,6.0,חמישית+גג,201.5,2133000,,,1993.0,,5.0,7696341806,1,6526190,False,,הרצלייה,שמעוני דוד,,6526-190-24,6526/190,10585.60794044665,32.1706282161,34.8354181619,2003
2003-11-19,2003-11-19,"האשל 9, הרצלייה",האשל 9,6670-211-1,בית בודד,3.0,ראשונה,60.0,2846000,,,1954.0,,1.0,7633627546,1,6670211,False,,הרצלייה,האשל,,6670-211-1,6670/211,47433.333333333336,32.1891782214,34.8120827562,2003
2003-11-18,2003-11-18,"אלברט איינשטיין 1, הרצלייה",אלברט איינשטיין 1,6668-1427-30,דירה בבית קומות,4.0,קומה ‎2‏,111.2,3714000,,,2004.0,,2.0,7696353350,1,66681427,False,,הרצלייה,איינשטיין,,6668-1427-30,6668/1427,33399.28057553957,32.1755756832,34.802882237,2003
2003-11-18,2003-11-18,"שלמה המלך 70, הרצלייה",שלמה המלך 70,6667-346-1,,6.0,ראשונה,217.0,3522000,,,1990.0,,1.0,7632687376,1,6667346,False,,הרצלייה,שלמה המלך,,6667-346-1,6667/346,16230.414746543778,32.1737174686,34.8094838658,2003
2003-11-18,2003-11-18,"אצ""ל 27, הרצלייה","אצ""ל 27",6668-1192-1,קוטג' דו משפחתי,6.0,ראשונה,250.0,3233000,,,1975.0,,1.0,7696219706,1,66681192,False,,הרצלייה,"אצ""ל",,6668-1192-1,6668/1192,12932.0,32.1735438625,34.8038761586,2003
2003-11-17,2003-11-17,"אשר ברש 1, הרצלייה",אשר ברש 1,6529-225-8,,5.0,שלישית+גג,126.44,1403000,,,1989.0,,3.0,7632718012,1,6529225,False,,הרצלייה,ברש אשר,,6529-225-8,6529/225,11096.17209743752,32.1702370741,34.8374460822,2003
2003-11-17,2003-11-17,"הנדיב 51, הרצלייה",הנדיב 51,6527-310-6,,3.0,שניה,54.2,701000,,,1973.0,,4.0,7632979158,1,6527310,False,20% ב 5.8 שנים,הרצלייה,הנדיב,3.45,6527-310-6,6527/310,12933.579335793358,32.1699891869,34.8354270441,2003
2003-11-13,2003-11-13,"העצמאות 27, הרצלייה",העצמאות 27,6533-140-6,,3.0,ראשונה,62.32,603000,,,1960.0,,2.0,7632396186,1,6533140,False,,הרצלייה,העצמאות,,6533-140-6,6533/140,9675.86649550706,32.164959623,34.8417683498,2003
2003-11-13,2003-11-13,"דוד מרכוס 8, הרצלייה",דוד מרכוס 8,6667-372-1,,6.0,שניה,350.0,6129000,,,1991.0,,1.0,7632481656,1,6667372,False,,הרצלייה,מרכוס דוד,,6667-372-1,6667/372,17511.428571428572,32.1740263197,34.8097261031,2003
2003-11-13,2003-11-13,"הרב גורן 3, הרצלייה",הרב גורן 3,6540-105-46,,6.0,שישית,157.0,1703000,,,1996.0,,7.0,7632438218,1,6540105,False,26% ב 4.5 שנים,הרצלייה,הרב גורן,5.78,6540-105-46,6540/105,10847.133757961785,32.1643659364,34.8522769622,2003
2003-11-13,2003-11-13,"הירדן 7, הרצלייה",הירדן 7,6536-574-1,,4.0,ראשונה,100.0,923000,,,1970.0,,3.0,7632913816,1,6536574,False,,הרצלייה,הירדן,,6536-574-1,6536/574,9230.0,32.1703389454,34.8500217289,2003
2003-11-12,2003-12-11,"אלברט איינשטיין 1, הרצלייה",אלברט איינשטיין 1,6668-1427-6,דירה בבית קומות,4.0,קומה ‎2‏,111.2,4086000,,,2004.0,,2.0,7696782476,1,66681427,False,,הרצלייה,איינשטיין,,6668-1427-6,6668/1427,36744.60431654676,32.1755756832,34.802882237,2003
2003-11-12,2003-12-11,"בר-כוכבא 117, הרצלייה",בר-כוכבא 117,6546-784-32,,5.0,שמינית תשיעית,167.88,1345000,,,1985.0,,8.0,7633354042,1,6546784,False,,הרצלייה,בר כוכבא,,6546-784-32,6546/784,8011.675005956636,32.1575904579,34.8409223807,2003
2003-11-11,2003-11-11,"צמרות 10, הרצלייה",צמרות 10,6545-38-277,דירה בבית קומות,5.0,שתים עשרה,142.8,2061000,,,2000.0,,29.0,7632397370,1,654538,False,,הרצלייה,צמרות,,6545-38-277,6545/38,14432.773109243695,32.1514074582,34.8458200181,2003
2003-11-11,2003-11-11,"רבנו תם 15, הרצלייה",רבנו תם 15,6527-236-30,דירה בבית קומות,2.0,שלישית,44.9,467000,,,1960.0,,3.0,7696147038,1,6527236,False,,הרצלייה,רבנו תם,,6527-236-30,6527/236,10400.890868596882,32.1636913374,34.8318209886,2003
2003-11-09,2003-09-11,"הבשן 22, הרצלייה",הבשן 22,6577-163-1,,2.0,ראשונה,54.8,385000,,,1960.0,,4.0,7630835600,1,6577163,False,,הרצלייה,הבשן,,6577-163-1,6577/163,7025.5474452554745,32.1763231946,34.8549145906,2003
2003-11-08,2003-08-11,"זמנהוף 26, הרצלייה",זמנהוף 26,6666-202-2,,5.0,קרקע,113.0,2310000,,,1970.0,,,7630093306,1,6666202,False,33% ב 1.8 שנים,הרצלייה,זמנהוף,18.33,6666-202-2,6666/202,20442.477876106197,32.1775509742,34.8170200149,2003
2003-11-08,2003-08-11,"לח""י 35, הרצלייה","לח""י 35",6668-1138-2,,5.0,ראשונה,200.0,3380000,,,1990.0,,1.0,7629496866,1,66681138,False,,הרצלייה,"לח""י",,6668-1138-2,6668/1138,16900.0,32.173904174,34.8064268551,2003
2003-11-08,2003-08-11,"בני בנימין 18, הרצלייה",בני בנימין 18,6528-45-17,,4.0,שלישית,88.0,785000,,,1970.0,,3.0,7629443660,1,652845,False,,הרצלייה,בני בנימין,,6528-45-17,6528/45,8920.454545454546,32.1713056736,34.8406266396,2003
2003-11-07,2003-07-11,"לח""י 8, הרצלייה","לח""י 8",6668-1158-1,,6.0,ראשונה,180.0,2486000,,,1977.0,,1.0,7629134932,1,66681158,False,,הרצלייה,"לח""י",,6668-1158-1,6668/1158,13811.111111111111,32.1739339515,34.804371775,2003
2003-11-07,2003-07-11,"דון יוסף הנשיא 10, הרצלייה",דון יוסף הנשיא 10,6527-248-4,,3.0,ראשונה,51.8,473000,,,1960.0,,3.0,7628285782,1,6527248,False,,הרצלייה,דון יוסף הנשיא,,6527-248-4,6527/248,9131.274131274133,32.1641510754,34.8329984591,2003
2003-11-06,2003-06-11,"שלומציון המלכה 22, הרצלייה",שלומציון המלכה 22,6667-462-1,,6.0,קרקע+ראשונה,152.41,3001000,,,1950.0,,2.0,7627163646,1,6667462,False,,הרצלייה,שלומציון המלכה,,6667-462-1,6667/462,19690.309034840237,32.1777460273,34.813693584,2003
2003-11-06,2003-06-11,"זלמן שניאור 17, הרצלייה",זלמן שניאור 17,6526-296-22,דירה בבית קומות,5.0,רביעית,140.5,2025000,,,2003.0,,5.0,7627990892,1,6526296,False,,הרצלייה,שניאור זלמן,,6526-296-22,6526/296,14412.811387900356,32.1725107119,34.8374712142,2003
2003-11-03,2003-03-11,"יהושפט המלך 23, הרצלייה",יהושפט המלך 23,6667-216-1,,5.0,מרתף+קרקע+ראשונה,222.92,3346000,,,1974.0,,,7624421872,1,6667216,False,,הרצלייה,יהושפט המלך,,6667-216-1,6667/216,15009.869011304503,32.1712024161,34.8089820929,2003
2003-11-03,2003-03-11,"ויצמן 23, הרצלייה",ויצמן 23,6534-157-9,,5.0,שלישית,126.35,1065000,,,1981.0,,3.0,7626260032,1,6534157,False,8% ב 2.7 שנים,הרצלייה,ויצמן,2.96,6534-157-9,6534/157,8428.967154728927,32.1654591932,34.8358148396,2003
2003-11-02,2003-02-11,"בן-גוריון 121, הרצלייה",בן-גוריון 121,6546-471-12,,2.0,שניה,41.0,522000,,,1960.0,,3.0,7623442482,1,6546471,False,,הרצלייה,בן גוריון,,6546-471-12,6546/471,12731.707317073173,32.1523744314,34.8427125503,2003
2003-11-02,2003-02-11,"אמה טאובר 2, הרצלייה",אמה טאובר 2,6536-906-5,,4.0,ראשונה,95.0,1124000,,,2003.0,,7.0,7624063416,1,6536906,False,,הרצלייה,טאובר אמה,,6536-906-5,6536/906,11831.578947368422,32.1754439708,34.8493858698,2003
2003-10-30,2003-10-30,"אלברט איינשטיין 7, הרצלייה",אלברט איינשטיין 7,6668-1427-48,דירה בבית קומות,2.0,קומה ‎2‏,50.0,1531000,,,2004.0,,3.0,7696106042,1,66681427,False,,הרצלייה,איינשטיין,,6668-1427-48,6668/1427,30620.0,32.1755756832,34.802882237,2003
2003-10-28,2003-10-28,"אוטו ורבורג 2, הרצלייה",אוטו ורבורג 2,6546-647-3,,5.0,ראשונה,130.0,3192000,,,1980.0,,5.0,7632443102,1,6546647,False,,הרצלייה,ורבורג אוטו,,6546-647-3,6546/647,24553.846153846152,32.1561388194,34.8433002925,2003
2003-10-27,2003-10-27,"קהילת ציון 21, הרצלייה",קהילת ציון 21,6540-83-3,,4.0,ראשונה,128.7,1007000,,,1989.0,,4.0,7631863756,1,654083,False,,הרצלייה,קהילת ציון,,6540-83-3,6540/83,7824.397824397825,32.164101333,34.8495011666,2003
2003-10-23,2003-10-23,"אלי לנדאו 2, הרצלייה",אלי לנדאו 2,6668-1374-292,,1.0,ארבע עשרה,36.0,1584000,,,1970.0,,15.0,7632006576,1,66681374,False,,הרצלייה,רמת ים,,6668-1374-292,6668/1374,44000.0,32.1789670705,34.8029711574,2003
2003-10-23,2003-10-23,"סוקולוב 10, הרצלייה",סוקולוב 10,6533-208-49,,4.0,חמישית,96.0,832000,,,1970.0,,6.0,7632066960,1,6533208,False,,הרצלייה,סוקולוב,,6533-208-49,6533/208,8666.666666666666,32.1667250361,34.8400641695,2003
2003-10-21,2003-10-21,"בזל 42, הרצלייה",בזל 42,6668-333-2,,6.0,ראשונה,231.0,2231000,,,1960.0,,1.0,7632410246,1,6668333,False,,הרצלייה,בזל,,6668-333-2,6668/333,9658.008658008655,32.1783140689,34.8082825042,2003
2003-10-21,2003-10-21,"שלונסקי 26, הרצלייה",שלונסקי 26,6518-155-1,,6.0,ראשונה,166.2,2664000,,,1975.0,,2.0,7633343016,1,6518155,False,,הרצלייה,שלונסקי,,6518-155-1,6518/155,16028.880866425994,32.168633677,34.8097857636,2003
2003-10-20,2003-10-20,"בן-גוריון 36, הרצלייה",בן-גוריון 36,6546-144-2,,4.0,שניה,89.36,865000,,,1970.0,,2.0,7631760008,1,6546144,False,,הרצלייה,בן גוריון,,6546-144-2,6546/144,9679.946284691136,32.1603717715,34.8422574674,2003
2003-10-20,2003-10-20,"דוד שמעוני 20, הרצלייה",דוד שמעוני 20,6526-295-31,,4.0,שלישית,104.4,1250000,,,2006.0,,8.0,7632837448,1,6526295,False,,הרצלייה,שמעוני דוד,,6526-295-31,6526/295,11973.180076628352,32.1725509174,34.8365674126,2003
2003-10-19,2003-10-19,"הדר 13, הרצלייה",הדר 13,6532-152-8,,4.0,שלישית,100.0,828000,,,1970.0,,3.0,7631883958,1,6532152,False,32% ב 4.3 שנים,הרצלייה,הדר,7.44,6532-152-8,6532/152,8280.0,32.1684371431,34.8483786105,2003
2003-10-19,2003-10-19,"השופטים 4, הרצלייה",השופטים 4,6546-554-16,,5.0,רביעית,115.0,1130000,,,1980.0,,9.0,7632110472,1,6546554,False,,הרצלייה,השופטים,,6546-554-16,6546/554,9826.08695652174,32.1539614987,34.8407078581,2003
2003-10-12,2003-12-10,"אל על 4, הרצלייה",אל על 4,6521-5-61,,3.0,שמינית,66.0,725000,,,1970.0,,11.0,7633350934,1,65215,True,-10% ב 4.8 שנים,הרצלייה,אל על,-2.08,6521-5-61,6521/5,10984.848484848484,32.1666328275,34.8149019352,2003
2003-10-12,2003-12-10,"אל על 4, הרצלייה",אל על 4,6521-5-27,,2.0,שלישית,45.0,593000,,,1970.0,,11.0,7633370544,1,65215,False,,הרצלייה,אל על,,6521-5-27,6521/5,13177.777777777776,32.1666328275,34.8149019352,2003
2003-10-11,2003-11-10,"דיצה 15, הרצלייה",דיצה 15,6557-91-2,קוטג' דו משפחתי,2.0,קרקע,68.3,1040000,,,1970.0,,,7632402180,1,655791,False,,הרצלייה,דיצה,,6557-91-2,6557/91,15226.939970717423,32.1610466663,34.8596059387,2003
2003-10-11,2003-11-10,"שמעון זאב לוין 24, הרצלייה",שמעון זאב לוין 24,6534-93-9,,4.0,קרקע תחתונה+רביעית,102.84,1080000,,,1993.0,,5.0,7632341278,1,653493,False,,הרצלייה,לוין שמעון זאב,,6534-93-9,6534/93,10501.750291715283,32.1648674317,34.8374480085,2003
2003-10-11,2003-11-10,"טשרניחובסקי 16, הרצלייה",טשרניחובסקי 16,6530-129-1,,2.0,ראשונה,25.56,400000,,,1959.0,,3.0,7632449244,1,6530129,False,53% ב 5.5 שנים,הרצלייה,טשרניחובסקי,9.64,6530-129-1,6530/129,15649.45226917058,32.1699326768,34.8411008762,2003
2003-10-11,2003-11-10,"רבי עקיבא 11, הרצלייה",רבי עקיבא 11,6546-492-52,,3.0,שניה,42.0,720000,,,1960.0,,4.0,7633012754,1,6546492,False,,הרצלייה,רבי עקיבא,,6546-492-52,6546/492,17142.85714285714,32.1540573479,34.8447866872,2003
2003-10-11,2003-11-10,"השרון 36, הרצלייה",השרון 36,6538-670-4,,3.0,שניה,59.21,709000,,,1970.0,,4.0,7633329548,1,6538670,False,,הרצלייה,השרון,,6538-670-4,6538/670,11974.328660699206,32.1633535015,34.8406621623,2003
2003-10-08,2003-08-10,"צמרות 10, הרצלייה",צמרות 10,6545-38-263,דירה בבית קומות,4.5,תשיעית,121.1,1883000,,,2000.0,,29.0,7630010796,1,654538,False,,הרצלייה,צמרות,,6545-38-263,6545/38,15549.13294797688,32.1514074582,34.8458200181,2003
2003-10-08,2003-08-10,"צמרות 10, הרצלייה",צמרות 10,6545-38-58,דירה בבית קומות,5.0,שלושה עשר,143.8,1750000,,,2000.0,,29.0,7630010278,1,654538,False,,הרצלייה,צמרות,,6545-38-58,6545/38,12169.680111265645,32.1514074582,34.8458200181,2003
2003-10-08,2003-08-10,"אריאל 2, הרצלייה",אריאל 2,6534-135-2,דירה בבית קומות,4.0,שישית,100.0,1169000,1.0,,2003.0,,7.0,7630164124,1,6534135,False,,הרצלייה,אריאל,,6534-135-2,6534/135,11690.0,32.1663127838,34.8377721816,2003
2003-10-08,2003-08-10,"אוסישקין 21, הרצלייה",אוסישקין 21,6539-67-3,,5.0,ראשונה + שנייה,121.0,1497000,,,1972.0,,1.0,7629424198,1,653967,False,,הרצלייה,אוסישקין,,6539-67-3,6539/67,12371.90082644628,32.1613340859,34.8485666816,2003
2003-10-07,2003-07-10,"יהודה המכבי 18, הרצלייה",יהודה המכבי 18,6517-187-1,,7.0,"מרתף,קרקע,ראשונה",211.51,3760000,,,1987.0,,,7629938128,1,6517187,False,,הרצלייה,יהודה המכבי,,6517-187-1,6517/187,17776.937260649614,32.1692104902,34.8011473371,2003
2003-10-07,2003-07-10,"כצנלסון 23, הרצלייה",כצנלסון 23,6558-829-46,דירה בבית קומות,4.0,שישית+שביעית,103.68,961000,,,1998.0,,7.0,7628525542,1,6558829,False,,הרצלייה,כצנלסון,,6558-829-46,6558/829,9268.904320987656,32.1684545137,34.8572096463,2003
2003-10-06,2003-06-10,"ויצמן 22, הרצלייה",ויצמן 22,6534-57-7,,3.0,שניה,62.67,681000,,,1960.0,,3.0,7627170972,1,653457,False,,הרצלייה,ויצמן,,6534-57-7,6534/57,10866.44327429392,32.1655217802,34.8377660851,2003
2003-10-06,2003-06-10,"רמת ים 1, הרצלייה",רמת ים 1,6668-1406-94,דירה בבית קומות,2.0,חמישית,53.1,1147000,,,2000.0,,7.0,7628322338,1,66681406,False,,הרצלייה,רמת ים,,6668-1406-94,6668/1406,21600.75329566855,32.178786113,34.8041369757,2003
2003-10-06,2003-06-10,"אלי כהן 13, הרצלייה",אלי כהן 13,6529-171-5,,4.0,שלישית,70.32,756000,,,1971.0,,3.0,7627158096,1,6529171,False,3% ב 4 שנים,הרצלייה,אלי כהן,0.75,6529-171-5,6529/171,10750.85324232082,32.1683239033,34.8364076003,2003
2003-10-06,2003-06-10,"המנופים 8, הרצלייה",המנופים 8,6592-105-36,מלאכה,,שלישית,533.3,4568000,,,2003.0,,4.0,7628623296,1,6592105,False,,הרצלייה,המנופים,,6592-105-36,6592/105,8565.535345959122,32.1597330259,34.8072130684,2003
2003-10-04,2003-04-10,"הרב קוק 37, הרצלייה",הרב קוק 37,6538-453-6,,4.0,שלישית,79.0,742000,,,1970.0,,3.0,7625626814,1,6538453,False,,הרצלייה,הרב קוק,,6538-453-6,6538/453,9392.40506329114,32.1613345624,34.8381727148,2003
2003-10-02,2003-02-10,"הדקל 9, הרצלייה",הדקל 9,6663-236-3,,6.0,,167.0,1632000,,,1982.0,,,7623564582,1,6663236,False,,הרצלייה,הדקל,,6663-236-3,6663/236,9772.45508982036,32.1768610402,34.8501831281,2003
2003-09-29,2003-09-29,"השקמה 1, הרצלייה",השקמה 1,6669-306-1,,4.0,ראשונה,120.0,1492000,,,1967.0,,1.0,7631388232,1,6669306,False,,הרצלייה,השקמה,,6669-306-1,6669/306,12433.333333333334,32.1865943111,34.8112287358,2003
2003-09-25,2003-09-25,"פורצי הדרך 41, הרצלייה",פורצי הדרך 41,6560-91-2,,5.0,קרקע ראשונה,137.23,1180000,,,2000.0,,1.0,7631392524,1,656091,False,,הרצלייה,פורצי הדרך,,6560-91-2,6560/91,8598.70290752751,32.162265365,34.863329814,2003
2003-09-25,2003-09-25,"בן-יהודה 15, הרצלייה",בן-יהודה 15,6538-454-1,,3.0,ראשונה,61.14,579000,,,1972.0,,2.0,7632464488,1,6538454,False,,הרצלייה,בן יהודה,,6538-454-1,6538/454,9470.068694798822,32.1637576799,34.8455208344,2003
2003-09-24,2003-09-24,"העוגן 7, הרצלייה",העוגן 7,6516-12-19,מלונאות,,שניה,119.0,1862000,,,2000.0,,5.0,7631982896,1,651612,False,,הרצלייה,העוגן,,6516-12-19,6516/12,15647.058823529413,32.1595107994,34.7933160653,2003
2003-09-23,2003-09-23,"סנש חנה 20, הרצלייה",סנש חנה 20,6424-152-16,,5.0,שישית,133.85,1709000,,,1992.0,,6.0,7631205600,1,6424152,False,,הרצלייה,סנש חנה,,6424-152-16,6424/152,12768.023907358984,32.1588723316,34.8399099512,2003
2003-09-23,2003-09-23,"דוד אלרואי 32, הרצלייה",דוד אלרואי 32,6424-155-52,דירה בבית קומות,4.0,שלוש עשרה,99.26,1447000,,,2002.0,,15.0,7632614116,1,6424155,False,,הרצלייה,אלרואי דוד,,6424-155-52,6424/155,14577.87628450534,32.1587407952,34.8382406092,2003
2003-09-22,2003-09-22,"חבצלת השרון 3, הרצלייה",חבצלת השרון 3,6668-603-1,,7.0,"מרתף,ראשונה,שניה",184.93,4899000,,,1984.0,,,7631092750,1,6668603,False,,הרצלייה,חבצלת השרון,,6668-603-1,6668/603,26491.104742334937,32.1824855523,34.8066479563,2003
2003-09-21,2003-09-21,"צמרות 10, הרצלייה",צמרות 10,6545-38-225,דירה בבית קומות,4.0,ראשונה,121.1,1151000,,,2000.0,,29.0,7631298988,1,654538,False,,הרצלייה,צמרות,,6545-38-225,6545/38,9504.541701073493,32.1514074582,34.8458200181,2003
2003-09-21,2003-09-21,"דוד המלך 36, הרצלייה",דוד המלך 36,6667-638-1,,5.0,ראשונה,132.0,2354000,,,1970.0,,2.0,7631095266,1,6667638,False,,הרצלייה,דוד המלך,,6667-638-1,6667/638,17833.333333333332,32.1757451224,34.8137247203,2003
2003-09-21,2003-09-21,"רבי עקיבא 9, הרצלייה",רבי עקיבא 9,6546-492-15,,4.0,רביעית,104.0,829000,,,1965.0,,4.0,7631237420,1,6546492,False,,הרצלייה,רבי עקיבא,,6546-492-15,6546/492,7971.153846153846,32.1540573479,34.8447866872,2003
2003-09-18,2003-09-18,"בן-גוריון 68, הרצלייה",בן-גוריון 68,6546-724-1,,4.0,ראשונה,75.69,955000,,,1982.0,,4.0,7696132978,1,6546724,False,,הרצלייה,בן גוריון,,6546-724-1,6546/724,12617.254591095258,32.1561171269,34.8419211202,2003
2003-09-15,2003-09-15,"הקרן הקיימת 5, הרצלייה",הקרן הקיימת 5,6539-121-7,,3.0,שניה,93.26,811000,,,1974.0,,6.0,7630946230,1,6539121,False,,הרצלייה,הקרן הקימת,,6539-121-7,6539/121,8696.118378726142,32.1605430804,34.8464058771,2003
2003-09-14,2003-09-14,"צמרות 10, הרצלייה",צמרות 10,6545-38-281,דירה בבית קומות,5.0,שלוש עשרה,142.8,2110000,,,2000.0,,29.0,7631298396,1,654538,False,,הרצלייה,צמרות,,6545-38-281,6545/38,14775.910364145657,32.1514074582,34.8458200181,2003
2003-09-14,2003-09-14,"הרי הגלעד 28, הרצלייה",הרי הגלעד 28,6577-109-3,,2.0,ראשונה,35.2,253000,,,1960.0,,2.0,7631004246,1,6577109,True,-27% ב 2.9 שנים,הרצלייה,הרי גלעד,-9.31,6577-109-3,6577/109,7187.499999999999,32.1753927273,34.8548580436,2003
2003-09-12,2003-12-09,"הרב קוק 62, הרצלייה",הרב קוק 62,6527-244-1,,2.0,ראשונה,44.9,532000,,,1950.0,,3.0,7633165416,1,6527244,False,,הרצלייה,הרב קוק,,6527-244-1,6527/244,11848.552338530068,32.1628771115,34.8329187748,2003
2003-09-12,2003-12-09,"המקובלים 5, הרצלייה",המקובלים 5,6546-618-16,,4.0,רביעית,100.0,1298000,,,1980.0,,9.0,7633692148,1,6546618,False,,הרצלייה,המקובלים,,6546-618-16,6546/618,12980.0,32.153594597,34.839161843,2003
2003-09-11,2003-11-09,"פלמ""ח 8, הרצלייה","פלמ""ח 8",6536-211-6,,3.0,שלישית,56.25,705000,,,1965.0,,3.0,7632781356,1,6536211,False,,הרצלייה,"פלמ""ח",,6536-211-6,6536/211,12533.333333333334,32.1696388004,34.8452337765,2003
2003-09-11,2003-11-09,"הנשיא יצחק 31, הרצלייה",הנשיא יצחק 31,6669-663-24,,4.0,ראשונה,125.21,1887000,,,1995.0,,2.0,7633393114,1,6669663,False,,הרצלייה,הנשיא יצחק בן צבי,,6669-663-24,6669/663,15070.681255490776,32.1855560107,34.8128495077,2003
2003-09-11,2003-11-09,"יל""ג 7, הרצלייה","יל""ג 7",6530-180-4,,3.0,שניה,91.81,817000,,,1975.0,,4.0,7633093340,1,6530180,False,,הרצלייה,"יל""ג",,6530-180-4,6530/180,8898.812765493954,32.1686724742,34.8432625212,2003
2003-09-10,2003-10-09,"ויצמן 27, הרצלייה",ויצמן 27,6534-102-6,,3.0,ראשונה,57.53,59000,,,1972.0,,3.0,7631636058,1,6534102,False,,הרצלייה,ויצמן,,6534-102-6,6534/102,1025.551885972536,32.1658253347,34.8362449344,2003
2003-09-09,2003-09-09,"בן-גוריון 22, הרצלייה",בן-גוריון 22,6538-667-27,,,שלישית,,356000,,,1996.0,,4.0,7630833824,1,6538667,False,,הרצלייה,בן גוריון,,6538-667-27,6538/667,,32.1624116276,34.8420091038,2003
2003-09-09,2003-09-09,"בן-גוריון 22, הרצלייה",בן-גוריון 22,6538-667-26,,,שלישית,31.2,155000,,,1996.0,,4.0,7630831900,1,6538667,False,,הרצלייה,בן גוריון,,6538-667-26,6538/667,4967.948717948718,32.1624116276,34.8420091038,2003
2003-09-07,2003-07-09,"נתן אלתרמן 15, הרצלייה",נתן אלתרמן 15,6526-292-8,דירה בבית קומות,5.0,שניה,131.9,1828000,,,2003.0,,3.0,7628264322,1,6526292,False,,הרצלייה,אלתרמן נתן,,6526-292-8,6526/292,13858.98407884761,32.174049809,34.8385884388,2003
2003-09-07,2003-07-09,"רמב""ם 12, הרצלייה","רמב""ם 12",6538-124-3,,3.0,שניה,71.0,760000,,,1970.0,,3.0,7629931394,1,6538124,False,,הרצלייה,"רמב""ם",,6538-124-3,6538/124,10704.225352112677,32.1633228632,34.8440166281,2003
2003-09-07,2003-07-09,"המנופים 8, הרצלייה",המנופים 8,6592-105-51,מלאכה,,רביעית,129.8,1231000,,,2003.0,,4.0,7629515144,1,6592105,False,,הרצלייה,המנופים,,6592-105-51,6592/105,9483.82126348228,32.1597330259,34.8072130684,2003
2003-09-07,2003-07-09,"ויצמן 27, הרצלייה",ויצמן 27,6534-102-2,,3.0,ראשונה,58.04,612000,,,1972.0,,3.0,7628169676,1,6534102,False,,הרצלייה,ויצמן,,6534-102-2,6534/102,10544.452101998622,32.1658253347,34.8362449344,2003
2003-09-07,2003-07-09,"צמרות 10, הרצלייה",צמרות 10,6545-38-231,דירה בבית קומות,4.0,שניה,121.1,1689000,,,2000.0,,29.0,7628170268,1,654538,False,,הרצלייה,צמרות,,6545-38-231,6545/38,13947.151114781173,32.1514074582,34.8458200181,2003
2003-09-06,2003-06-09,"קהילת ציון 25, הרצלייה",קהילת ציון 25,6540-83-73,,4.0,שלישית,95.2,1038000,,,1990.0,,4.0,7627353974,1,654083,False,,הרצלייה,קהילת ציון,,6540-83-73,6540/83,10903.361344537814,32.164101333,34.8495011666,2003
2003-09-06,2003-06-09,"המסילה 21, הרצלייה",המסילה 21,6520-63-4,,6.0,קרקע+קרקע עליונה+גג,210.81,1671000,,,1989.0,,3.0,7627341246,1,652063,False,,הרצלייה,המסילה,,6520-63-4,6520/63,7926.568948342109,32.1693637093,34.8170627865,2003
2003-09-05,2003-05-09,"אמה טאובר 2, הרצלייה",אמה טאובר 2,6536-906-22,,4.0,חמישית,96.0,1154000,,,2003.0,,7.0,7626589628,1,6536906,False,,הרצלייה,טאובר אמה,,6536-906-22,6536/906,12020.833333333334,32.1754439708,34.8493858698,2003
2003-09-04,2003-04-09,"הנוטרים 10, הרצלייה",הנוטרים 10,6537-181-1,,3.0,ראשונה,72.2,766000,,,1980.0,,3.0,7625660484,1,6537181,False,,הרצלייה,הנוטרים,,6537-181-1,6537/181,10609.418282548477,32.1668317692,34.850402231,2003
2003-09-04,2003-04-09,"פינסקר 7, הרצלייה",פינסקר 7,6534-37-1,,6.0,ראשונה,141.0,1018000,,,1989.0,,3.0,7625871680,1,653437,False,,הרצלייה,פינסקר,,6534-37-1,6534/37,7219.858156028369,32.1671457271,34.837954766,2003
2003-09-02,2003-02-09,"דוד אלרואי 32, הרצלייה",דוד אלרואי 32,6424-155-26,,5.0,שביעית,109.72,1326000,,,2002.0,,15.0,7623853330,1,6424155,False,,הרצלייה,אלרואי דוד,,6424-155-26,6424/155,12085.308056872038,32.1587407952,34.8382406092,2003
2003-09-01,2003-01-09,"קהילת ציון 18, הרצלייה",קהילת ציון 18,6532-185-2,,4.0,ראשונה,89.0,722000,,,1970.0,,3.0,7623214192,1,6532185,False,,הרצלייה,קהילת ציון,,6532-185-2,6532/185,8112.359550561798,32.1651723971,34.8483377804,2003
2003-09-01,2003-01-09,"בן-גוריון 119, הרצלייה",בן-גוריון 119,6546-470-14,,3.0,שלישית,38.1,530000,,,1962.0,,3.0,7622554852,1,6546470,False,,הרצלייה,בן גוריון,,6546-470-14,6546/470,13910.761154855643,32.1525997068,34.8426382435,2003
2003-09-01,2003-01-09,"רמת ים 1, הרצלייה",רמת ים 1,6668-1406-17,,,ראשונה,74.6,1446000,,,2000.0,,7.0,7623951010,1,66681406,False,,הרצלייה,רמת ים,,6668-1406-17,6668/1406,19383.378016085797,32.178786113,34.8041369757,2003
2003-08-31,2003-08-31,"פינסקר 40, הרצלייה",פינסקר 40,6527-128-4,,5.0,קרקע+ראשונה,128.93,1355000,,,1970.0,,,7630653190,1,6527128,False,,הרצלייה,פינסקר,,6527-128-4,6527/128,10509.578841231676,32.1684271909,34.8350164091,2003
2003-08-31,2003-08-31,"הלני המלכה 36, הרצלייה",הלני המלכה 36,6517-151-1,,6.0,"מרתף,קרקע,ראשונה+גג",187.87,3065000,,,1985.0,,,7630596284,1,6517151,False,,הרצלייה,הלני המלכה,,6517-151-1,6517/151,16314.472773726511,32.1657560384,34.8016575143,2003
2003-08-31,2003-08-31,"שלונסקי 7, הרצלייה",שלונסקי 7,6667-209-2,,6.0,,150.0,8406000,,,1980.0,,1.0,7630733628,1,6667209,False,,הרצלייה,שלונסקי,,6667-209-2,6667/209,56040.0,32.1695150455,34.8085283544,2003
2003-08-29,2003-08-29,"תור הזהב 13, הרצלייה",תור הזהב 13,6535-80-20,,2.0,שלישית,44.9,377000,,,1970.0,,3.0,7631195906,1,653580,False,,הרצלייה,תור הזהב,,6535-80-20,6535/80,8396.436525612473,32.163385743,34.8344652589,2003
2003-08-28,2003-08-28,"הקוצרים 8, הרצלייה",הקוצרים 8,6534-125-5,,3.0,ראשונה,66.0,812000,,,1960.0,,3.0,7631162384,1,6534125,False,16% ב 5 שנים,הרצלייה,הקוצרים,3.2,6534-125-5,6534/125,12303.030303030304,32.1665696012,34.8366348545,2003
2003-08-28,2003-08-28,"כצנלסון 23, הרצלייה",כצנלסון 23,6558-829-59,דירה בבית קומות,5.0,חמישית+ששית,137.6,1174000,,,1998.0,,7.0,7630866236,1,6558829,False,,הרצלייה,כצנלסון,,6558-829-59,6558/829,8531.976744186048,32.1684545137,34.8572096463,2003
2003-08-28,2003-08-28,"סנש חנה 26, הרצלייה",סנש חנה 26,6424-150-22,דירה בבית קומות,5.0,ראשונה,122.54,1130000,,,2002.0,,7.0,7630548702,1,6424150,False,,הרצלייה,סנש חנה,,6424-150-22,6424/150,9221.47870083238,32.15900613,34.8391946766,2003
2003-08-28,2003-08-28,"הנוטרים 1, הרצלייה",הנוטרים 1,6537-205-11,,4.0,שלישית,89.5,893000,,,1977.0,,3.0,7630767298,1,6537205,False,,הרצלייה,הנוטרים,,6537-205-11,6537/205,9977.653631284917,32.1667935523,34.8517704457,2003
2003-08-27,2003-08-27,"כיבוש העבודה 25, הרצלייה",כיבוש העבודה 25,6536-523-1,,3.0,ראשונה,55.24,693000,,,1970.0,,3.0,7630324704,1,6536523,False,,הרצלייה,כבוש העבודה,,6536-523-1,6536/523,12545.257060101376,32.1732786472,34.8435335788,2003
2003-08-27,2003-08-27,"כצנלסון 23, הרצלייה",כצנלסון 23,6558-829-54,,4.0,שלישית,98.13,1028000,,,1998.0,,7.0,7630394930,1,6558829,False,,הרצלייה,כצנלסון,,6558-829-54,6558/829,10475.899317232244,32.1684545137,34.8572096463,2003
2003-08-26,2003-08-26,"קהילת ציון 19, הרצלייה",קהילת ציון 19,6537-158-3,,4.0,ראשונה,90.5,701000,,,1970.0,,5.0,7630622554,1,6537158,False,,הרצלייה,קהילת ציון,,6537-158-3,6537/158,7745.85635359116,32.1650569129,34.8488249011,2003
2003-08-26,2003-08-26,"התאנה 7, הרצלייה",התאנה 7,6670-177-1,,6.0,ראשונה,151.0,3353000,,,1980.0,,1.0,7630816138,1,6670177,False,,הרצלייה,התאנה,,6670-177-1,6670/177,22205.298013245032,32.1883933386,34.8135549602,2003
2003-08-26,2003-08-26,"השופטים 4, הרצלייה",השופטים 4,6546-554-28,,5.0,שביעית,115.0,1151000,,,1980.0,,9.0,7630272830,1,6546554,False,,הרצלייה,השופטים,,6546-554-28,6546/554,10008.695652173914,32.1539614987,34.8407078581,2003
2003-08-26,2003-08-26,"התדהר 13, הרצלייה",התדהר 13,6536-108-1,,5.0,,120.0,1251000,,,1994.0,,,7630170266,1,6536108,False,,הרצלייה,התדהר,,6536-108-1,6536/108,10425.0,32.1764509725,34.8456063097,2003
2003-08-26,2003-08-26,"נוף שדמות 3, הרצלייה",נוף שדמות 3,6520-70-2,,5.0,מרתף קרקע ראשונה,156.11,1140000,,,1984.0,,,7630269204,1,652070,False,,הרצלייה,נוף שדמות,,6520-70-2,6520/70,7302.543078598424,32.1706745933,34.817457707,2003
2003-08-26,2003-08-26,"שלמה המלך 8, הרצלייה",שלמה המלך 8,6667-257-1,,5.0,,117.0,3100000,,,1972.0,,,7630365626,1,6667257,False,,הרצלייה,שלמה המלך,,6667-257-1,6667/257,26495.726495726496,32.1793015165,34.8116872489,2003
2003-08-26,2003-08-26,"יציאת אירופה 22, הרצלייה",יציאת אירופה 22,6558-598-3,,4.0,ראשונה,120.0,1341000,,,1950.0,,1.0,7631210558,1,6558598,False,,הרצלייה,יציאת אירופה,,6558-598-3,6558/598,11175.0,32.167955137,34.8614220145,2003
2003-08-24,2003-08-24,"יוני נתניהו 1, הרצלייה",יוני נתניהו 1,6667-76-12,,7.0,ראשונה,270.0,3513000,,,1987.0,,3.0,7631095858,1,666776,False,,הרצלייה,נתניהו יוני,,6667-76-12,6667/76,13011.111111111111,32.178637734,34.8111688782,2003
2003-08-24,2003-08-24,"רופין 8, הרצלייה",רופין 8,6533-285-6,דירה בבית קומות,4.0,שלישית,80.0,808000,,,2002.0,,4.0,7630362518,1,6533285,False,,הרצלייה,רופין,,6533-285-6,6533/285,10100.0,32.1664856693,34.8413197805,2003
2003-08-21,2003-08-21,"הנדיב 5, הרצלייה",הנדיב 5,6529-245-33,,5.0,רביעית,107.0,1085000,,,1995.0,,16.0,7630693446,1,6529245,False,,הרצלייה,הנדיב,,6529-245-33,6529/245,10140.18691588785,32.1676669,34.8399742858,2003
2003-08-19,2003-08-19,"מעפילי מרוקו 7, הרצלייה",מעפילי מרוקו 7,6577-61-33,,3.0,שלישית,40.8,377000,,,1960.0,,4.0,7630046908,1,657761,False,,הרצלייה,מעפילי מרוקו,,6577-61-33,6577/61,9240.196078431372,32.1759629515,34.8531187163,2003
2003-08-18,2003-08-18,"העלומים 5, הרצלייה",העלומים 5,6663-294-10,,4.0,שלישית,89.89,643000,,,1970.0,,3.0,7630061560,1,6663294,False,,הרצלייה,העלומים,,6663-294-10,6663/294,7153.187228835243,32.1790653002,34.8446117813,2003
2003-08-18,2003-08-18,"צמרות 2, הרצלייה",צמרות 2,6546-858-109,דירה בבית קומות,4.0,עשירית,121.6,1550000,,,1998.0,,17.0,7630255662,1,6546858,False,,הרצלייה,צמרות,,6546-858-109,6546/858,12746.71052631579,32.1515729734,34.8431441388,2003
2003-08-18,2003-08-18,"אברהם שטרן 6, הרצלייה",אברהם שטרן 6,6546-843-4,,2.0,ראשונה,49.32,505000,,,1967.0,,4.0,7629980382,1,6546843,False,,הרצלייה,שטרן אברהם,,6546-843-4,6546/843,10239.253852392538,32.1545225939,34.8411788962,2003
2003-08-18,2003-08-18,"צמרות 10, הרצלייה",צמרות 10,6545-38-226,דירה בבית קומות,4.5,ראשונה,121.1,1475000,,,2000.0,,29.0,7630255070,1,654538,False,,הרצלייה,צמרות,,6545-38-226,6545/38,12180.016515276631,32.1514074582,34.8458200181,2003
2003-08-17,2003-08-17,"שניאור זלמן 7, הרצלייה",שניאור זלמן 7,6526-189-20,,5.0,ראשונה,107.0,1168000,,,1993.0,,5.0,7629687934,1,6526189,False,,הרצלייה,שניאור זלמן,,6526-189-20,6526/189,10915.88785046729,32.1711026986,34.8365220854,2003
2003-08-17,2003-08-17,"אריה לייב יפה 4, הרצלייה",אריה לייב יפה 4,6530-98-3,,5.0,שניה,113.7,1324000,,,1993.0,,3.0,7629647086,1,653098,False,,הרצלייה,יפה אריה לייב,,6530-98-3,6530/98,11644.678979771328,32.1709994522,34.8426343366,2003
2003-08-15,2003-08-15,,,6668-934-1,,9.0,שניה,412.0,11996000,,,1990.0,,,7630164716,2,6668934,False,,הרצלייה,שבט מנשה,,6668-934-1,6668/934,29116.504854368934,32.1762674048,34.8064980184,2003
2003-08-15,2003-08-15,"הנשיא יצחק בן-צבי 150, הרצלייה",הנשיא יצחק בן-צבי 150,6668-1118-3,,3.0,שניה,72.13,933000,,,1970.0,,3.0,7629567018,1,66681118,False,,הרצלייה,הנשיא יצחק בן צבי,,6668-1118-3,6668/1118,12934.978511021767,32.1732661928,34.8077160134,2003
2003-08-14,2003-08-14,"קיבוץ גלויות 77, הרצלייה",קיבוץ גלויות 77,6558-628-3,,,ראשונה,,689000,,,1950.0,,1.0,7631287444,1,6558628,False,,הרצלייה,קבוץ גלויות,,6558-628-3,6558/628,,32.171321162,34.8615066103,2003
2003-08-14,2003-08-14,"בר-אילן 24, הרצלייה",בר-אילן 24,6534-111-1,,3.0,ראשונה,44.8,664000,,,1960.0,,2.0,7629806260,1,6534111,False,,הרצלייה,בר אילן,,6534-111-1,6534/111,14821.428571428572,32.1649711078,34.8384423456,2003
2003-08-14,2003-08-14,"סמדר 4, הרצלייה",סמדר 4,6546-518-1,,6.0,קרקע+ראשונה,107.0,1578000,,,1970.0,,2.0,7630214074,1,6546518,False,,הרצלייה,סמדר,,6546-518-1,6546/518,14747.663551401867,32.1576277616,34.8435827232,2003
2003-08-13,2003-08-13,"לוי אשכול 36, הרצלייה",לוי אשכול 36,6668-1004-1,,4.0,ראשונה,100.0,4795000,,,1970.0,,1.0,7629793532,1,66681004,False,,הרצלייה,לוי אשכול,,6668-1004-1,6668/1004,47950.0,32.1700771605,34.8055030088,2003
2003-08-13,2003-08-13,"הירדן 1, הרצלייה",הירדן 1,6536-796-1,,4.0,ראשונה,106.0,1309000,,,1997.0,,3.0,7629536604,1,6536796,False,,הרצלייה,הירדן,,6536-796-1,6536/796,12349.056603773584,32.1702154459,34.8494892401,2003
2003-08-13,2003-08-13,"בעל שם טוב 1, הרצלייה",בעל שם טוב 1,6538-663-3,,4.0,שניה,95.05,999000,,,1992.0,,3.0,7629692892,1,6538663,False,,הרצלייה,הבעל שם טוב,,6538-663-3,6538/663,10510.257759074171,32.1615304564,34.8413124862,2003
2003-08-10,2003-10-08,"אשר ברש 33, הרצלייה",אשר ברש 33,6526-176-4,,3.0,ראשונה,84.5,875000,,,1988.0,,3.0,7631487614,1,6526176,False,,הרצלייה,ברש אשר,,6526-176-4,6526/176,10355.029585798817,32.1730519575,34.8393427348,2003
2003-08-07,2003-07-08,"צמרות 10, הרצלייה",צמרות 10,6545-38-278,דירה בבית קומות,5.0,שתים עשרה,146.4,2119000,,,2000.0,,29.0,7628173376,1,654538,False,,הרצלייה,צמרות,,6545-38-278,6545/38,14474.043715846994,32.1514074582,34.8458200181,2003
2003-08-07,2003-07-08,"השושנים 14, הרצלייה",השושנים 14,6529-25-6,דירה בבית קומות,3.0,שניה,80.12,663000,,,1960.0,,3.0,7629030444,1,652925,False,,הרצלייה,השושנים,,6529-25-6,6529/25,8275.087368946579,32.1677402526,34.8383860112,2003
2003-08-07,2003-07-08,"ניל""י 19, הרצלייה","ניל""י 19",6668-1021-2,,8.0,ראשונה,504.0,12849000,,,1989.0,,1.0,7628194170,1,66681021,False,,הרצלייה,"ניל""י",,6668-1021-2,6668/1021,25494.04761904762,32.1747036368,34.8058947392,2003
2003-08-06,2003-06-08,"ויצמן 13, הרצלייה",ויצמן 13,6534-54-3,,4.0,שניה,85.0,704000,,,1980.0,,3.0,7627038364,1,653454,False,,הרצלייה,ויצמן,,6534-54-3,6534/54,8282.35294117647,32.1644571435,34.8349158502,2003
2003-08-04,2003-04-08,"צמרות 10, הרצלייה",צמרות 10,6545-38-267,דירה בבית קומות,4.0,עשירית,121.1,1913000,,,2000.0,,29.0,7625852736,1,654538,False,,הרצלייה,צמרות,,6545-38-267,6545/38,15796.862097440133,32.1514074582,34.8458200181,2003
2003-08-04,2003-04-08,"הדר 14, הרצלייה",הדר 14,6536-579-2,,4.0,ראשונה,81.89,968000,,,1970.0,,3.0,7625266730,1,6536579,False,,הרצלייה,הדר,,6536-579-2,6536/579,11820.73513249481,32.1690103856,34.8488047723,2003
2003-08-01,2003-01-08,"הכ""ג 3, הרצלייה","הכ""ג 3",6520-3-6,,3.0,ראשונה,79.0,998000,,,1960.0,,3.0,7623271468,1,65203,False,,הרצלייה,"הכ""ג",,6520-3-6,6520/3,12632.911392405063,32.1708362655,34.8150121469,2003
2003-08-01,2003-01-08,"רינה 2, הרצלייה",רינה 2,6557-109-2,,6.0,ראשונה,97.5,1446000,,,1960.0,,1.0,7622604802,1,6557109,False,,הרצלייה,רינה,,6557-109-2,6557/109,14830.76923076923,32.1601629779,34.8609566221,2003
2003-07-31,2003-07-31,"רבנו תם 12, הרצלייה",רבנו תם 12,6527-241-28,,3.0,ראשונה,51.8,575000,,,1960.0,,3.0,7629323632,1,6527241,False,34% ב 1.6 שנים,הרצלייה,רבנו תם,21.25,6527-241-28,6527/241,11100.3861003861,32.1632490351,34.8317561464,2003
2003-07-31,2003-07-31,"אלי לנדאו 50, הרצלייה",אלי לנדאו 50,6668-1364-75,דירה בבית קומות,3.0,חמישית,94.0,3720000,,,1993.0,,14.0,7629619632,1,66681364,False,,הרצלייה,רמת ים,,6668-1364-75,6668/1364,39574.46808510638,32.1729217818,34.8010746527,2003
2003-07-31,2003-07-31,"ריינס 10, הרצלייה",ריינס 10,6534-77-4,,3.0,שניה,75.0,762000,,,1983.0,,3.0,7629291886,1,653477,False,,הרצלייה,ריינס,,6534-77-4,6534/77,10160.0,32.1652349126,34.8384882219,2003
2003-07-30,2003-07-30,"קרן היסוד 21, הרצלייה",קרן היסוד 21,6667-231-1,,6.0,ראשונה,160.0,2640000,,,1994.0,,1.0,7629942420,1,6667231,False,,הרצלייה,קרן היסוד,,6667-231-1,6667/231,16500.0,32.1801104529,34.8126409646,2003
2003-07-30,2003-07-30,"מגן דוד 95, הרצלייה",מגן דוד 95,7927-16-0,,3.0,ראשונה,80.0,1149000,,,1970.0,,,7629324224,1,792716,False,,הרצלייה,מגן דוד,,7927-16-0,7927/16,14362.5,32.1859916659,34.8405973711,2003
2003-07-29,2003-07-29,"שמואל הנגיד 12, הרצלייה",שמואל הנגיד 12,6527-300-17,,3.0,שניה,57.7,666000,,,2019.0,,3.0,7629645754,1,6527300,False,,הרצלייה,שמואל הנגיד,,6527-300-17,6527/300,11542.461005199306,32.1665306322,34.8346857686,2003
2003-07-29,2003-07-29,"אמה טאובר 2, הרצלייה",אמה טאובר 2,6536-906-27,,6.0,שביעית,167.0,1998000,,,2003.0,,7.0,7629533496,1,6536906,False,,הרצלייה,טאובר אמה,,6536-906-27,6536/906,11964.071856287424,32.1754439708,34.8493858698,2003
2003-07-29,2003-07-29,"דוד אלרואי 32, הרצלייה",דוד אלרואי 32,6424-155-42,דירה בבית קומות,5.0,אחת עשרה,109.72,1401000,,,2002.0,,15.0,7629297288,1,6424155,False,,הרצלייה,אלרואי דוד,,6424-155-42,6424/155,12768.866204885162,32.1587407952,34.8382406092,2003
2003-07-27,2003-07-27,"זלמן שניאור 3, הרצלייה",זלמן שניאור 3,6526-191-6,,5.0,שניה,107.0,1173000,,,1991.0,,5.0,7628984786,1,6526191,False,,הרצלייה,שניאור זלמן,,6526-191-6,6526/191,10962.616822429907,32.1705642276,34.836177166,2003
2003-07-27,2003-07-27,"ויצמן 17, הרצלייה",ויצמן 17,6534-147-1,,4.0,ראשונה,83.36,699000,,,1970.0,,3.0,7629417464,1,6534147,False,,הרצלייה,ויצמן,,6534-147-1,6534/147,8385.31669865643,32.1647600543,34.8350194153,2003
2003-07-24,2003-07-24,"רמת ים 1, הרצלייה",רמת ים 1,6668-1406-11,דירה בבית קומות,5.0,קרקע +ראשונה,125.0,1597000,,,2000.0,,7.0,7630112250,1,66681406,False,,הרצלייה,רמת ים,,6668-1406-11,6668/1406,12776.0,32.178786113,34.8041369757,2003
2003-07-23,2003-07-23,"מרזוק 14, הרצלייה",מרזוק 14,6577-209-9,,3.0,ראשונה,66.3,494000,,,1960.0,,4.0,7628913302,1,6577209,False,,הרצלייה,מרזוק,,6577-209-9,6577/209,7450.980392156863,32.1775244001,34.8522761629,2003
2003-07-23,2003-07-23,"אלוף יגאל אלון 4, הרצלייה",אלוף יגאל אלון 4,6531-151-11,,4.0,שלישית,75.4,691000,,,1978.0,,4.0,7628963992,1,6531151,False,,הרצלייה,אלוף אלון יגאל,,6531-151-11,6531/151,9164.45623342175,32.1686078702,34.8448531216,2003
2003-07-22,2003-07-22,"נתן אלתרמן 19, הרצלייה",נתן אלתרמן 19,6526-291-3,דירה בבית קומות,5.0,קרקע,109.9,1529000,,,2002.0,,6.0,7628586666,1,6526291,False,,הרצלייה,אלתרמן נתן,,6526-291-3,6526/291,13912.647861692449,32.1741042103,34.8380769688,2003
2003-07-20,2003-07-20,"אמה טאובר 2, הרצלייה",אמה טאובר 2,6536-906-10,,4.0,שניה,96.0,1124000,,,2003.0,,7.0,7628799120,1,6536906,False,,הרצלייה,טאובר אמה,,6536-906-10,6536/906,11708.333333333334,32.1754439708,34.8493858698,2003
2003-07-18,2003-07-18,"הנדיב 53, הרצלייה",הנדיב 53,6527-309-15,,3.0,רביעית,54.2,526000,,,1970.0,,4.0,7628620780,1,6527309,False,,הרצלייה,הנדיב,,6527-309-15,6527/309,9704.79704797048,32.1700587621,34.8349190715,2003
2003-07-18,2003-07-18,"מנחם בן-סרוק 2, הרצלייה",מנחם בן-סרוק 2,6527-242-20,,2.0,שלישית,44.9,479000,,,1970.0,,3.0,7628982270,1,6527242,True,-13% ב 4.7 שנים,הרצלייה,בן סרוק מנחם,-2.77,6527-242-20,6527/242,10668.15144766147,32.1630863076,34.8324421218,2003
2003-07-18,2003-07-18,"הארז 3, הרצלייה",הארז 3,6669-615-2,,4.0,ראשונה,100.0,1155000,,,1950.0,,2.0,7629512110,1,6669615,False,,הרצלייה,הארז,,6669-615-2,6669/615,11550.0,32.1873139252,34.809215423,2003
2003-07-17,2003-07-17,"הנשיא יצחק 31, הרצלייה",הנשיא יצחק 31,6669-663-3,,3.0,קרקע תחתונה,87.1,969000,,,1995.0,,2.0,7629487616,1,6669663,False,,הרצלייה,הנשיא יצחק בן צבי,,6669-663-3,6669/663,11125.143513203217,32.1855560107,34.8128495077,2003
2003-07-17,2003-07-17,"אמה טאובר 2, הרצלייה",אמה טאובר 2,6536-906-26,,4.0,שישית,96.0,1164000,,,2003.0,,7.0,7629534680,1,6536906,False,,הרצלייה,טאובר אמה,,6536-906-26,6536/906,12125.0,32.1754439708,34.8493858698,2003
2003-07-17,2003-07-17,"הנדיב 13, הרצלייה",הנדיב 13,6529-99-6,,3.0,שניה,80.15,756000,,,1978.0,,4.0,7628967618,1,652999,False,,הרצלייה,הנדיב,,6529-99-6,6529/99,9432.314410480349,32.1684634701,34.839911045,2003
2003-07-17,2003-07-17,"אברהם שטרן 10, הרצלייה",אברהם שטרן 10,6546-258-1,,6.0,ראשונה ושניה,160.36,1765000,,,1978.0,,1.0,7628783876,1,6546258,False,,הרצלייה,שטרן אברהם,,6546-258-1,6546/258,11006.485407832375,32.1545349998,34.8399931218,2003
2003-07-17,2003-07-17,"צמרות 2, הרצלייה",צמרות 2,6546-858-136,,5.0,שש עשרה,195.6,4557000,,,1998.0,,17.0,7628968210,1,6546858,False,37% ב 2.1 שנים,הרצלייה,צמרות,17.62,6546-858-136,6546/858,23297.54601226994,32.1515729734,34.8431441388,2003
2003-07-17,2003-07-17,"הברוש 8, הרצלייה",הברוש 8,6669-319-2,בית בודד,5.0,ראשונה,130.0,3063000,,,1950.0,,1.0,7628617154,1,6669319,False,,הרצלייה,הברוש,,6669-319-2,6669/319,23561.53846153846,32.1862301749,34.8119136819,2003
2003-07-17,2003-07-17,"דוד אלרואי 32, הרצלייה",דוד אלרואי 32,6424-155-50,דירה בבית קומות,4.0,שלוש עשרה,99.26,1511000,,,2002.0,,15.0,7628777142,1,6424155,False,,הרצלייה,אלרואי דוד,,6424-155-50,6424/155,15222.647592182147,32.1587407952,34.8382406092,2003
2003-07-16,2003-07-16,"אבן גבירול 16, הרצלייה",אבן גבירול 16,6527-264-21,,4.0,שניה,94.28,767000,,,1970.0,,3.0,7628313680,1,6527264,False,,הרצלייה,אבן גבירול,,6527-264-21,6527/264,8135.341535850657,32.167121784,34.8363754587,2003
2003-07-16,2003-07-16,"ורבורג אוטו 15, הרצלייה",ורבורג אוטו 15,6546-705-3,,4.0,שניה,96.16,887000,,,1980.0,,3.0,7628486544,1,6546705,False,,הרצלייה,ורבורג אוטו,,6546-705-3,6546/705,9224.209650582365,32.1565867338,34.8445494992,2003
2003-07-15,2003-07-15,"הנשיא יצחק בן-צבי 121, הרצלייה",הנשיא יצחק בן-צבי 121,6667-347-1,,9.0,ראשונה,480.0,5611000,,,1980.0,,1.0,7629497458,1,6667347,False,,הרצלייה,הנשיא יצחק בן צבי,,6667-347-1,6667/347,11689.583333333334,32.1739993257,34.8088841778,2003
2003-07-15,2003-07-15,"התומר 2, הרצלייה",התומר 2,6669-318-1,קוטג' דו משפחתי,5.0,ראשונה,149.0,2719000,,,1969.0,,1.0,7628976128,1,6669318,False,,הרצלייה,התומר,,6669-318-1,6669/318,18248.322147651008,32.1865522281,34.8122794173,2003
2003-07-15,2003-07-15,"הקוצרים 13, הרצלייה",הקוצרים 13,6527-292-16,,4.0,שניה,76.0,720000,,,1975.0,,3.0,7628198388,1,6527292,False,,הרצלייה,הקוצרים,,6527-292-16,6527/292,9473.684210526317,32.1671543651,34.835486391,2003
2003-07-15,2003-07-15,"האשל 20, הרצלייה",האשל 20,6669-330-2,,4.0,ראשונה,95.0,2981000,,,1950.0,,1.0,7628426826,1,6669330,False,,הרצלייה,האשל,,6669-330-2,6669/330,31378.947368421053,32.1880908225,34.810899389,2003
2003-07-15,2003-07-15,"המגינים 20, הרצלייה",המגינים 20,6666-801-1,,6.0,ראשונה,220.0,2803000,,,1977.0,,1.0,7628557362,1,6666801,False,,הרצלייה,המגינים,,6666-801-1,6666/801,12740.90909090909,32.1728584749,34.8116029338,2003
2003-07-14,2003-07-14,"מעפילי מרוקו 7, הרצלייה",מעפילי מרוקו 7,6577-61-8,,3.0,שניה,40.8,389000,,,1960.0,,4.0,7628358376,1,657761,False,,הרצלייה,מעפילי מרוקו,,6577-61-8,6577/61,9534.313725490198,32.1759629515,34.8531187163,2003
2003-07-14,2003-07-14,"השופטים 7, הרצלייה",השופטים 7,6546-540-41,,5.0,אחת עשרה,143.0,1467000,,,1991.0,,18.0,7628584298,1,6546540,False,,הרצלייה,השופטים,,6546-540-41,6546/540,10258.741258741258,32.1527364016,34.8416486065,2003
2003-07-14,2003-07-14,"העצמאות 72, הרצלייה",העצמאות 72,6540-77-5,,5.0,שלישית,112.7,4853000,,,1990.0,,4.0,7629128198,1,654077,False,,הרצלייה,העצמאות,,6540-77-5,6540/77,43061.22448979592,32.1649768971,34.850883022,2003
2003-07-13,2003-07-13,"זלמן שניאור 11, הרצלייה",זלמן שניאור 11,6526-264-24,,5.0,שלישית,116.26,1308000,,,1998.0,,4.0,7628358968,1,6526264,False,18% ב 4.5 שנים,הרצלייה,שניאור זלמן,4.0,6526-264-24,6526/264,11250.64510579735,32.1715140181,34.8368490063,2003
2003-07-13,2003-07-13,"ח""ן 4, הרצלייה","ח""ן 4",6531-164-28,,4.0,חמישית,102.2,985000,,,1985.0,,8.0,7629001214,1,6531164,False,,הרצלייה,"ח""ן",,6531-164-28,6531/164,9637.964774951077,32.167870229,34.8435549059,2003
2003-07-13,2003-07-13,"הברוש 8, הרצלייה",הברוש 8,6669-319-1,,4.0,ראשונה,94.0,2190000,,,1950.0,,1.0,7629086684,1,6669319,False,,הרצלייה,הברוש,,6669-319-1,6669/319,23297.87234042553,32.1862301749,34.8119136819,2003
2003-07-12,2003-12-07,"שפיק עדס 2, הרצלייה",שפיק עדס 2,6529-67-6,דירה בבית קומות,3.0,שלישית,100.0,888000,,,1957.0,,1.0,7633523798,1,652967,False,,הרצלייה,עדס,,6529-67-6,6529/67,8880.0,32.1686477221,34.8371479581,2003
2003-07-11,2003-11-07,"ברוך 36, הרצלייה",ברוך 36,6536-567-3,,4.0,ראשונה,100.8,974000,,,1980.0,,3.0,7632244708,1,6536567,False,,הרצלייה,ברוך,,6536-567-3,6536/567,9662.698412698412,32.1696849224,34.8479482293,2003
2003-07-11,2003-11-07,"האסיף 10, הרצלייה",האסיף 10,6663-273-2,,3.0,ראשונה,62.9,696000,,,2020.0,,3.0,7632408322,1,6663273,False,22% ב 3.5 שנים,הרצלייה,האסיף,6.29,6663-273-2,6663/273,11065.182829888712,32.1799887628,34.8430799379,2003
2003-07-10,2003-10-07,"שמואל הנגיד 8, הרצלייה",שמואל הנגיד 8,6534-141-4,דירה בבית קומות,4.0,ראשונה,94.0,1080000,,,2003.0,,3.0,7632066368,1,6534141,False,,הרצלייה,שמואל הנגיד,,6534-141-4,6534/141,11489.36170212766,32.1660116415,34.8352670602,2003
2003-07-09,2003-09-07,"צה""ל 8, הרצלייה","צה""ל 8",6558-156-7,,2.0,ראשונה,46.0,444000,,,1950.0,,1.0,7631310014,1,6558156,False,,הרצלייה,"צה""ל",,6558-156-7,6558/156,9652.173913043478,32.1671316479,34.8555718028,2003
2003-07-09,2003-09-07,"יעל 6, הרצלייה",יעל 6,6666-648-1,,7.0,ראשונה,250.0,3942000,,,1984.0,,1.0,7631291662,1,6666648,False,,הרצלייה,יעל,,6666-648-1,6666/648,15768.0,32.1693811367,34.8111225151,2003
2003-07-09,2003-09-07,"בר-כוכבא 125, הרצלייה",בר-כוכבא 125,6546-375-8,,6.0,שניה+גג,126.58,1310000,,,1985.0,,2.0,7630719716,1,6546375,False,,הרצלייה,בר כוכבא,,6546-375-8,6546/375,10349.186285353137,32.1572660935,34.8406990271,2003
2003-07-08,2003-08-07,"יקינטון 3, הרצלייה",יקינטון 3,6544-48-2,,5.0,מרתף קרקע ראשונה,214.19,1773000,,,1985.0,,,7630603610,1,654448,False,,הרצלייה,יקינטון,,6544-48-2,6544/48,8277.6973714926,32.1525420506,34.8502499301,2003
2003-07-07,2003-07-07,"דוד שמעוני 16, הרצלייה",דוד שמעוני 16,6526-269-17,,4.0,ראשונה,112.0,1113000,,,2001.0,,,7628438222,1,6526269,False,,הרצלייה,שמעוני דוד,,6526-269-17,6526/269,9937.5,32.1719093712,34.8361365797,2003
2003-07-04,2003-04-07,"מדינת היהודים 29, הרצלייה",מדינת היהודים 29,6517-228-1,,5.0,שניה,182.0,2693000,,,1977.0,,1.0,7625459574,1,6517228,False,,הרצלייה,מדינת היהודים,,6517-228-1,6517/228,14796.703296703296,32.1685371633,34.8045725697,2003
2003-07-04,2003-04-07,"אבטליון 4, הרצלייה",אבטליון 4,6527-288-26,,4.0,שניה,80.0,617000,,,2023.0,,6.0,7625424128,1,6527288,False,,הרצלייה,אבטליון,,6527-288-26,6527/288,7712.5,32.1676655959,34.8348866888,2003
2003-07-04,2003-04-07,"וינגיט 38, הרצלייה",וינגיט 38,6668-634-10,,2.0,ראשונה,40.43,696000,,,1980.0,,3.0,7625161206,1,6668634,False,,הרצלייה,וינגייט,,6668-634-10,6668/634,17214.939401434578,32.179467346,34.8057413092,2003
2003-07-02,2003-02-07,"פלמ""ח 21, הרצלייה","פלמ""ח 21",6536-192-1,דירה בבית קומות,4.0,קומה ‎1‏,111.2,803000,,,1973.0,,3.0,7623292854,1,6536192,False,3% ב 4 שנים,הרצלייה,"פלמ""ח",0.75,6536-192-1,6536/192,7221.223021582734,32.1706224158,34.8447960419,2003
2003-07-02,2003-02-07,"הנשיא יצחק בן-צבי 92, הרצלייה",הנשיא יצחק בן-צבי 92,6668-312-2,,8.0,קרקע+ראשונה,151.0,2736000,,,1970.0,,2.0,7624112256,1,6668312,False,,הרצלייה,הנשיא יצחק בן צבי,,6668-312-2,6668/312,18119.205298013247,32.1812273562,34.8112221442,2003
2003-07-01,2003-01-07,"זלמן שניאור 19, הרצלייה",זלמן שניאור 19,6526-296-36,דירה בבית קומות,5.0,רביעית,116.9,1513000,,,2001.0,,5.0,7623143966,1,6526296,False,,הרצלייה,שניאור זלמן,,6526-296-36,6526/296,12942.686056458511,32.1725107119,34.8374712142,2003
2003-07-01,2003-01-07,"אמה טאובר 4, הרצלייה",אמה טאובר 4,6536-906-55,,6.0,שביעית,167.0,1965000,,,2002.0,,7.0,7622697746,1,6536906,False,,הרצלייה,טאובר אמה,,6536-906-55,6536/906,11766.467065868264,32.1754439708,34.8493858698,2003
2003-06-30,2003-06-30,"עגנון 76, הרצלייה",עגנון 76,6536-838-10,,4.0,שלישית+גג,101.0,806000,,,1983.0,,3.0,7627771112,1,6536838,False,,הרצלייה,עגנון,,6536-838-10,6536/838,7980.19801980198,32.1736836967,34.8514314574,2003
2003-06-30,2003-06-30,"אבן שפרוט 12, הרצלייה",אבן שפרוט 12,6527-403-7,,4.0,שניה,79.5,120000,,,1970.0,,4.0,7632348604,1,6527403,False,,הרצלייה,אבן שפרוט,,6527-403-7,6527/403,1509.433962264151,32.1657837025,34.8324884529,2003
2003-06-30,2003-06-30,"החרוב 6, הרצלייה",החרוב 6,6669-613-1,,4.0,ראשונה,88.0,1204000,,,1969.0,,2.0,7627676466,1,6669613,False,,הרצלייה,החרוב,,6669-613-1,6669/613,13681.818181818182,32.1875725357,34.8093040537,2003
2003-06-29,2003-06-29,"סירקין 7, הרצלייה",סירקין 7,6531-132-2,,3.0,ראשונה,70.37,667000,,,1965.0,,3.0,7627637912,1,6531132,False,,הרצלייה,סירקין,,6531-132-2,6531/132,9478.470939320732,32.1666101969,34.8441300008,2003
2003-06-29,2003-06-29,"אמה טאובר 2, הרצלייה",אמה טאובר 2,6536-906-18,,4.0,רביעית,96.0,1154000,,,2003.0,,7.0,7628048242,1,6536906,False,,הרצלייה,טאובר אמה,,6536-906-18,6536/906,12020.833333333334,32.1754439708,34.8493858698,2003
2003-06-29,2003-06-29,"הבעל שם טוב 5, הרצלייה",הבעל שם טוב 5,6538-217-1,,4.0,ראשונה,94.79,660000,,,1984.0,,4.0,7627666032,1,6538217,False,,הרצלייה,הבעל שם טוב,,6538-217-1,6538/217,6962.759784787424,32.1619031156,34.8416558206,2003
2003-06-26,2003-06-26,"פסח יפהר 39, הרצלייה",פסח יפהר 39,6544-54-4,דירה בבית קומות,9.0,מרתף+קרקע+ראשונה+גג,225.9,2571000,,,2002.0,,4.0,7627861392,1,654454,False,,הרצלייה,יפהר פסח,,6544-54-4,6544/54,11381.142098273573,32.153269799,34.8509472235,2003
2003-06-26,2003-06-26,"החלוץ 15, הרצלייה",החלוץ 15,6530-258-10,דירה בבית קומות,5.0,שלישית+גג,124.3,1126000,,,1986.0,,4.0,7627925402,1,6530258,False,,הרצלייה,החלוץ,,6530-258-10,6530/258,9058.728881737732,32.1691053916,34.8439934574,2003
2003-06-26,2003-06-26,"העצמאות 40, הרצלייה",העצמאות 40,6538-474-9,,4.0,שלישית,88.52,765000,,,1977.0,,5.0,7629073216,1,6538474,False,,הרצלייה,העצמאות,,6538-474-9,6538/474,8642.114776321736,32.1645261957,34.8419440488,2003
2003-06-26,2003-06-26,"רמת ים 1, הרצלייה",רמת ים 1,6668-1406-73,דירה בבית קומות,3.0,שלישית,57.75,1298000,,,2000.0,,7.0,7629459052,1,66681406,False,,הרצלייה,רמת ים,,6668-1406-73,6668/1406,22476.19047619048,32.178786113,34.8041369757,2003
2003-06-26,2003-06-26,"רמת ים 1, הרצלייה",רמת ים 1,6668-1406-72,דירה בבית קומות,3.0,שלישית,50.65,866000,,,2000.0,,7.0,7629460828,1,66681406,False,,הרצלייה,רמת ים,,6668-1406-72,6668/1406,17097.729516288255,32.178786113,34.8041369757,2003
2003-06-25,2003-06-25,"הרב מרדכי הלפרין 1, הרצלייה",הרב מרדכי הלפרין 1,6533-172-7,,2.0,שניה,57.0,538000,,,1960.0,,1.0,7627695336,1,6533172,False,,הרצלייה,הרב הלפרין מרדכי,,6533-172-7,6533/172,9438.59649122807,32.1656891413,34.8405507679,2003
2003-06-23,2003-06-23,"הרי גולן 13, הרצלייה",הרי גולן 13,6577-231-23,,3.0,שניה,60.2,386000,,,1970.0,,4.0,7628131270,1,6577231,False,3% ב 1.4 שנים,הרצלייה,הרי גולן,2.14,6577-231-23,6577/231,6411.9601328903655,32.1770142963,34.8520899725,2003
2003-06-23,2003-06-23,"פורצי הדרך 57, הרצלייה",פורצי הדרך 57,6558-807-4,,4.0,ראשונה,93.4,907000,,,1980.0,,1.0,7627503602,1,6558807,False,,הרצלייה,פורצי הדרך,,6558-807-4,6558/807,9710.920770877943,32.1640013976,34.8624742262,2003
2003-06-23,2003-06-23,"דוד אלרואי 32, הרצלייה",דוד אלרואי 32,6424-155-38,דירה בבית קומות,5.0,עשירית,109.72,1371000,,,2002.0,,15.0,7627788132,1,6424155,False,,הרצלייה,אלרואי דוד,,6424-155-38,6424/155,12495.442945679912,32.1587407952,34.8382406092,2003
2003-06-23,2003-06-23,"דוד אלרואי 32, הרצלייה",דוד אלרואי 32,6424-155-47,דירה בבית קומות,4.0,שתים עשרה,95.57,1285000,,,2002.0,,15.0,7627774664,1,6424155,False,,הרצלייה,אלרואי דוד,,6424-155-47,6424/155,13445.641937846603,32.1587407952,34.8382406092,2003
2003-06-23,2003-06-23,"צמרות 10, הרצלייה",צמרות 10,6545-38-232,דירה בבית קומות,4.0,שניה,121.1,1575000,,,2000.0,,29.0,7628173968,1,654538,False,,הרצלייה,צמרות,,6545-38-232,6545/38,13005.78034682081,32.1514074582,34.8458200181,2003
2003-06-22,2003-06-22,"העצמאות 72, הרצלייה",העצמאות 72,6540-77-15,,5.0,רביעית+חמישית,164.47,1053000,,,1990.0,,4.0,7627464678,1,654077,False,,הרצלייה,העצמאות,,6540-77-15,6540/77,6402.38341338846,32.1649768971,34.850883022,2003
2003-06-22,2003-06-22,"החשמונאים 9, הרצלייה",החשמונאים 9,6542-94-5,,4.0,שניה+גג,109.3,1128000,,,1997.0,,2.0,7628294736,1,654294,False,,הרצלייה,החשמונאים,,6542-94-5,6542/94,10320.219579139984,32.1608338754,34.8504449205,2003
2003-06-20,2003-06-20,"לח""י 19, הרצלייה","לח""י 19",6668-1145-1,,7.0,ראשונה,225.0,2762000,,,1974.0,,1.0,7627531204,1,66681145,False,,הרצלייה,"לח""י",,6668-1145-1,6668/1145,12275.555555555557,32.1741802907,34.8051993063,2003
2003-06-19,2003-06-19,"שמואל הנגיד 20, הרצלייה",שמואל הנגיד 20,6527-303-19,,3.0,שניה,61.8,603000,,,2022.0,,3.0,7627586630,1,6527303,False,,הרצלייה,שמואל הנגיד,,6527-303-19,6527/303,9757.28155339806,32.1674476249,34.833566215,2003
2003-06-17,2003-06-17,"אבן גבירול 7, הרצלייה",אבן גבירול 7,6534-138-7,,3.0,שלישית,79.45,705000,,,1970.0,,3.0,7628101966,1,6534138,False,,הרצלייה,אבן גבירול,,6534-138-7,6534/138,8873.505349276275,32.1669616908,34.8374144054,2003
2003-06-17,2003-06-17,"צה""ל 1, הרצלייה","צה""ל 1",6558-660-22,,3.0,ראשונה,31.5,559000,,,1960.0,,2.0,7627235056,1,6558660,False,,הרצלייה,"צה""ל",,6558-660-22,6558/660,17746.031746031746,32.1670220219,34.8562111898,2003
2003-06-17,2003-06-17,"השופטים 7, הרצלייה",השופטים 7,6546-540-48,,4.0,שתים עשרה,91.0,1175000,,,1991.0,,18.0,7627967656,1,6546540,False,10% ב 4.1 שנים,הרצלייה,השופטים,2.44,6546-540-48,6546/540,12912.087912087913,32.1527364016,34.8416486065,2003
2003-06-16,2003-06-16,"אלי לנדאו 12, הרצלייה",אלי לנדאו 12,6668-1387-36,,7.0,שלישית+ביניים,175.0,7258000,,,1988.0,,6.0,7627357674,1,66681387,False,,הרצלייה,רמת ים,,6668-1387-36,6668/1387,41474.28571428572,32.1756485083,34.8015341259,2003
2003-06-16,2003-06-16,"הרי גולן 18, הרצלייה",הרי גולן 18,6577-234-3,,2.0,שניה,44.0,370000,,,1960.0,,5.0,7628221550,1,6577234,False,23% ב 1 שנים,הרצלייה,הרי גולן,23.0,6577-234-3,6577/234,8409.09090909091,32.1767737455,34.8528125236,2003
2003-06-16,2003-06-16,"צמרות 10, הרצלייה",צמרות 10,6545-38-75,,4.0,ראשונה,118.0,1297000,,,2000.0,,29.0,7627406440,1,654538,False,,הרצלייה,צמרות,,6545-38-75,6545/38,10991.525423728814,32.1514074582,34.8458200181,2003
2003-06-15,2003-06-15,"נווה עובד 27, הרצלייה",נווה עובד 27,6669-460-3,,3.0,ראשונה,31.5,879000,,,1950.0,,1.0,7628854694,1,6669460,False,,הרצלייה,נוה עובד,,6669-460-3,6669/460,27904.761904761905,32.1846916384,34.8134276869,2003
2003-06-11,2003-11-06,"קפלן 45, הרצלייה",קפלן 45,6669-143-1,,7.0,ראשונה,345.0,11473000,,,1990.0,,1.0,7632857132,1,6669143,False,,הרצלייה,קפלן,,6669-143-1,6669/143,33255.07246376811,32.1830835194,34.8090574021,2003
2003-06-08,2003-08-06,"ההסתדרות 10, הרצלייה",ההסתדרות 10,6546-183-3,,6.0,קרקע + ראשונה,121.26,1972000,,,1983.0,,,7629691634,1,6546183,False,,הרצלייה,ההסתדרות,,6546-183-3,6546/183,16262.576282368464,32.1586229095,34.8435652744,2003
2003-06-08,2003-08-06,"יהודה הלוי 35, הרצלייה",יהודה הלוי 35,6527-292-1,,4.0,ראשונה,76.0,722000,,,1972.0,,3.0,7630548110,1,6527292,False,,הרצלייה,הקוצרים,,6527-292-1,6527/292,9500.0,32.1671543651,34.835486391,2003
2003-06-08,2003-08-06,"המגינים 5, הרצלייה",המגינים 5,6666-380-1,בית בודד,7.0,ראשונה,258.0,3074000,,,1986.0,,1.0,7630916926,1,6666380,False,,הרצלייה,המגינים,,6666-380-1,6666/380,11914.728682170542,32.1722218949,34.8134230612,2003
2003-06-07,2003-07-06,"הפרסה 17, הרצלייה",הפרסה 17,6670-200-1,,4.0,ראשונה,109.0,946000,,,1984.0,,2.0,7628067852,1,6670200,False,,הרצלייה,הפרסה,,6670-200-1,6670/200,8678.899082568807,32.1902028026,34.8106446772,2003
2003-06-07,2003-07-06,"פינסקר 9, הרצלייה",פינסקר 9,6534-36-1,,3.0,ראשונה,70.5,701000,,,1965.0,,3.0,7628472484,1,653436,False,,הרצלייה,פינסקר,,6534-36-1,6534/36,9943.262411347518,32.1672718059,34.8378348313,2003
2003-06-05,2003-05-06,"סוקולוב 1, הרצלייה",סוקולוב 1,6529-214-17,,3.0,חמישית,68.0,802000,,,1985.0,,10.0,7626094494,1,6529214,False,,הרצלייה,סוקולוב,,6529-214-17,6529/214,11794.117647058823,32.1668269026,34.8388807119,2003
2003-06-04,2003-04-06,"הרב עוזיאל 46, הרצלייה",הרב עוזיאל 46,7291-126-1,,3.0,ראשונה,85.0,1116000,,,1953.0,,1.0,7626335660,1,7291126,False,,הרצלייה,הרב עוזיאל,,7291-126-1,7291/126,13129.411764705885,32.153992169,34.837475217,2003
2003-06-04,2003-04-06,"העוגן 2, הרצלייה",העוגן 2,6516-56-133,,2.0,תשיעית,50.0,1608000,,,2000.0,,12.0,7626101228,1,651656,False,,הרצלייה,העוגן,,6516-56-133,6516/56,32160.0,32.15935782,34.795784469,2003
2003-06-04,2003-04-06,"הקדמה 14, הרצלייה",הקדמה 14,6669-290-1,,3.0,,90.0,2423000,,,1990.0,,,7625750912,1,6669290,False,,הרצלייה,הקדמה,,6669-290-1,6669/290,26922.222222222223,32.1874808169,34.8120252868,2003
2003-06-03,2003-03-06,"בני בנימין 7, הרצלייה",בני בנימין 7,6528-125-5,,1.0,ראשונה,30.0,320000,,,1970.0,,3.0,7624521180,1,6528125,False,,הרצלייה,בני בנימין,,6528-125-5,6528/125,10666.666666666666,32.1708833414,34.8395166706,2003
2003-06-02,2003-02-06,"שטורמן 6, הרצלייה",שטורמן 6,6536-814-2,,5.0,מרתף+קרקע+ראשונה+שני,162.1,1791000,,,1980.0,,,7623357678,1,6536814,False,,הרצלייה,שטורמן,,6536-814-2,6536/814,11048.735348550275,32.172831703,34.8471032335,2003
2003-06-02,2003-02-06,"אמה טאובר 2, הרצלייה",אמה טאובר 2,6536-906-21,,4.0,חמישית,95.0,1168000,,,2003.0,,7.0,7624064008,1,6536906,False,,הרצלייה,טאובר אמה,,6536-906-21,6536/906,12294.736842105263,32.1754439708,34.8493858698,2003
2003-06-01,2003-01-06,"ההגנה 42, הרצלייה",ההגנה 42,6536-650-3,,3.0,ראשונה,72.5,1244000,,,2003.0,,2.0,7622312428,1,6536650,False,,הרצלייה,ההגנה,,6536-650-3,6536/650,17158.620689655174,32.1708152644,34.8508925217,2003
2003-06-01,2003-01-06,"שוחט ישראל 13, הרצלייה",שוחט ישראל 13,6558-259-2,,5.0,ראשונה,142.0,721000,,,1950.0,,1.0,7623889960,1,6558259,False,,הרצלייה,שוחט ישראל,,6558-259-2,6558/259,5077.4647887323945,32.1651360998,34.8573700004,2003
2003-06-01,2003-01-06,"נורדאו 69, הרצלייה",נורדאו 69,6666-884-3,,6.0,מרתף+קרקע+ראשונה+גג,268.16,1531000,,,1992.0,,,7622483960,1,6666884,False,,הרצלייה,נורדאו,,6666-884-3,6666/884,5709.278042959427,32.1752254774,34.8164562124,2003
2003-05-30,2003-05-30,"משכית 15, הרצלייה",משכית 15,6420-54-3,,,קרקע,71.8,1032000,,,1970.0,,4.0,7626792980,1,642054,False,,הרצלייה,משכית,,6420-54-3,6420/54,14373.259052924792,32.1645291456,34.8115821104,2003
2003-05-29,2003-05-29,"צמרות 10, הרצלייה",צמרות 10,6545-38-141,דירה בבית קומות,4.5,שישה עשר,124.7,1800000,,,2000.0,,29.0,7626960886,1,654538,False,,הרצלייה,צמרות,,6545-38-141,6545/38,14434.643143544508,32.1514074582,34.8458200181,2003
2003-05-29,2003-05-29,"גלגל הפלדה 3, הרצלייה",גלגל הפלדה 3,6420-34-4,,,קרקע,125.3,3570000,,,1954.0,,1.0,7627039548,1,642034,False,,הרצלייה,גלגל הפלדה,,6420-34-4,6420/34,28491.620111731845,32.1629144234,34.8078524815,2003
2003-05-29,2003-05-29,"החלוץ 6, הרצלייה",החלוץ 6,6531-186-3,,3.0,ראשונה,70.77,933000,,,2001.0,,4.0,7626536570,1,6531186,False,,הרצלייה,החלוץ,,6531-186-3,6531/186,13183.55235269182,32.167966483,34.8446086175,2003
2003-05-28,2003-05-28,"אל על 4, הרצלייה",אל על 4,6521-5-75,,4.0,עשירית,106.0,1377000,,,1970.0,,11.0,7627454244,1,65215,False,,הרצלייה,אל על,,6521-5-75,6521/5,12990.566037735847,32.1666328275,34.8149019352,2003
2003-05-28,2003-05-28,"זלמן שניאור 17, הרצלייה",זלמן שניאור 17,6526-296-20,דירה בבית קומות,5.0,שלישית,112.0,1440000,,,2003.0,,5.0,7627252742,1,6526296,False,,הרצלייה,שניאור זלמן,,6526-296-20,6526/296,12857.142857142857,32.1725107119,34.8374712142,2003
2003-05-27,2003-05-27,"שפיק עדס 2, הרצלייה",שפיק עדס 2,6529-67-7,דירה בבית קומות,4.0,שלישית,100.0,1113000,,,1957.0,,1.0,7626603096,1,652967,False,,הרצלייה,עדס,,6529-67-7,6529/67,11130.0,32.1686477221,34.8371479581,2003
2003-05-26,2003-05-26,"המסילה 33, הרצלייה",המסילה 33,6520-69-1,,7.0,קרקע ראשונה שניה,209.0,1670000,,,1970.0,,2.0,7626632400,1,652069,False,,הרצלייה,המסילה,,6520-69-1,6520/69,7990.43062200957,32.170434122,34.8175781847,2003
2003-05-26,2003-05-26,"קדושי השואה 47, הרצלייה",קדושי השואה 47,6517-375-1,,8.0,,266.0,4164000,,,1990.0,,,7627552368,1,6517375,False,,הרצלייה,קדושי השואה,,6517-375-1,6517/375,15654.135338345865,32.1696744169,34.8056320712,2003
2003-05-26,2003-05-26,"אוטו ורבורג 7, הרצלייה",אוטו ורבורג 7,6546-678-2,,4.0,שניה,103.04,1024000,,,1979.0,,4.0,7626573200,1,6546678,False,,הרצלייה,ורבורג אוטו,,6546-678-2,6546/678,9937.888198757764,32.1564377737,34.8438258071,2003
2003-05-25,2003-05-25,"פינסקר 2, הרצלייה",פינסקר 2,6529-121-9,,4.0,רביעית,91.0,926000,,,1988.0,,4.0,7626575124,1,6529121,False,,הרצלייה,פינסקר,,6529-121-9,6529/121,10175.824175824177,32.1669863672,34.8387242153,2003
2003-05-25,2003-05-25,"שמחה הולצברג 8, הרצלייה",שמחה הולצברג 8,6545-60-4,,5.0,,125.0,2576000,,,2002.0,,,7626480996,1,654560,False,,הרצלייה,הולצברג שמחה,,6545-60-4,6545/60,20608.0,32.1527408328,34.8470451996,2003
2003-05-25,2003-05-25,"התנאים 1, הרצלייה",התנאים 1,6546-772-25,,4.0,שביעית,119.0,1175000,,,1985.0,,9.0,7627355898,1,6546772,False,,הרצלייה,התנאים,,6546-772-25,6546/772,9873.949579831931,32.1529614485,34.8408514756,2003
2003-05-25,2003-05-25,"אברהם שטרן 9, הרצלייה",אברהם שטרן 9,6546-617-33,,6.0,תשיעית,143.0,2182000,,,1970.0,,9.0,7626485880,1,6546617,False,,הרצלייה,שטרן אברהם,,6546-617-33,6546/617,15258.741258741258,32.1541447386,34.8398054402,2003
2003-05-25,2003-05-25,"סוקולוב 13, הרצלייה",סוקולוב 13,6529-199-39,,3.0,רביעית,63.0,598000,,,1970.0,,9.0,7626572608,1,6529199,False,,הרצלייה,סוקולוב,,6529-199-39,6529/199,9492.063492063491,32.1674184497,34.839982847,2003
2003-05-23,2003-05-23,"צמרות 10, הרצלייה",צמרות 10,6545-38-264,דירה בבית קומות,4.0,תשיעית,121.1,1700000,,,2000.0,,29.0,7628050092,1,654538,False,,הרצלייה,צמרות,,6545-38-264,6545/38,14037.985136251033,32.1514074582,34.8458200181,2003
2003-05-23,2003-05-23,"רבי עקיבא 57, הרצלייה",רבי עקיבא 57,6543-55-12,,4.0,שלישית,103.63,1209000,,,1999.0,,4.0,7627184884,1,654355,False,7% ב 3.1 שנים,הרצלייה,רבי עקיבא,2.26,6543-55-12,6543/55,11666.505838077775,32.1540538586,34.8502122065,2003
2003-05-22,2003-05-22,"גורדון א ד 26, הרצלייה",גורדון א ד 26,6546-207-2,,4.0,ראשונה,72.9,910000,,,1970.0,,2.0,7626294812,1,6546207,False,,הרצלייה,גורדון א ד,,6546-207-2,6546/207,12482.853223593964,32.1574967365,34.844033358,2003
2003-05-21,2003-05-21,"הנדיב 9, הרצלייה",הנדיב 9,6529-244-28,דירה בבית קומות,4.0,שניה,89.31,1075000,,,1995.0,,16.0,7626700850,1,6529244,False,,הרצלייה,הנדיב,,6529-244-28,6529/244,12036.726010525135,32.1679584212,34.8400344017,2003
2003-05-21,2003-05-21,"הקרן הקיימת 3, הרצלייה",הקרן הקיימת 3,6539-120-7,,3.0,שניה,98.0,778000,,,1970.0,,4.0,7626410252,1,6539120,False,,הרצלייה,הקרן הקימת,,6539-120-7,6539/120,7938.775510204082,32.1603402396,34.8463920706,2003
2003-05-21,2003-05-21,"יל""ג 11, הרצלייה","יל""ג 11",6530-160-11,,3.0,ראשונה,68.0,894000,,,1990.0,,4.0,7627034738,1,6530160,False,,הרצלייה,"יל""ג",,6530-160-11,6530/160,13147.058823529413,32.1688205254,34.843682335,2003
2003-05-20,2003-05-20,"צמרות 2, הרצלייה",צמרות 2,6546-858-0,,4.0,שלוש עשרה,90.0,1807000,,,1998.0,,17.0,7626741698,1,6546858,False,,הרצלייה,צמרות,,6546-858-0,6546/858,20077.777777777777,32.1515729734,34.8431441388,2003
2003-05-20,2003-05-20,"אברהם שטרן 9, הרצלייה",אברהם שטרן 9,6546-617-8,,4.0,שניה,97.0,1107000,,,1970.0,,9.0,7626452876,1,6546617,False,,הרצלייה,שטרן אברהם,,6546-617-8,6546/617,11412.37113402062,32.1541447386,34.8398054402,2003
2003-05-19,2003-05-19,"צמרות 6, הרצלייה",צמרות 6,6546-860-5,,6.0,ראשונה,143.0,1346000,,,1995.0,,18.0,7626013390,1,6546860,False,,הרצלייה,צמרות,,6546-860-5,6546/860,9412.587412587412,32.1515422074,34.8446436986,2003
2003-05-19,2003-05-19,"צמרות 10, הרצלייה",צמרות 10,6545-38-73,,5.0,שמונה עשר,176.5,3840000,,,2000.0,,29.0,7626290520,1,654538,False,,הרצלייה,צמרות,,6545-38-73,6545/38,21756.373937677054,32.1514074582,34.8458200181,2003
2003-05-19,2003-05-19,"זלמן שניאור 15, הרצלייה",זלמן שניאור 15,6526-296-4,דירה בבית קומות,4.0,ראשונה,101.8,1266000,,,2004.0,,3.0,7627151362,1,6526296,False,,הרצלייה,שניאור זלמן,,6526-296-4,6526/296,12436.14931237721,32.1725107119,34.8374712142,2003
2003-05-19,2003-05-19,"חנה סנש 25, הרצלייה",חנה סנש 25,6424-151-20,,5.0,שביעית,135.66,1810000,,,1998.0,,7.0,7626841154,1,6424151,False,,הרצלייה,סנש חנה,,6424-151-20,6424/151,13342.1789768539,32.1586925243,34.8389299183,2003
2003-05-18,2003-05-18,"כצנלסון 23, הרצלייה",כצנלסון 23,6558-829-48,דירה בבית קומות,3.0,ראשונה,77.7,740000,,,1998.0,,7.0,7627799084,1,6558829,False,,הרצלייה,כצנלסון,,6558-829-48,6558/829,9523.809523809525,32.1684545137,34.8572096463,2003
2003-05-18,2003-05-18,"כינרת 2, הרצלייה",כינרת 2,6536-302-1,,3.0,ראשונה,75.0,1705000,,,1970.0,,1.0,7627109182,1,6536302,False,,הרצלייה,כנרת,,6536-302-1,6536/302,22733.33333333333,32.1710585082,34.8456130191,2003
2003-05-18,2003-05-18,"הס 38, הרצלייה",הס 38,6538-331-2,,3.0,ראשונה,67.3,677000,,,1970.0,,3.0,7626278976,1,6538331,False,,הרצלייה,הס,,6538-331-2,6538/331,10059.435364041605,32.1638040085,34.8413996719,2003
2003-05-15,2003-05-15,"האשל 112, הרצלייה",האשל 112,6668-402-1,,6.0,ראשונה,240.0,5835000,,,1970.0,,1.0,7626761234,1,6668402,False,,הרצלייה,האשל,,6668-402-1,6668/402,24312.5,32.1779994342,34.8074872095,2003
2003-05-13,2003-05-13,"הגליל 10, הרצלייה",הגליל 10,6531-52-25,,4.0,שניה,100.0,466000,,,1965.0,,3.0,7626408920,1,653152,False,,הרצלייה,הגליל,,6531-52-25,6531/52,4660.0,32.1660671769,34.8437224252,2003
2003-05-12,2003-12-05,"סוקולוב 78, הרצלייה",סוקולוב 78,6537-207-47,,4.0,תשיעית,85.0,792000,,,1970.0,,19.0,7696325230,1,6537207,False,,הרצלייה,סוקולוב,,6537-207-47,6537/207,9317.64705882353,32.1668987349,34.8497162102,2003
2003-05-11,2003-11-05,"כ""ט בנובמבר 1, הרצלייה","כ""ט בנובמבר 1",6530-133-5,,3.0,ראשונה,48.99,680000,,,1960.0,,2.0,7632894946,1,6530133,False,,הרצלייה,"כ""ט בנובמבר",,6530-133-5,6530/133,13880.383751786076,32.1705939457,34.842203091,2003
2003-05-11,2003-11-05,"אחד העם 25, הרצלייה",אחד העם 25,6532-65-5,,3.0,שניה,69.79,672000,,,1970.0,,3.0,7632352230,1,653265,False,,הרצלייה,אחד העם,,6532-65-5,6532/65,9628.886659979938,32.1661501531,34.8462347919,2003
2003-05-11,2003-11-05,"בר-כוכבא 115, הרצלייה",בר-כוכבא 115,6546-782-17,,4.0,חמישית,85.28,880000,,,1985.0,,8.0,7632101814,1,6546782,True,-2% ב 4.9 שנים,הרצלייה,בר כוכבא,-0.41,6546-782-17,6546/782,10318.949343339587,32.1580480614,34.8406556545,2003
2003-05-11,2003-11-05,"ראש פינה 9, הרצלייה",ראש פינה 9,6532-341-5,,3.0,שלישית,68.84,864000,,,1993.0,,4.0,7632339354,1,6532341,False,,הרצלייה,ראש פינה,,6532-341-5,6532/341,12550.842533410809,32.1656232516,34.8465373468,2003
2003-05-09,2003-09-05,"רביבים 43, הרצלייה",רביבים 43,6577-44-3,,3.0,קרקע,48.35,355000,,,1960.0,,2.0,7630513774,1,657744,False,,הרצלייה,רביבים,,6577-44-3,6577/44,7342.295760082729,32.1741114826,34.852466461,2003
2003-05-09,2003-09-05,"הלבנה 14, הרצלייה",הלבנה 14,6669-671-1,,7.0,"מרתף, קרקע, ראשונה",325.66,5525000,,,2001.0,,,7631032810,1,6669671,False,,הרצלייה,הליבנה,,6669-671-1,6669/671,16965.546889393845,32.182946664,34.8137943329,2003
2003-05-08,2003-08-05,"הזוהר 2, הרצלייה",הזוהר 2,6540-33-3,,6.0,מרתף+קרקע+ראשונה+שני,245.38,2050000,,,2003.0,,,7629486432,1,654033,False,,הרצלייה,הזוהר,,6540-33-3,6540/33,8354.389110766973,32.1622628918,34.8515403578,2003
2003-05-08,2003-08-05,"דוד אלרואי 32, הרצלייה",דוד אלרואי 32,6424-155-10,דירה בבית קומות,5.0,שלישית,109.72,1281000,,,2002.0,,15.0,7630237976,1,6424155,False,,הרצלייה,אלרואי דוד,,6424-155-10,6424/155,11675.173168064164,32.1587407952,34.8382406092,2003
2003-05-06,2003-06-05,"המעלות 5, הרצלייה",המעלות 5,6520-30-10,,3.0,ראשונה,79.1,1019000,,,1970.0,,2.0,7627240606,1,652030,False,,הרצלייה,המעלות,,6520-30-10,6520/30,12882.42730720607,32.1713058771,34.8163609189,2003
2003-05-06,2003-06-05,"הדר 58, הרצלייה",הדר 58,6536-924-60,דירה בבית קומות,5.0,שביעית,125.0,1474000,,,2002.0,,8.0,7627571386,1,6536924,False,,הרצלייה,הדר,,6536-924-60,6536/924,11792.0,32.1745460062,34.848997561,2003
2003-05-05,2003-05-05,"דן 12, הרצלייה",דן 12,6525-179-4,,6.0,קרקע+ראשונה,136.0,1344000,,,1970.0,,,7625956632,1,6525179,False,,הרצלייה,דן,,6525-179-4,6525/179,9882.35294117647,32.1702686777,34.8330296932,2003
2003-05-05,2003-05-05,"הנדיב 59, הרצלייה",הנדיב 59,6527-308-26,,3.0,שלישית,54.2,562000,,,1970.0,,4.0,7626125648,1,6527308,False,,הרצלייה,הנדיב,,6527-308-26,6527/308,10369.0036900369,32.1701482735,34.8342689393,2003
2003-05-05,2003-05-05,"אבא אבן 23, הרצלייה",אבא אבן 23,6419-53-2,,4.0,קרקע,91.0,1433000,,,1970.0,,3.0,7626900354,1,641953,False,,הרצלייה,אבא אבן,,6419-53-2,6419/53,15747.252747252747,32.1640161787,34.8047617843,2003
2003-05-05,2003-05-05,"יציאת אירופה 60, הרצלייה",יציאת אירופה 60,6558-607-4,,5.0,ראשונה,125.0,1156000,,,1960.0,,1.0,7626220220,1,6558607,False,,הרצלייה,יציאת אירופה,,6558-607-4,6558/607,9248.0,32.1703289887,34.8622745184,2003
2003-05-03,2003-03-05,"אנפה 12, הרצלייה",אנפה 12,6540-83-15,,4.0,שנייה,112.2,1078000,,,1990.0,,4.0,7624288080,1,654083,False,,הרצלייה,אנפה,,6540-83-15,6540/83,9607.843137254902,32.164101333,34.8495011666,2003
2003-05-02,2003-02-05,"בר-כוכבא 3, הרצלייה",בר-כוכבא 3,6538-409-9,,3.0,שניה,61.5,625000,,,1965.0,,4.0,7623585968,1,6538409,True,-1% ב 1 שנים,הרצלייה,בר כוכבא,-1.0,6538-409-9,6538/409,10162.60162601626,32.1613511471,34.8374352112,2003
2003-05-01,2003-01-05,"הנשיא יצחק בן-צבי 184, הרצלייה",הנשיא יצחק בן-צבי 184,6517-322-0,,6.0,ראשונה,1000.0,2510000,,,1970.0,,2.0,7622228734,1,6517322,False,,הרצלייה,הנשיא יצחק בן צבי,,6517-322-0,6517/322,2510.0,32.1693701079,34.8060653452,2003
2003-04-30,2003-04-30,"הנשיא יצחק בן-צבי 123, הרצלייה",הנשיא יצחק בן-צבי 123,6667-348-2,דירה בבית קומות,7.0,ראשונה,160.0,3030000,,,2003.0,,1.0,7627059158,1,6667348,False,,הרצלייה,הנשיא יצחק בן צבי,,6667-348-2,6667/348,18937.5,32.1738296476,34.8089049542,2003
2003-04-28,2003-04-28,"מנחם בן-סרוק 14, הרצלייה",מנחם בן-סרוק 14,6527-371-9,,4.0,ראשונה,72.5,571000,,,1970.0,,4.0,7626135490,1,6527371,False,,הרצלייה,בן סרוק מנחם,,6527-371-9,6527/371,7875.862068965517,32.1647667514,34.8327716085,2003
2003-04-28,2003-04-28,"השרון 14, הרצלייה",השרון 14,6533-44-5,,2.0,שניה,65.7,605000,,,1970.0,,5.0,7625852144,1,653344,False,,הרצלייה,השרון,,6533-44-5,6533/44,9208.523592085236,32.165319831,34.8392461885,2003
2003-04-28,2003-04-28,"צמרות 10, הרצלייה",צמרות 10,6545-38-237,דירה בבית קומות,4.5,שלישית,121.1,1750000,,,2000.0,,29.0,7626417578,1,654538,False,,הרצלייה,צמרות,,6545-38-237,6545/38,14450.867052023124,32.1514074582,34.8458200181,2003
2003-04-27,2003-04-27,"פורצי הדרך 39, הרצלייה",פורצי הדרך 39,6560-90-3,,3.0,ראשונה,69.58,744000,,,2000.0,,1.0,7625857620,1,656090,False,,הרצלייה,פורצי הדרך,,6560-90-3,6560/90,10692.72779534349,32.1620251153,34.863473545,2003
2003-04-27,2003-04-27,"פינס 1, הרצלייה",פינס 1,6546-656-1,,5.0,ראשונה,119.25,1191000,,,1980.0,,6.0,7625901132,1,6546656,False,,הרצלייה,פינס,,6546-656-1,6546/656,9987.4213836478,32.1555953921,34.8432821098,2003
2003-04-24,2003-04-24,"יצחק שדה 32, הרצלייה",יצחק שדה 32,6558-238-3,,3.0,ראשונה,30.0,2537000,,,1950.0,,1.0,7626346094,1,6558238,False,,הרצלייה,יצחק שדה,,6558-238-3,6558/238,84566.66666666667,32.1645992098,34.8580124201,2003
2003-04-24,2003-04-24,"הנשיא יצחק בן-צבי 123, הרצלייה",הנשיא יצחק בן-צבי 123,6667-348-1,דירה בבית קומות,6.0,,150.0,7213000,,,2003.0,,1.0,7626742290,1,6667348,False,,הרצלייה,הנשיא יצחק בן צבי,,6667-348-1,6667/348,48086.66666666666,32.1738296476,34.8089049542,2003
2003-04-21,2003-04-21,"שטורמן 10, הרצלייה",שטורמן 10,6536-816-1,,6.0,מרתף+קרקע+ראשונה+שני,154.6,1888000,,,1984.0,,,7625794128,1,6536816,False,,הרצלייה,שטורמן,,6536-816-1,6536/816,12212.16041397154,32.1729100616,34.847396092,2003
2003-04-21,2003-04-21,"שפיק עדס 2, הרצלייה",שפיק עדס 2,6529-67-8,דירה בבית קומות,3.0,ראשונה,75.0,824000,,,1957.0,,1.0,7625864354,1,652967,False,,הרצלייה,עדס,,6529-67-8,6529/67,10986.666666666666,32.1686477221,34.8371479581,2003
2003-04-20,2003-04-20,"דוד אלרואי 32, הרצלייה",דוד אלרואי 32,6424-155-33,דירה בבית קומות,4.0,שמינית,95.57,1190000,,,2002.0,,15.0,7626562174,1,6424155,False,,הרצלייה,אלרואי דוד,,6424-155-33,6424/155,12451.606152558335,32.1587407952,34.8382406092,2003
2003-04-20,2003-04-20,"גיל 73, הרצלייה",גיל 73,6557-129-2,דירה בבית קומות,2.0,ראשונה,46.0,1373000,,,1955.0,,1.0,7626195282,1,6557129,False,,הרצלייה,גיל,,6557-129-2,6557/129,29847.82608695652,32.1597561038,34.863070095,2003
2003-04-15,2003-04-15,"תל חי 47, הרצלייה",תל חי 47,6536-450-7,,6.0,ראשונה,130.0,2014000,,,1980.0,,1.0,7625792426,1,6536450,False,,הרצלייה,תל חי,,6536-450-7,6536/450,15492.307692307691,32.1736304523,34.8455945215,2003
2003-04-15,2003-04-15,"דרור 6, הרצלייה",דרור 6,6536-384-3,,5.0,"מרתף,קרקע,ראשונה",156.58,1526000,,,1980.0,,,7625661076,1,6536384,False,,הרצלייה,דרור,,6536-384-3,6536/384,9745.816834844809,32.1730017689,34.8442487103,2003
2003-04-15,2003-04-15,"נתן אלתרמן 21, הרצלייה",נתן אלתרמן 21,6526-291-28,דירה בבית קומות,5.0,שלישית,111.6,1442000,,,2002.0,,6.0,7626184330,1,6526291,False,,הרצלייה,אלתרמן נתן,,6526-291-28,6526/291,12921.14695340502,32.1741042103,34.8380769688,2003
2003-04-15,2003-04-15,"המגינים 17, הרצלייה",המגינים 17,6666-680-1,קוטג' חד משפחתי,5.0,קרקע,112.27,2403000,,,1962.0,,,7626396192,1,6666680,False,,הרצלייה,המגינים,,6666-680-1,6666/680,21403.758795760223,32.1723345463,34.8115844656,2003
2003-04-15,2003-04-15,"שמואל הנגיד 12, הרצלייה",שמואל הנגיד 12,6527-300-16,,,ראשונה,61.8,693000,,,2019.0,,3.0,7626143408,1,6527300,False,8% ב 4.3 שנים,הרצלייה,שמואל הנגיד,1.86,6527-300-16,6527/300,11213.59223300971,32.1665306322,34.8346857686,2003
2003-04-15,2003-04-15,"שמחה הולצברג 7, הרצלייה",שמחה הולצברג 7,6545-61-1,,6.0,ראשונה,150.0,2518000,,,2002.0,,,7625929104,1,654561,False,,הרצלייה,הולצברג שמחה,,6545-61-1,6545/61,16786.666666666668,32.1524037314,34.8470985313,2003
2003-04-14,2003-04-14,"בני בנימין 13, הרצלייה",בני בנימין 13,6528-54-8,,3.5,שניה,77.75,771000,,,2022.0,,3.0,7626229396,1,652854,False,,הרצלייה,בני בנימין,,6528-54-8,6528/54,9916.398713826367,32.1714455408,34.8395929708,2003
2003-04-14,2003-04-14,"הר נבו 27, הרצלייה",הר נבו 27,6577-115-1,,2.0,ראשונה,40.8,440000,,,1960.0,,2.0,7626068446,1,6577115,False,,הרצלייה,הר נבו,,6577-115-1,6577/115,10784.313725490198,32.175204705,34.8553223309,2003
2003-04-14,2003-04-14,"התדהר 13, הרצלייה",התדהר 13,6536-108-2,,5.0,,125.0,1230000,,,1994.0,,,7626171380,1,6536108,False,,הרצלייה,התדהר,,6536-108-2,6536/108,9840.0,32.1764509725,34.8456063097,2003
2003-04-13,2003-04-13,"מרזוק 12, הרצלייה",מרזוק 12,6577-209-18,,3.0,ראשונה,66.3,395000,,,1960.0,,4.0,7626665404,1,6577209,False,,הרצלייה,מרזוק,,6577-209-18,6577/209,5957.767722473605,32.1775244001,34.8522761629,2003
2003-04-13,2003-04-13,"אחד העם 1, הרצלייה",אחד העם 1,6536-546-9,,4.0,שלישית,88.0,875000,,,1970.0,,4.0,7625751504,1,6536546,False,,הרצלייה,אחד העם,,6536-546-9,6536/546,9943.181818181818,32.1706714488,34.8464230581,2003
2003-04-12,2003-12-04,"שז""ר 11, הרצלייה","שז""ר 11",6668-1253-1,,5.0,ראשונה,151.0,2509000,,,1971.0,,1.0,7633813212,1,66681253,False,,הרצלייה,"שז""ר",,6668-1253-1,6668/1253,16615.8940397351,32.1725395147,34.8052905515,2003
2003-04-12,2003-12-04,"צמרות 10, הרצלייה",צמרות 10,6545-38-270,דירה בבית קומות,5.0,עשירית,146.4,2220000,,,2000.0,,29.0,7633472368,1,654538,False,,הרצלייה,צמרות,,6545-38-270,6545/38,15163.934426229507,32.1514074582,34.8458200181,2003
2003-04-11,2003-11-04,"אברהם שטרן 6, הרצלייה",אברהם שטרן 6,6546-843-16,,2.0,שלישית,49.32,465000,,,1967.0,,4.0,7633778284,1,6546843,False,,הרצלייה,שטרן אברהם,,6546-843-16,6546/843,9428.223844282238,32.1545225939,34.8411788962,2003
2003-04-11,2003-11-04,"ביל""ו 52, הרצלייה","ביל""ו 52",6546-695-1,,5.0,ראשונה,118.11,1074000,,,1985.0,,3.0,7633357668,1,6546695,False,,הרצלייה,"ביל""ו",,6546-695-1,6546/695,9093.218186436374,32.1549618964,34.8452716289,2003
2003-04-09,2003-09-04,"האדמית 4, הרצלייה",האדמית 4,6544-65-15,,6.0,חמישית+קרקע,161.9,2131000,,,1989.0,,,7630640240,1,654465,False,,הרצלייה,האדומית,,6544-65-15,6544/65,13162.445954292773,32.1530134202,34.8489552612,2003
2003-04-08,2003-08-04,"אסירי ציון 1, הרצלייה",אסירי ציון 1,6672-183-2,,6.0,ראשונה,200.0,1562000,,,1980.0,,1.0,7629849624,1,6672183,False,,הרצלייה,אסירי ציון,,6672-183-2,6672/183,7810.0,32.1837137938,34.8354215241,2003
2003-04-08,2003-08-04,"שמעון זאב לוין 28, הרצלייה",שמעון זאב לוין 28,6534-184-21,,4.0,שביעית,102.06,1071000,,,1992.0,,8.0,7629181256,1,6534184,False,,הרצלייה,לוין שמעון זאב,,6534-184-21,6534/184,10493.827160493827,32.1651095782,34.8375406234,2003
2003-04-08,2003-08-04,"לוטוס 4, הרצלייה",לוטוס 4,6544-42-2,,5.0,"מרתף,קרקע,ראשונה",185.6,1919000,,,1980.0,,,7629448618,1,654442,False,,הרצלייה,לוטוס,,6544-42-2,6544/42,10339.439655172417,32.1517379108,34.8497630494,2003
2003-04-06,2003-06-04,"חנה סנש 1, הרצלייה",חנה סנש 1,6546-888-1,,4.0,ראשונה,103.0,970000,,,2000.0,,3.0,7628141704,1,6546888,False,37% ב 2 שנים,הרצלייה,סנש חנה,18.5,6546-888-1,6546/888,9417.47572815534,32.1583350692,34.8421317594,2003
2003-04-05,2003-05-04,"מלכי ישראל 3, הרצלייה",מלכי ישראל 3,6528-38-6,,4.0,שלישית,78.01,851000,,,1970.0,,3.0,7626579342,1,652838,False,,הרצלייה,מלכי ישראל,,6528-38-6,6528/38,10908.857838738622,32.1705823946,34.8407928268,2003
2003-04-05,2003-05-04,"יהושע בן נון 32, הרצלייה",יהושע בן נון 32,6419-39-1,,3.0,קרקע,41.0,1884000,,,1954.0,,,7626042102,1,641939,False,,הרצלייה,יהושע בן נון,,6419-39-1,6419/39,45951.21951219512,32.1653810331,34.8050272949,2003
2003-04-03,2003-03-04,"יצחק טבנקין 7, הרצלייה",יצחק טבנקין 7,6546-703-7,,5.0,שניה,125.0,920000,,,1998.0,,3.0,7624217262,1,6546703,False,,הרצלייה,טבנקין יצחק,,6546-703-7,6546/703,7360.0,32.1561028708,34.8428237308,2003
2003-03-30,2003-03-30,"חוני המעגל 2, הרצלייה",חוני המעגל 2,6558-660-6,,3.0,ראשונה,31.5,635000,,,1955.0,,2.0,7625399264,1,6558660,False,296% ב 4 שנים,הרצלייה,חוני המעגל,74.0,6558-660-6,6558/660,20158.73015873016,32.1670220219,34.8562111898,2003
2003-03-26,2003-03-26,"שוחט ישראל 9, הרצלייה",שוחט ישראל 9,6558-260-2,,2.0,ראשונה,23.75,1024000,,,1950.0,,1.0,7624982866,1,6558260,False,,הרצלייה,שוחט ישראל,,6558-260-2,6558/260,43115.78947368421,32.1652466259,34.857738185,2003
2003-03-25,2003-03-25,"נתן אלתרמן 15, הרצלייה",נתן אלתרמן 15,6526-292-7,דירה בבית קומות,5.0,שניה,137.4,1938000,,,2003.0,,3.0,7625177634,1,6526292,False,,הרצלייה,אלתרמן נתן,,6526-292-7,6526/292,14104.80349344978,32.174049809,34.8385884388,2003
2003-03-25,2003-03-25,"בן-גוריון 117, הרצלייה",בן-גוריון 117,6546-469-4,,2.0,ראשונה,35.9,590000,,,1960.0,,3.0,7625383280,1,6546469,False,6% ב 0.3 שנים,הרצלייה,בן גוריון,20.0,6546-469-4,6546/469,16434.540389972146,32.152828726,34.842663752,2003
2003-03-24,2003-03-24,"התבור 21, הרצלייה",התבור 21,6424-89-1,,4.0,ראשונה,85.0,1604000,,,1950.0,,1.0,7625187254,1,642489,False,,הרצלייה,התבור,,6424-89-1,6424/89,18870.58823529412,32.1608064761,34.8386603974,2003
2003-03-24,2003-03-24,"פורצי הדרך 67, הרצלייה",פורצי הדרך 67,6558-809-4,,4.0,ראשונה,93.4,1344000,,,1990.0,,1.0,7624872976,1,6558809,False,,הרצלייה,פורצי הדרך,,6558-809-4,6558/809,14389.721627408991,32.164513969,34.8623320721,2003
2003-03-24,2003-03-24,"אלוף אלון יגאל 31, הרצלייה",אלוף אלון יגאל 31,6536-504-3,,4.0,שניה,84.0,891000,,,1970.0,,3.0,7624825912,1,6536504,False,,הרצלייה,אלוף אלון יגאל,,6536-504-3,6536/504,10607.142857142857,32.1689237775,34.8491477504,2003
2003-03-24,2003-03-24,"דובדבן 10, הרצלייה",דובדבן 10,6558-802-11,,3.0,שניה,65.9,754000,,,1993.0,,2.0,7624874160,1,6558802,False,,הרצלייה,דובדבן,,6558-802-11,6558/802,11441.578148710169,32.1658236476,34.8630198702,2003
2003-03-23,2003-03-23,"בן-גוריון 119, הרצלייה",בן-גוריון 119,6546-470-16,,1.0,שלישית,35.9,450000,,,1962.0,,3.0,7624899764,1,6546470,False,,הרצלייה,בן גוריון,,6546-470-16,6546/470,12534.818941504178,32.1525997068,34.8426382435,2003
2003-03-21,2003-03-21,"העצמאות 28, הרצלייה",העצמאות 28,6538-487-5,,4.0,שלישית,79.21,906000,,,1980.0,,5.0,7626243530,1,6538487,False,18% ב 4 שנים,הרצלייה,העצמאות,4.5,6538-487-5,6538/487,11437.949753818964,32.1639997523,34.8402624544,2003
2003-03-20,2003-03-20,"מדינת היהודים 2, הרצלייה",מדינת היהודים 2,6517-413-22,,4.0,שלישית,100.0,5225000,,,1998.0,,7.0,7624736816,1,6517413,False,,הרצלייה,מדינת היהודים,,6517-413-22,6517/413,52250.0,32.1682546563,34.8008163755,2003
2003-03-20,2003-03-20,"משה סנה 3, הרצלייה",משה סנה 3,6540-92-35,,5.0,שניה+גג,119.1,1214000,,,1995.0,,1.0,7625924886,1,654092,False,,הרצלייה,סנה משה,,6540-92-35,6540/92,10193.11502938707,32.1614476183,34.85196571,2003
2003-03-20,2003-03-20,"שמואל הנגיד 8, הרצלייה",שמואל הנגיד 8,6534-141-10,דירה בבית קומות,4.0,שלישית,100.0,1556000,,,2003.0,,3.0,7625357602,1,6534141,False,,הרצלייה,שמואל הנגיד,,6534-141-10,6534/141,15560.0,32.1660116415,34.8352670602,2003
2003-03-19,2003-03-19,"חבצלת השרון 68, הרצלייה",חבצלת השרון 68,6668-908-1,,9.0,ראשונה,492.0,14519000,,,1990.0,,1.0,7625550594,1,6668908,False,,הרצלייה,חבצלת השרון,,6668-908-1,6668/908,29510.162601626016,32.1763834328,34.8031403595,2003
2003-03-19,2003-03-19,"האשל 69, הרצלייה",האשל 69,6669-92-2,,6.0,"מרתף,קרקע,ראשונה",273.77,3367000,,,1994.0,,1.0,7625623262,1,666992,False,8% ב 4.3 שנים,הרצלייה,האשל,1.86,6669-92-2,6669/92,12298.644847864996,32.1829714941,34.8101226491,2003
2003-03-19,2003-03-19,"הרב מרדכי הלפרין 1, הרצלייה",הרב מרדכי הלפרין 1,6533-172-8,,2.0,,50.0,553000,,,1960.0,,1.0,7624771004,1,6533172,False,,הרצלייה,הרב הלפרין מרדכי,,6533-172-8,6533/172,11060.0,32.1656891413,34.8405507679,2003
2003-03-19,2003-03-19,"ההגנה 55, הרצלייה",ההגנה 55,6536-845-24,,5.0,שישית,113.1,1201000,,,1982.0,,7.0,7624750136,1,6536845,False,,הרצלייה,ההגנה,,6536-845-24,6536/845,10618.921308576482,32.1727406712,34.8498717156,2003
2003-03-18,2003-03-18,"המרגנית 4, הרצלייה",המרגנית 4,6667-50-2,,6.0,,150.0,5050000,,,1990.0,,1.0,7624976132,1,666750,False,,הרצלייה,המרגנית,,6667-50-2,6667/50,33666.666666666664,32.1807923911,34.814899267,2003
2003-03-18,2003-03-18,"הבשן 4, הרצלייה",הבשן 4,6577-169-3,,2.0,ראשונה,44.4,375000,,,1960.0,,4.0,7624625002,1,6577169,False,,הרצלייה,הבשן,,6577-169-3,6577/169,8445.945945945947,32.1763317895,34.8533615226,2003
2003-03-14,2003-03-14,"אבטליון 4, הרצלייה",אבטליון 4,6527-288-27,,4.0,שלישית,70.0,737000,,,2023.0,,6.0,7624829612,1,6527288,False,,הרצלייה,אבטליון,,6527-288-27,6527/288,10528.57142857143,32.1676655959,34.8348866888,2003
2003-03-14,2003-03-14,"הנוטרים 1, הרצלייה",הנוטרים 1,6537-205-5,,4.0,שלישית,89.5,943000,,,1977.0,,3.0,7624700778,1,6537205,False,,הרצלייה,הנוטרים,,6537-205-5,6537/205,10536.312849162012,32.1667935523,34.8517704457,2003
2003-03-14,2003-03-14,"אחד העם 42, הרצלייה",אחד העם 42,6532-76-2,,2.0,ראשונה,48.0,599000,,,1960.0,,3.0,7624618860,1,653276,False,,הרצלייה,אחד העם,,6532-76-2,6532/76,12479.166666666666,32.1652773395,34.8457909865,2003
2003-03-13,2003-03-13,"צמרות 10, הרצלייה",צמרות 10,6545-38-39,,4.0,תשיעית,118.0,1531000,,,2000.0,,29.0,7629791608,1,654538,False,,הרצלייה,צמרות,,6545-38-39,6545/38,12974.57627118644,32.1514074582,34.8458200181,2003
2003-03-13,2003-03-13,"העוגן 2, הרצלייה",העוגן 2,6516-56-134,,3.0,שביעית,75.0,3350000,,,2000.0,,12.0,7624679984,1,651656,False,,הרצלייה,העוגן,,6516-56-134,6516/56,44666.66666666666,32.15935782,34.795784469,2003
2003-03-13,2003-03-13,"זיסו 44, הרצלייה",זיסו 44,6577-159-27,דירה בבית קומות,5.0,רביעית,110.0,436000,,,1960.0,,4.0,7709542666,1,6577159,False,,הרצלייה,זיסו,,6577-159-27,6577/159,3963.636363636364,32.1769304852,34.8557012379,2003
2003-03-12,2003-12-03,"העצמאות 22, הרצלייה",העצמאות 22,6538-481-7,,4.0,שניה,84.0,884000,,,1970.0,,5.0,7633209964,1,6538481,False,,הרצלייה,העצמאות,,6538-481-7,6538/481,10523.809523809525,32.1635357552,34.839476989,2003
2003-03-12,2003-12-03,"הרב קוק 10, הרצלייה",הרב קוק 10,6538-206-4,,3.0,שניה,53.0,548000,,,1970.0,,3.0,7633208040,1,6538206,False,,הרצלייה,הרב קוק,,6538-206-4,6538/206,10339.622641509432,32.1614817893,34.8414832747,2003
2003-03-12,2003-12-03,"הקדמה 62, הרצלייה",הקדמה 62,6668-304-4,,6.0,ראשונה,190.0,3372000,,,1980.0,,1.0,7633891874,1,6668304,False,,הרצלייה,הקדמה,,6668-304-4,6668/304,17747.36842105263,32.1819206358,34.8103996455,2003
2003-03-11,2003-11-03,"צמרות 10, הרצלייה",צמרות 10,6545-38-276,דירה בבית קומות,4.5,שתים עשרה,121.1,2000000,,,2000.0,,29.0,7632289774,1,654538,False,,הרצלייה,צמרות,,6545-38-276,6545/38,16515.276630883567,32.1514074582,34.8458200181,2003
2003-03-11,2003-11-03,"העוגן 2, הרצלייה",העוגן 2,6516-56-131,דירה בבית קומות,5.0,שלוש עשרה,125.0,2979000,,,2000.0,,12.0,7633160606,1,651656,False,,הרצלייה,העוגן,,6516-56-131,6516/56,23832.0,32.15935782,34.795784469,2003
2003-03-11,2003-11-03,"זלמן שניאור 36, הרצלייה",זלמן שניאור 36,6526-179-3,,4.0,קרקע+ראשונה,95.5,1079000,,,1995.0,,3.0,7632063408,1,6526179,False,,הרצלייה,שניאור זלמן,,6526-179-3,6526/179,11298.429319371728,32.1735942109,34.8390921221,2003
2003-03-10,2003-10-03,"שלווה 15, הרצלייה",שלווה 15,6667-460-1,,6.0,קרקע+ראשונה,144.27,2698000,,,1975.0,,,7632168340,1,6667460,False,,הרצלייה,שלוה,,6667-460-1,6667/460,18701.0466486449,32.1779507311,34.8133561516,2003
2003-03-09,2003-09-03,"העצמאות 10, הרצלייה",העצמאות 10,6538-574-4,,4.0,שניה,90.0,840000,,,1970.0,,3.0,7631619038,1,6538574,False,,הרצלייה,העצמאות,,6538-574-4,6538/574,9333.333333333334,32.1628895106,34.838638638,2003
2003-03-08,2003-08-03,"בן סרוק מנחם 20, הרצלייה",בן סרוק מנחם 20,6527-398-2,,2.0,ראשונה,49.4,496000,,,1979.0,,4.0,7629318674,1,6527398,False,,הרצלייה,בן סרוק מנחם,,6527-398-2,6527/398,10040.485829959514,32.1653489036,34.8332756181,2003
2003-03-08,2003-08-03,"ביל""ו 28, הרצלייה","ביל""ו 28",6546-837-13,,3.0,שלישית,72.7,211000,,,1960.0,,3.0,7630713500,1,6546837,False,,הרצלייה,"ביל""ו",,6546-837-13,6546/837,2902.338376891334,32.1550706166,34.8420555048,2003
2003-03-07,2003-07-03,"הס 2, הרצלייה",הס 2,6533-109-38,,3.0,תשיעית,75.43,588000,,,1960.0,,12.0,7632766704,1,6533109,False,,הרצלייה,הס,,6533-109-38,6533/109,7795.306907066153,32.1670170217,34.8406264958,2003
2003-03-07,2003-07-03,"המסילה 27, הרצלייה",המסילה 27,6520-66-2,דירה בבית קומות,4.0,שניה,128.02,1116000,,,1974.0,,4.0,7629443068,1,652066,False,32% ב 5.5 שנים,הרצלייה,המסילה,5.82,6520-66-2,6520/66,8717.387908139353,32.1698744409,34.8172831273,2003
2003-03-07,2003-07-03,"זיסו 16, הרצלייה",זיסו 16,6577-153-27,,3.0,רביעית,53.3,343000,,,1960.0,,4.0,7628177594,1,6577153,False,,הרצלייה,זיסו,,6577-153-27,6577/153,6435.272045028143,32.1768758961,34.8540330629,2003
2003-03-06,2003-06-03,"היסמין 7, הרצלייה",היסמין 7,6669-544-1,,5.0,,141.0,4305000,,,1963.0,,,7627021344,1,6669544,False,,הרצלייה,היסמין,,6669-544-1,6669/544,30531.91489361702,32.1819319631,34.8135911253,2003
2003-03-06,2003-06-03,"התנאים 1, הרצלייה",התנאים 1,6546-772-6,,4.0,שניה,120.0,1137000,,,1985.0,,9.0,7627017718,1,6546772,False,,הרצלייה,התנאים,,6546-772-6,6546/772,9475.0,32.1529614485,34.8408514756,2003
2003-03-04,2003-04-03,"חברון 4, הרצלייה",חברון 4,6531-91-5,,4.0,שלישית,89.0,970000,,,1996.0,,4.0,7625304618,1,653191,False,,הרצלייה,חברון,,6531-91-5,6531/91,10898.876404494382,32.165422953,34.8431421213,2003
2003-03-04,2003-04-03,"הרב קוק 95, הרצלייה",הרב קוק 95,6527-71-2,,5.0,"קרקע,שניה,גג",137.86,1399000,,,1985.0,,,7625642798,1,652771,False,,הרצלייה,הרב קוק,,6527-71-2,6527/71,10147.97620774699,32.1626112769,34.8300413921,2003
2003-03-04,2003-04-03,"החלוץ 24, הרצלייה",החלוץ 24,6536-622-2,,4.0,ראשונה,103.78,1054000,,,1982.0,,1.0,7625386314,1,6536622,False,,הרצלייה,החלוץ,,6536-622-2,6536/622,10156.099441125458,32.1701222979,34.8444719441,2003
2003-03-03,2003-03-03,"אלוף יגאל אלון 39, הרצלייה",אלוף יגאל אלון 39,6536-529-7,,4.0,שניה,67.5,841000,,,1973.0,,3.0,7624355938,1,6536529,False,,הרצלייה,אלוף אלון יגאל,,6536-529-7,6536/529,12459.25925925926,32.1691382479,34.850299467,2003
2003-03-03,2003-03-03,"בן גוריון 12, הרצלייה",בן גוריון 12,6533-143-6,,,קרקע,,184000,,,1965.0,,5.0,7624481664,1,6533143,False,,הרצלייה,בן גוריון,,6533-143-6,6533/143,,32.1650914687,34.8423471197,2003
2003-03-02,2003-02-03,"הנדיב 21, הרצלייה",הנדיב 21,6529-131-4,,3.0,קרקע,92.7,761000,,,1962.0,,2.0,7623237354,1,6529131,False,,הרצלייה,הנדיב,,6529-131-4,6529/131,8209.277238403452,32.169078547,34.8391273209,2003
2003-02-28,2003-02-28,"המעפילים 3, הרצלייה",המעפילים 3,6669-226-1,,4.0,,100.0,3607000,,,1990.0,,,7626023158,1,6669226,False,,הרצלייה,המעפילים,,6669-226-1,6669/226,36070.0,32.1832588181,34.8059211198,2003
2003-02-27,2003-02-27,"קדושי השואה 67, הרצלייה",קדושי השואה 67,6517-222-29,,2.0,גג,50.0,726000,,,1970.0,,5.0,7624338770,1,6517222,False,,הרצלייה,קדושי השואה,,6517-222-29,6517/222,14520.0,32.1702402555,34.8023634115,2003
