DEALDATE,DEALDATETIME,FULLADRESS,DISPLAYADRESS,GUSH,DEALNATUREDESCRIPTION,ASSETROOMNUM,FLOORNO,DEALNATURE,DEALAMOUNT,NEWPROJECTTEXT,PROJECTNAME,BUILDINGYEAR,YEARBUILT,BUILDINGFLOORS,KEYVALUE,TYPE,POLYGON_ID,TREND_IS_NEGATIVE,TREND_FORMAT,city_name,street,presentage per year,GUSH - Copy,Gush_Helka,Price per sqm,lat,lon,Year
2004-12-31,2004-12-31,"יוספטל 2, נתניה",יוספטל 2,8284-135-37,דירה בבית קומות,3.0,ראשונה,69.4,305000,,,1960.0,,4.0,7771424056,1,8284135,False,,נתניה,יוספטל,,8284-135-37,8284/135,4394.812680115273,32.3288812502,34.8672100616,2004
2004-12-31,2004-12-31,"דגניה 46, נתניה",דגניה 46,8006-48-16,דירה בבית קומות,4.0,רביעית,96.61,672000,,,2005.0,,10.0,7771573018,1,800648,False,,נתניה,דגניה,,8006-48-16,8006/48,6955.801676845047,32.3087475867,34.8743313393,2004
2004-12-31,2004-12-31,"ויצמן 24, נתניה",ויצמן 24,8267-971-14,חנות,,ביניים,36.2,560000,,,1994.0,,6.0,7772555960,1,8267971,False,,נתניה,ויצמן,,8267-971-14,8267/971,15469.613259668507,32.3311931027,34.8595828203,2004
2004-12-31,2004-12-31,"בן-צבי 64, נתניה",בן-צבי 64,7932-364-27,דירה בבית קומות,3.0,שלישית,58.77,298000,,,1980.0,,4.0,7771630960,1,7932364,False,,נתניה,בן צבי,,7932-364-27,7932/364,5070.614258975667,32.2976650602,34.8530623329,2004
2004-12-31,2004-12-31,"טום לנטוס 23, נתניה",טום לנטוס 23,9901-14-84,דירה בבית קומות,4.0,שביעית,93.2,679000,,,2006.0,,8.0,7770576682,1,990114,False,,נתניה,לנטוס טום,,9901-14-84,9901/14,7285.407725321888,32.3069942196,34.8701984907,2004
2004-12-30,2004-12-30,"ראשון לציון 4, נתניה",ראשון לציון 4,8263-38-9,דירה בבית קומות,4.0,שלישית,101.3,824000,,,1970.0,,9.0,7770265364,1,826338,False,,נתניה,ראשון לציון,,8263-38-9,8263/38,8134.254689042448,32.3293690176,34.8508758361,2004
2004-12-30,2004-12-30,"ז'בוטינסקי 24, נתניה",ז'בוטינסקי 24,8258-19-9,דירה בבית קומות,5.0,רביעית,116.4,1171000,,,1994.0,,9.0,7770596736,1,825819,False,,נתניה,ז'בוטינסקי,,8258-19-9,8258/19,10060.137457044671,32.3227645116,34.8485224569,2004
2004-12-30,2004-12-30,"עמק חפר 96, נתניה",עמק חפר 96,8228-2-2,קוטג' דו משפחתי,5.0,,170.0,1158000,,,1980.0,,1.0,7770908720,1,82282,False,,נתניה,עמק חפר,,8228-2-2,8228/2,6811.764705882353,32.3450169386,34.8705371411,2004
2004-12-30,2004-12-30,"יעקב דורי 6, נתניה",יעקב דורי 6,8448-58-103,דירה בבית קומות,4.0,שמינית,86.7,760000,,,2005.0,,19.0,7770693306,1,844858,False,,נתניה,דורי יעקב,,8448-58-103,8448/58,8765.859284890426,32.2980133131,34.8465200405,2004
2004-12-30,2004-12-30,"שמורק 13, נתניה",שמורק 13,7932-410-32,דירה בבית קומות,3.0,שישית,63.93,316000,,,1980.0,,9.0,7770507640,1,7932410,True,-8% ב 5.6 שנים,נתניה,שמורק,-1.43,7932-410-32,7932/410,4942.906303769748,32.2961337458,34.8514359384,2004
2004-12-30,2004-12-30,"ויצמן 73, נתניה",ויצמן 73,8267-136-14,דירה בבית קומות,2.0,שלישית,45.25,173000,,,1970.0,,5.0,7770628556,1,8267136,False,,נתניה,ויצמן,,8267-136-14,8267/136,3823.204419889503,32.3368111521,34.8591042975,2004
2004-12-30,2004-12-30,"הרב קוק 63, נתניה",הרב קוק 63,8267-115-6,דירה בבית קומות,3.0,ראשונה,65.0,524000,,,1974.0,,4.0,7770035150,1,8267115,False,,נתניה,הרב קוק,,8267-115-6,8267/115,8061.538461538462,32.3368088428,34.8546563687,2004
2004-12-30,2004-12-30,"זלמן שז""ר 16, נתניה","זלמן שז""ר 16",7992-44-53,דירה בבית קומות,4.0,שתים עשרה,105.2,1184000,,,2000.0,,18.0,7771632810,1,799244,False,,נתניה,"שז""ר זלמן",,7992-44-53,7992/44,11254.752851711026,32.2757990847,34.8465964619,2004
2004-12-30,2004-12-30,"סמילנסקי 37, נתניה",סמילנסקי 37,8264-121-19,דירה בבית קומות,3.0,רביעית,70.0,498000,,,1950.0,,4.0,7770478336,1,8264121,False,,נתניה,סמילנסקי,,8264-121-19,8264/121,7114.285714285715,32.3254969278,34.8533409766,2004
2004-12-30,2004-12-30,"גבע 35, נתניה",גבע 35,8233-170-4,דירה בבית קומות,4.0,שניה,86.48,676000,,,1980.0,,4.0,7770303178,1,8233170,False,,נתניה,גבע,,8233-170-4,8233/170,7816.836262719704,32.3241319375,34.8614473617,2004
2004-12-29,2004-12-29,"בן-אב""י 3, נתניה","בן-אב""י 3",8259-123-11,דירה בבית קומות,5.0,שלישית,123.5,1180000,,,2004.0,,9.0,7770618714,1,8259123,False,,נתניה,"בן אב""י",,8259-123-11,8259/123,9554.655870445344,32.3197176198,34.8488046036,2004
2004-12-29,2004-12-29,"נחום 16, נתניה",נחום 16,7933-209-17,דירה בבית קומות,3.0,שלישית,75.0,361000,,,1994.0,,2.0,7770051726,1,7933209,False,,נתניה,נחום,,7933-209-17,7933/209,4813.333333333333,32.3000184191,34.857316156,2004
2004-12-29,2004-12-29,"הרב שמעון גבאי 6, נתניה",הרב שמעון גבאי 6,8260-392-8,דירה בבית קומות,4.0,שלישית,85.0,590000,,,1970.0,,7.0,7771472378,1,8260392,False,,נתניה,תחכמוני,,8260-392-8,8260/392,6941.176470588235,32.3207688169,34.8567081535,2004
2004-12-29,2004-12-29,"הרב יצחק הלוי 2, נתניה",הרב יצחק הלוי 2,7944-14-17,דירה בבית קומות,3.0,שלישית,78.0,332000,,,1970.0,,4.0,7770280608,1,794414,False,,נתניה,הרב יצחק הלוי,,7944-14-17,7944/14,4256.410256410257,32.2792938873,34.8535141873,2004
2004-12-29,2004-12-29,"דגניה 46, נתניה",דגניה 46,8006-48-18,דירה בבית קומות,4.0,חמישית,99.46,670000,,,2005.0,,10.0,7770753098,1,800648,False,,נתניה,דגניה,,8006-48-18,8006/48,6736.376432736779,32.3087475867,34.8743313393,2004
2004-12-28,2004-12-28,"בן יהודה 37, נתניה",בן יהודה 37,8260-329-10,דירה בבית קומות,4.0,חמישית,93.56,668000,,,1981.0,,7.0,7771297738,1,8260329,False,,נתניה,בן יהודה,,8260-329-10,8260/329,7139.803334758443,32.319629456,34.8513758651,2004
2004-12-28,2004-12-28,"ויצמן 108, נתניה",ויצמן 108,8274-675-2,דירה בבית קומות,4.0,ראשונה,85.0,642000,,,1994.0,,7.0,7770785510,1,8274675,True,-3% ב 2.1 שנים,נתניה,ויצמן,-1.43,8274-675-2,8274/675,7552.941176470588,32.3412908195,34.8606474134,2004
2004-12-28,2004-12-28,"דוד המלך 22, נתניה",דוד המלך 22,8270-45-3,דירה בבית קומות,3.0,ראשונה,79.0,716000,,,1980.0,,7.0,7770340400,1,827045,False,,נתניה,דוד המלך,,8270-45-3,8270/45,9063.291139240506,32.3335094176,34.8522125336,2004
2004-12-28,2004-12-28,"מלחמת ששת הימים 22, נתניה",מלחמת ששת הימים 22,8267-900-6,דירה בבית קומות,3.0,שניה,83.92,468000,,,1970.0,,6.0,7771232322,1,8267900,False,,נתניה,מלחמת ששת הימים,,8267-900-6,8267/900,5576.7397521449,32.3313991005,34.8598785922,2004
2004-12-28,2004-12-28,"יעקב דורי 4, נתניה",יעקב דורי 4,8448-58-31,דירה בבית קומות,5.0,שמינית,119.2,1015000,,,2007.0,,19.0,7710178252,1,844858,False,,נתניה,דורי יעקב,,8448-58-31,8448/58,8515.100671140939,32.2980133131,34.8465200405,2004
2004-12-27,2004-12-27,"הרב שמואל הרטום 22, נתניה",הרב שמואל הרטום 22,8006-62-62,דירה בבית קומות,4.0,חמישית,93.04,660000,,,2004.0,,9.0,7771046212,1,800662,False,,נתניה,הרב הרטום שמואל,,8006-62-62,8006/62,7093.723129836629,32.3084338219,34.8761736032,2004
2004-12-27,2004-12-27,"דגניה 46, נתניה",דגניה 46,8006-48-1,דירה בבית קומות,3.0,ראשונה,77.58,560000,,,2005.0,,10.0,7771356346,1,800648,False,,נתניה,דגניה,,8006-48-1,8006/48,7218.355246197474,32.3087475867,34.8743313393,2004
2004-12-27,2004-12-27,"ז'בוטינסקי 22, נתניה",ז'בוטינסקי 22,8258-18-17,דירה בבית קומות,3.0,חמישית,65.53,906000,,,1970.0,,6.0,7770143930,1,825818,False,24% ב 6 שנים,נתניה,ז'בוטינסקי,4.0,8258-18-17,8258/18,13825.728673889822,32.3230530116,34.8486101473,2004
2004-12-27,2004-12-27,"הלילך 5, נתניה",הלילך 5,7926-132-1,דירה בבית קומות,4.0,שביעית,100.0,1301000,,,1994.0,,9.0,7771762384,1,7926132,False,,נתניה,הלילך,,7926-132-1,7926/132,13010.0,32.2731180226,34.8417446997,2004
2004-12-26,2004-12-26,"ד""ר יהודה פרח 6, נתניה","ד""ר יהודה פרח 6",9903-19-46,דירה בבית קומות,4.0,שלישית,90.6,665000,,,2004.0,,9.0,7710210516,1,990319,False,,נתניה,"ד""ר פרח יהודה",,9903-19-46,9903/19,7339.955849889625,32.3023966734,34.8706834142,2004
2004-12-26,2004-12-26,"הרב ריינס 44, נתניה",הרב ריינס 44,8232-483-4,דירה בבית קומות,3.0,ראשונה,35.0,300000,,,1950.0,,2.0,7771214044,1,8232483,True,-14% ב 1.8 שנים,נתניה,הרב ריינס,-7.78,8232-483-4,8232/483,8571.42857142857,32.3363632324,34.8661449051,2004
2004-12-26,2004-12-26,"בן אבי 73, נתניה",בן אבי 73,8260-68-4,דירה בבית קומות,3.0,שניה,64.38,500000,,,1980.0,,5.0,7771095718,1,826068,False,,נתניה,"בן אב""י",,8260-68-4,8260/68,7766.387076731905,32.3179525716,34.8571000959,2004
2004-12-26,2004-12-26,"יוסף 12, נתניה",יוסף 12,9904-54-87,דירה בבית קומות,5.0,רביעית,109.1,823000,,,2004.0,,6.0,7770412402,1,990454,False,,נתניה,יוסף,,9904-54-87,9904/54,7543.538038496792,32.2973461822,34.872079724,2004
2004-12-26,2004-12-26,"חיים כהן-מגורי 1, נתניה",חיים כהן-מגורי 1,7932-609-18,דירה בבית קומות,4.0,חמישית,91.0,685000,,,2004.0,,14.0,7770370814,1,7932609,False,,נתניה,מגורי חיים כהן,,7932-609-18,7932/609,7527.472527472528,32.2985663222,34.8501308675,2004
2004-12-26,2004-12-26,"גבעת חיים 4, נתניה",גבעת חיים 4,8267-580-8,דירה בבית קומות,3.0,שניה,63.12,498000,,,1980.0,,3.0,7770126762,1,8267580,False,,נתניה,גבעת חיים,,8267-580-8,8267/580,7889.733840304183,32.336009476,34.8567235639,2004
2004-12-26,2004-12-26,"הגולן 10, נתניה",הגולן 10,9901-31-7,דירה בבית קומות,4.0,שנייה,94.64,705000,,,2005.0,,7.0,7770552780,1,990131,False,,נתניה,הגולן,,9901-31-7,9901/31,7449.281487743026,32.3079938818,34.8722758515,2004
2004-12-26,2004-12-26,"הגולן 10, נתניה",הגולן 10,9901-31-5,דירה בבית קומות,4.0,ראשונה,97.05,712000,,,2005.0,,7.0,7770552188,1,990131,False,,נתניה,הגולן,,9901-31-5,9901/31,7336.424523441525,32.3079938818,34.8722758515,2004
2004-12-24,2004-12-24,"ז'בוטינסקי 45, נתניה",ז'בוטינסקי 45,8258-47-8,דירה בבית קומות,4.0,רביעית,129.0,985000,,,1980.0,,7.0,7770000888,1,825847,False,,נתניה,ז'בוטינסקי,,8258-47-8,8258/47,7635.658914728682,32.3201300029,34.8485436121,2004
2004-12-24,2004-12-24,"פנחס לבון 14, נתניה",פנחס לבון 14,7960-50-2,דירה בבית קומות,3.0,ראשונה,61.2,355000,,,1970.0,,7.0,7770381174,1,796050,False,,נתניה,לבון פנחס,,7960-50-2,7960/50,5800.653594771242,32.2842370308,34.8540110401,2004
2004-12-23,2004-12-23,"ז'בוטינסקי 24, נתניה",ז'בוטינסקי 24,8258-19-7,דירה בבית קומות,4.0,שלישית,120.4,1387000,,,1994.0,,9.0,7770974654,1,825819,False,,נתניה,ז'בוטינסקי,,8258-19-7,8258/19,11519.933554817277,32.3227645116,34.8485224569,2004
2004-12-23,2004-12-23,"בן-אב""י 5, נתניה","בן-אב""י 5",8259-124-5,דירה בבית קומות,4.0,שלישית,88.45,745000,,,1985.0,,7.0,7770052910,1,8259124,False,,נתניה,"בן אב""י",,8259-124-5,8259/124,8422.837761447145,32.3196588241,34.8490618599,2004
2004-12-23,2004-12-23,"הרב קוק 40, נתניה",הרב קוק 40,8271-147-16,דירה בבית קומות,3.0,רביעית,72.0,607000,,,1970.0,,6.0,7770235320,1,8271147,False,,נתניה,הרב קוק,,8271-147-16,8271/147,8430.555555555555,32.334119239,34.8548739541,2004
2004-12-23,2004-12-23,"לוי אשכול 23, נתניה",לוי אשכול 23,7932-324-13,דירה בבית קומות,4.0,רביעית,78.0,468000,,,1980.0,,7.0,7770003404,1,7932324,False,,נתניה,לוי אשכול,,7932-324-13,7932/324,6000.0,32.2963204075,34.8471347207,2004
2004-12-23,2004-12-23,"גדליהו בובליק 4, נתניה",גדליהו בובליק 4,8215-106-1,דירה בבית קומות,4.0,,100.0,607000,,,1950.0,,,7770080882,1,8215106,False,,נתניה,בובליק גדליהו,,8215-106-1,8215/106,6070.0,32.3167585219,34.887304345,2004
2004-12-22,2004-12-22,"שלונסקי 36, נתניה",שלונסקי 36,7960-7-14,דירה בבית קומות,3.0,שלישית,60.08,259000,,,1970.0,,4.0,7770093166,1,79607,False,,נתניה,שלונסקי,,7960-7-14,7960/7,4310.918774966711,32.2859797149,34.8518842981,2004
2004-12-22,2004-12-22,"דבורה 10, נתניה",דבורה 10,8234-149-1,דירה בבית קומות,6.0,,160.0,1389000,,,1971.0,,,7709966390,1,8234149,False,,נתניה,דבורה,,8234-149-1,8234/149,8681.25,32.3264143195,34.8732951883,2004
2004-12-21,2004-12-21,"גולדה מאיר 16, נתניה",גולדה מאיר 16,7928-24-40,דירה בבית קומות,4.0,שניה,82.7,493000,,,1984.0,,8.0,7770010730,1,792824,False,,נתניה,גולדה מאיר,,7928-24-40,7928/24,5961.305925030229,32.2773712885,34.8516286946,2004
2004-12-21,2004-12-21,"מוצקין 15, נתניה",מוצקין 15,7932-332-9,דירה בבית קומות,3.0,שלישית,62.17,337000,,,1970.0,,8.0,7710148800,1,7932332,False,,נתניה,מוצקין,,7932-332-9,7932/332,5420.620878237091,32.2972965151,34.848213941,2004
2004-12-21,2004-12-21,"בר-יוחאי 22, נתניה",בר-יוחאי 22,8228-112-18,דירה בבית קומות,3.0,שלישית,40.4,178000,,,1960.0,,3.0,7771406888,1,8228112,False,,נתניה,בר יוחאי,,8228-112-18,8228/112,4405.940594059406,32.3406160889,34.8709382131,2004
2004-12-21,2004-12-21,"ישראל בן-מאיר 6, נתניה",ישראל בן-מאיר 6,8217-220-1,דירה בבית קומות,2.0,,50.0,519000,,,1940.0,,1.0,7709907782,1,8217220,False,,נתניה,בן מאיר ישראל,,8217-220-1,8217/220,10380.0,32.3133973823,34.8863636409,2004
2004-12-20,2004-12-20,"יהודה הלוי 74, נתניה",יהודה הלוי 74,8257-104-2,דירה בבית קומות,4.0,ראשונה,84.16,580000,,,1985.0,,6.0,7709987036,1,8257104,True,-10% ב 2.8 שנים,נתניה,יהודה הלוי,-3.57,8257-104-2,8257/104,6891.634980988593,32.3173963746,34.8557968321,2004
2004-12-20,2004-12-20,"רבי עקיבא 43, נתניה",רבי עקיבא 43,8274-178-2,דירה בבית קומות,5.0,,185.0,1299000,,,1997.0,,,7771379508,1,8274178,False,,נתניה,רבי עקיבא,,8274-178-2,8274/178,7021.621621621622,32.3428434557,34.8629292149,2004
2004-12-20,2004-12-20,"גבעת חיים 14, נתניה",גבעת חיים 14,8267-150-17,דירה בבית קומות,5.0,שישית,118.45,1083000,,,2004.0,,9.0,7710054302,1,8267150,False,,נתניה,גבעת חיים,,8267-150-17,8267/150,9143.098353735752,32.3359116429,34.8579905533,2004
2004-12-20,2004-12-20,"מוצקין 7, נתניה",מוצקין 7,7932-323-26,דירה בבית קומות,4.0,שביעית,73.0,420000,,,1970.0,,7.0,7770271506,1,7932323,False,,נתניה,מוצקין,,7932-323-26,7932/323,5753.424657534247,32.2961193396,34.8476229415,2004
2004-12-20,2004-12-20,"הרב יאנה 6, נתניה",הרב יאנה 6,8006-56-61,דירה בבית קומות,3.0,שלישית,91.4,432000,,,1998.0,,8.0,7770357568,1,800656,True,-24% ב 6.2 שנים,נתניה,הרב יאנה,-3.87,8006-56-61,8006/56,4726.477024070022,32.3086224857,34.8753423446,2004
2004-12-20,2004-12-20,"הגולן 10, נתניה",הגולן 10,9901-31-9,דירה בבית קומות,4.0,שנייה,97.62,700000,,,2005.0,,7.0,7710087232,1,990131,False,,נתניה,הגולן,,9901-31-9,9901/31,7170.6617496414665,32.3079938818,34.8722758515,2004
2004-12-20,2004-12-20,"יאנוש קורצ'אק 9, נתניה",יאנוש קורצ'אק 9,7958-67-37,דירה בבית קומות,3.0,ראשונה,68.0,366000,,,1970.0,,8.0,7770627964,1,795867,False,,נתניה,קורצ'ק יאנוש,,7958-67-37,7958/67,5382.35294117647,32.2794548288,34.8510779523,2004
2004-12-19,2004-12-19,"הרב שמואל הרטום 29, נתניה",הרב שמואל הרטום 29,8006-166-130,דירה בבית קומות,5.0,ארבע עשרה,127.4,1160000,,,2005.0,,13.0,7770799570,1,8006166,False,,נתניה,הרב הרטום שמואל,,8006-166-130,8006/166,9105.180533751962,32.3100586144,34.8760038009,2004
2004-12-19,2004-12-19,"בן צבי 70, נתניה",בן צבי 70,7932-362-12,דירה בבית קומות,3.0,שלישית,58.77,316000,,,1980.0,,4.0,7770707958,1,7932362,False,,נתניה,בן צבי,,7932-362-12,7932/362,5376.89297260507,32.2967947826,34.8527493325,2004
2004-12-19,2004-12-19,"גבעת חיים 14, נתניה",גבעת חיים 14,8267-150-5,דירה בבית קומות,5.0,שניה,118.45,974000,,,2004.0,,9.0,7770387390,1,8267150,False,,נתניה,גבעת חיים,,8267-150-5,8267/150,8222.878851836218,32.3359116429,34.8579905533,2004
2004-12-19,2004-12-19,"הרב פריגיה זוארץ 16, נתניה",הרב פריגיה זוארץ 16,8217-416-88,דירה בבית קומות,3.0,שניה,64.4,454000,,,1997.0,,10.0,7770484552,1,8217416,True,-10% ב 5.5 שנים,נתניה,הרב זוארץ פריגיה,-1.82,8217-416-88,8217/416,7049.689440993789,32.3135069349,34.8878550414,2004
2004-12-16,2004-12-16,"דיזנגוף 34, נתניה",דיזנגוף 34,8264-9-7,דירה בבית קומות,1.0,ראשונה,,238000,,,1958.0,,4.0,7709791676,1,82649,False,12% ב 5.8 שנים,נתניה,דיזנגוף,2.07,8264-9-7,8264/9,,32.3286273434,34.852857258,2004
2004-12-16,2004-12-16,"הגילה 30, נתניה",הגילה 30,8253-218-1,קוטג' דו משפחתי,5.0,מרתף+קרקע+ראשונה+גג,226.2,1598000,,,2002.0,,2.0,7771380766,1,8253218,False,,נתניה,הגילה,,8253-218-1,8253/218,7064.544650751548,32.3139679353,34.8467133364,2004
2004-12-15,2004-12-15,"התרופה 14, נתניה",התרופה 14,7961-7-2,תעשיה,,שניה,1000.0,2533000,,,2000.0,,2.0,7771409404,1,79617,False,,נתניה,התרופה,,7961-7-2,7961/7,2533.0,32.2840811487,34.8654059558,2004
2004-12-15,2004-12-15,"דגניה 48, נתניה",דגניה 48,8006-46-99,דירה בבית קומות,4.0,שישית,101.32,709000,,,2004.0,,10.0,7710202746,1,800646,False,,נתניה,דגניה,,8006-46-99,8006/46,6997.63126727201,32.3078187547,34.8741716047,2004
2004-12-15,2004-12-15,"גבעת חיים 14, נתניה",גבעת חיים 14,8267-150-2,דירה בבית קומות,5.0,ראשונה,118.45,930000,,,2004.0,,9.0,7709981634,1,8267150,False,,נתניה,גבעת חיים,,8267-150-2,8267/150,7851.414098775855,32.3359116429,34.8579905533,2004
2004-12-15,2004-12-15,"גבעת חיים 14, נתניה",גבעת חיים 14,8267-150-14,דירה בבית קומות,5.0,חמישית,118.45,1039000,,,2004.0,,9.0,7770384874,1,8267150,False,,נתניה,גבעת חיים,,8267-150-14,8267/150,8771.63360067539,32.3359116429,34.8579905533,2004
2004-12-13,2004-12-13,"דגניה 50, נתניה",דגניה 50,8006-46-111,דירה בבית קומות,5.0,תשיעית עשירית,135.48,865000,,,2003.0,,10.0,7770615680,1,800646,False,,נתניה,דגניה,,8006-46-111,8006/46,6384.706229701802,32.3078187547,34.8741716047,2004
2004-12-12,2004-12-12,"הסחלב 102, נתניה",הסחלב 102,7994-6-1,דירה בבית קומות,5.0,"מרתף, קרקע, ראשונה",238.51,1948000,,,2002.0,,3.0,7709391854,1,79946,False,15% ב 1.7 שנים,נתניה,הסחלב,8.82,7994-6-1,7994/6,8167.372437214372,32.2753402643,34.8515548922,2004
2004-12-12,2004-12-12,"חיים לסקוב 2, נתניה",חיים לסקוב 2,7926-78-2,דירה בבית קומות,5.0,"קרקע, ראשונה, שניה",196.84,1244000,,,1980.0,,,7770599844,1,792678,False,24% ב 6.9 שנים,נתניה,לסקוב חיים,3.48,7926-78-2,7926/78,6319.853688274741,32.2713413586,34.8428249244,2004
2004-12-12,2004-12-12,"הברבור 2, נתניה",הברבור 2,8731-35-15,דירה בבית קומות,5.0,ראשונה,99.7,597000,,,1995.0,,2.0,7709672166,1,873135,False,,נתניה,הברבור,,8731-35-15,8731/35,5987.963891675025,32.3035169407,34.8820927767,2004
2004-12-12,2004-12-12,"לוי אשכול 2, נתניה",לוי אשכול 2,8448-7-32,דירה בבית קומות,4.0,ראשונה,82.36,636000,,,1997.0,,9.0,7709885212,1,84487,False,,נתניה,לוי אשכול,,8448-7-32,8448/7,7722.195240407965,32.2992495291,34.8478554833,2004
2004-12-11,2004-11-12,"הרב שמואל הרטום 29, נתניה",הרב שמואל הרטום 29,8006-166-129,דירה בבית קומות,3.0,שלוש עשרה,73.95,635000,,,2005.0,,13.0,7709187910,1,8006166,False,,נתניה,הרב הרטום שמואל,,8006-166-129,8006/166,8586.883029073699,32.3100586144,34.8760038009,2004
2004-12-10,2004-10-12,"דברי חיים 7, נתניה",דברי חיים 7,8273-264-1,דירה בבית קומות,5.0,,200.0,1605000,,,2002.0,,,7707319780,1,8273264,False,,נתניה,דברי חיים,,8273-264-1,8273/264,8025.0,32.3432367092,34.8565298323,2004
2004-12-10,2004-10-12,"דנקנר 19, נתניה",דנקנר 19,8258-16-22,דירה בבית קומות,4.0,שישית,118.0,1516000,,,1970.0,,10.0,7707742912,1,825816,False,,נתניה,דנקנר,,8258-16-22,8258/16,12847.457627118643,32.3234999219,34.8482867273,2004
2004-12-10,2004-10-12,"אחימאיר 4, נתניה",אחימאיר 4,8260-596-16,דירה בבית קומות,4.0,רביעית,81.02,655000,,,1980.0,,7.0,7706920476,1,8260596,False,,נתניה,אחימאיר,,8260-596-16,8260/596,8084.423599111331,32.3209738694,34.8520473955,2004
2004-12-10,2004-10-12,"האלונים 16, נתניה",האלונים 16,9089-87-25,דירה בבית קומות,4.0,שביעית,100.2,676000,,,2007.0,,16.0,7707223950,1,908987,False,,נתניה,האלונים,,9089-87-25,9089/87,6746.506986027944,32.3023316917,34.8777482746,2004
2004-12-10,2004-10-12,"הגולן 8, נתניה",הגולן 8,9901-25-100,דירה בבית קומות,3.0,חמישית,69.0,622000,,,2002.0,,8.0,7707429152,1,990125,False,6% ב 2 שנים,נתניה,הגולן,3.0,9901-25-100,9901/25,9014.492753623188,32.307162769,34.8718074706,2004
2004-12-10,2004-10-12,"טום לנטוס 23, נתניה",טום לנטוס 23,9901-14-82,דירה בבית קומות,4.0,שישית,90.1,660000,,,2006.0,,8.0,7707185988,1,990114,False,,נתניה,לנטוס טום,,9901-14-82,9901/14,7325.19422863485,32.3069942196,34.8701984907,2004
2004-12-09,2004-09-12,"יהודה הלוי 38, נתניה",יהודה הלוי 38,8260-664-16,דירה בבית קומות,7.0,שישית ושביעית,154.13,1193000,,,2006.0,,6.0,7706192760,1,8260664,False,,נתניה,יהודה הלוי,,8260-664-16,8260/664,7740.2192953999875,32.320185749,34.8565008806,2004
2004-12-09,2004-09-12,"הרב ברוך הלברשטם 6, נתניה",הרב ברוך הלברשטם 6,8272-160-7,דירה בבית קומות,5.0,ראשונה,105.0,518000,,,1970.0,,1.0,7707273382,1,8272160,False,,נתניה,הרב הלברשטם ברוך,,8272-160-7,8272/160,4933.333333333333,32.3420068432,34.8556374528,2004
2004-12-09,2004-09-12,"טום לנטוס 21, נתניה",טום לנטוס 21,9901-13-45,דירה בבית קומות,5.0,שישית,117.7,900000,,,2004.0,,6.0,7707272198,1,990113,False,,נתניה,לנטוס טום,,9901-13-45,9901/13,7646.559048428207,32.3080518031,34.8703239126,2004
2004-12-09,2004-09-12,"המתמיד 10, נתניה",המתמיד 10,8270-73-21,דירה בבית קומות,4.0,חמישית,100.0,1348000,,,2005.0,,7.0,7706902790,1,827073,False,,נתניה,המתמיד,,8270-73-21,8270/73,13480.0,32.3312213436,34.851956308,2004
2004-12-09,2004-09-12,"דגניה 50, נתניה",דגניה 50,8006-46-76,דירה בבית קומות,5.0,תשיעית עשירית,135.48,865000,,,2003.0,,10.0,7707303426,1,800646,False,,נתניה,דגניה,,8006-46-76,8006/46,6384.706229701802,32.3078187547,34.8741716047,2004
2004-12-08,2004-08-12,"בן-אב""י 3, נתניה","בן-אב""י 3",8259-123-17,דירה בבית קומות,5.0,חמישית,136.6,1065000,,,2004.0,,9.0,7705108512,1,8259123,False,,נתניה,"בן אב""י",,8259-123-17,8259/123,7796.486090775988,32.3197176198,34.8488046036,2004
2004-12-08,2004-08-12,"הרב שמואל הרטום 22, נתניה",הרב שמואל הרטום 22,8006-62-52,דירה בבית קומות,4.0,שניה,97.75,692000,,,2004.0,,9.0,7705580410,1,800662,False,,נתניה,הרב הרטום שמואל,,8006-62-52,8006/62,7079.283887468031,32.3084338219,34.8761736032,2004
2004-12-08,2004-08-12,"הבריגדה היהודית 3, נתניה",הבריגדה היהודית 3,8448-38-24,דירה בבית קומות,5.0,שמינית ותשיעית,125.83,924000,,,1999.0,,10.0,7705097560,1,844838,False,,נתניה,הבריגדה היהודית,,8448-38-24,8448/38,7343.240880553128,32.2982993579,34.8458139749,2004
2004-12-08,2004-08-12,"גולי קניה 4, נתניה",גולי קניה 4,8242-276-84,דירה בבית קומות,3.0,חמישית,69.7,555000,,,2002.0,,9.0,7706089012,1,8242276,False,,נתניה,גולי קניה,,8242-276-84,8242/276,7962.697274031563,32.3141307595,34.8608311285,2004
2004-12-08,2004-08-12,"ניצה 34, נתניה",ניצה 34,8272-208-14,דירה בבית קומות,4.0,רביעית,96.96,1269000,,,1992.0,,11.0,7705161126,1,8272208,False,,נתניה,ניצה,,8272-208-14,8272/208,13087.871287128712,32.3421024227,34.8536269712,2004
2004-12-07,2004-07-12,"אוסישקין 13, נתניה",אוסישקין 13,8263-77-17,דירה בבית קומות,3.0,חמישית,50.5,447000,,,1966.0,,5.0,7704103666,1,826377,False,3% ב 0.4 שנים,נתניה,אוסישקין,7.5,8263-77-17,8263/77,8851.485148514852,32.3282679396,34.8517105044,2004
2004-12-07,2004-07-12,"בן צבי 1, נתניה",בן צבי 1,8242-220-28,דירה בבית קומות,4.0,ראשונה,65.47,532000,,,1970.0,,3.0,7703891804,1,8242220,False,,נתניה,בן צבי,,8242-220-28,8242/220,8125.859172139912,32.3116471044,34.8555727661,2004
2004-12-07,2004-07-12,"דגניה 48, נתניה",דגניה 48,8006-46-67,דירה בבית קומות,4.5,שביעית,106.2,755000,,,2004.0,,10.0,7704357634,1,800646,False,,נתניה,דגניה,,8006-46-67,8006/46,7109.227871939736,32.3078187547,34.8741716047,2004
2004-12-07,2004-07-12,"הבריגדה היהודית 15, נתניה",הבריגדה היהודית 15,8448-30-10,דירה בבית קומות,3.5,שלישית,85.6,735000,,,2005.0,,10.0,7704215332,1,844830,False,,נתניה,הבריגדה היהודית,,8448-30-10,8448/30,8586.448598130843,32.2965002158,34.8448836514,2004
2004-12-07,2004-07-12,"הקליר 30, נתניה",הקליר 30,8242-243-6,דירה בבית קומות,4.0,שלישית,90.45,649000,,,2002.0,,8.0,7705380832,1,8242243,False,,נתניה,הקליר,,8242-243-6,8242/243,7175.234936428966,32.3134023954,34.8599500562,2004
2004-12-05,2004-05-12,"הר מירון 4, נתניה",הר מירון 4,9901-15-61,דירה בבית קומות,4.0,רביעית,96.4,699000,,,2004.0,,6.0,7702344242,1,990115,False,,נתניה,הר מירון,,9901-15-61,9901/15,7251.03734439834,32.3095978637,34.8711282494,2004
2004-12-05,2004-05-12,"גורדון 48, נתניה",גורדון 48,8267-766-25,דירה בבית קומות,3.0,ראשונה,69.0,508000,,,1967.0,,3.0,7701482142,1,8267766,False,,נתניה,גורדון,,8267-766-25,8267/766,7362.31884057971,32.335617751,34.8584140178,2004
2004-12-05,2004-05-12,"גדליהו בובליק 3, נתניה",גדליהו בובליק 3,8215-91-2,דירה בבית קומות,3.0,קרקע,34.52,786000,,,1950.0,,,7701723308,1,821591,False,,נתניה,בובליק גדליהו,,8215-91-2,8215/91,22769.4090382387,32.3172346259,34.8874505278,2004
2004-12-05,2004-05-12,"ויצמן 89, נתניה",ויצמן 89,8273-62-16,דירה בבית קומות,4.0,שלישית,85.1,752500,,,1980.0,,6.0,7702441256,1,827362,False,1% ב 6 שנים,נתניה,ויצמן,0.17,8273-62-16,8273/62,8842.538190364277,32.3394332688,34.8593869984,2004
2004-12-05,2004-05-12,"הידידות 14, נתניה",הידידות 14,8253-162-1,דירה בבית קומות,6.0,,235.0,1710000,,,2008.0,,3.0,7702685530,1,8253162,False,,נתניה,הידידות,,8253-162-1,8253/162,7276.595744680851,32.3172578115,34.8483060361,2004
2004-12-05,2004-05-12,"לוטם 5, נתניה",לוטם 5,7992-45-14,דירה בבית קומות,3.0,שלישית,72.5,832000,,,2002.0,,18.0,7701573088,1,799245,False,,נתניה,לוטם,,7992-45-14,7992/45,11475.862068965518,32.274731775,34.8460744308,2004
2004-12-02,2004-02-12,"יהודה הלוי 7, נתניה",יהודה הלוי 7,8261-45-11,,3.0,שלישית,71.58,630000,,,1980.0,,5.0,7697878860,1,826145,False,,נתניה,יהודה הלוי,,8261-45-11,8261/45,8801.341156747696,32.3240291409,34.8579703835,2004
2004-12-02,2004-02-12,"ניצה 34, נתניה",ניצה 34,8272-6-3,,3.0,שניה,85.37,893000,,,1995.0,,8.0,7697971212,1,82726,False,,נתניה,ניצה,,8272-6-3,8272/6,10460.349068759517,32.3418160114,34.8536125708,2004
2004-12-02,2004-02-12,"נחום 16, נתניה",נחום 16,7933-209-19,,5.0,שלישית,100.0,536000,,,1994.0,,2.0,7697902170,1,7933209,False,,נתניה,נחום,,7933-209-19,7933/209,5360.0,32.3000184191,34.857316156,2004
2004-12-02,2004-02-12,"רזיאל 25, נתניה",רזיאל 25,8267-982-43,,4.0,שביעית,86.72,411000,,,1980.0,,9.0,7697895436,1,8267982,True,-10% ב 4.3 שנים,נתניה,רזיאל,-2.33,8267-982-43,8267/982,4739.391143911439,32.3299258854,34.8617295765,2004
2004-12-02,2004-02-12,"ניל""י 46, נתניה","ניל""י 46",8238-210-1,דירה בבית קומות,4.0,,100.0,1094000,,,1970.0,,1.0,7697869758,1,8238210,False,,נתניה,"ניל""י",,8238-210-1,8238/210,10940.0,32.3183368596,34.861313326,2004
2004-12-01,2004-01-12,"ד""ר יהודה פרח 6, נתניה","ד""ר יהודה פרח 6",9903-19-35,דירה בבית קומות,5.0,ראשונה,106.7,700000,,,2004.0,,9.0,7696641506,1,990319,False,,נתניה,"ד""ר פרח יהודה",,9903-19-35,9903/19,6560.449859418932,32.3023966734,34.8706834142,2004
2004-12-01,2004-01-12,"זומרשטיין 10, נתניה",זומרשטיין 10,8273-56-13,,4.0,רביעית,65.59,666000,,,1980.0,,4.0,7697247048,1,827356,False,,נתניה,זומרשטיין,,8273-56-13,8273/56,10153.98688824516,32.3400145128,34.8588897377,2004
2004-12-01,2004-01-12,"ויצמן 38, נתניה",ויצמן 38,8267-56-11,,2.0,שניה,52.0,512000,,,1970.0,,5.0,7696770932,1,826756,False,,נתניה,ויצמן,,8267-56-11,8267/56,9846.153846153846,32.3330509962,34.8596209465,2004
2004-12-01,2004-01-12,"מלחמת ששת הימים 20, נתניה",מלחמת ששת הימים 20,8267-904-16,,3.0,שלישית,85.9,613000,,,1980.0,,7.0,7696779442,1,8267904,False,,נתניה,מלחמת ששת הימים,,8267-904-16,8267/904,7136.2048894062855,32.3314144462,34.859441259,2004
2004-11-30,2004-11-30,"הר מירון 2, נתניה",הר מירון 2,9901-15-12,דירה בבית קומות,4.0,שלישית,96.4,690000,,,2004.0,,7.0,7710085382,1,990115,False,,נתניה,הר מירון,,9901-15-12,9901/15,7157.676348547718,32.3095978637,34.8711282494,2004
2004-11-30,2004-11-30,"רמז דוד 4, נתניה",רמז דוד 4,8263-83-24,דירה בבית קומות,2.0,תשיעית,46.57,1003000,,,1989.0,,8.0,7770841010,1,826383,False,,נתניה,רמז דוד,,8263-83-24,8263/83,21537.470474554437,32.3286624822,34.8518590053,2004
2004-11-30,2004-11-30,"שלונסקי 38, נתניה",שלונסקי 38,7960-7-5,דירה בבית קומות,3.0,שלישית,60.08,354000,,,1970.0,,4.0,7770505346,1,79607,False,,נתניה,שלונסקי,,7960-7-5,7960/7,5892.14380825566,32.2859797149,34.8518842981,2004
2004-11-30,2004-11-30,"סטופ 17, נתניה",סטופ 17,7932-342-11,דירה בבית קומות,3.0,שלישית,55.6,323000,,,1970.0,,4.0,7709242966,1,7932342,False,,נתניה,סטופ,,7932-342-11,7932/342,5809.352517985612,32.2961928158,34.8491318631,2004
2004-11-29,2004-11-29,"שוהם 3, נתניה",שוהם 3,8266-41-46,תעשיה,,שלישית,,65000,,,1970.0,,9.0,7708936532,1,826641,False,,נתניה,שוהם,,8266-41-46,8266/41,,32.3284811802,34.8591258269,2004
2004-11-29,2004-11-29,"המתמיד 3, נתניה",המתמיד 3,8270-77-1,דירה בבית קומות,2.0,שלישית,50.0,328000,,,1960.0,,3.0,7710116536,1,827077,False,,נתניה,המתמיד,,8270-77-1,8270/77,6560.0,32.331506135,34.852618118,2004
2004-11-29,2004-11-29,"האר""י 14, נתניה","האר""י 14",8242-226-21,דירה בבית קומות,4.0,רביעית+גג,99.2,572000,,,1990.0,,5.0,7709547476,1,8242226,False,,נתניה,"האר""י",,8242-226-21,8242/226,5766.129032258064,32.3119057417,34.8570635728,2004
2004-11-28,2004-11-28,"ז'בוטינסקי 2, נתניה",ז'בוטינסקי 2,8262-32-14,דירה בבית קומות,3.0,שלישית,68.0,450000,,,1960.0,,3.0,7710219692,1,826232,False,,נתניה,ז'בוטינסקי,,8262-32-14,8262/32,6617.64705882353,32.3252969551,34.8494705736,2004
2004-11-28,2004-11-28,"ראשון לציון 24, נתניה",ראשון לציון 24,8263-113-6,דירה בבית קומות,4.0,שניה,99.4,879000,,,1980.0,,7.0,7709271012,1,8263113,False,,נתניה,ראשון לציון,,8263-113-6,8263/113,8843.058350100604,32.3273056216,34.8500312877,2004
2004-11-28,2004-11-28,"אדמונית 13, נתניה",אדמונית 13,7993-29-3,דירה בבית קומות,6.0,שלישית,150.0,1525000,,,1998.0,,,7709388228,1,799329,False,,נתניה,אדמונית,,7993-29-3,7993/29,10166.666666666666,32.2724977289,34.8488380983,2004
2004-11-28,2004-11-28,"הרב שמואל הרטום 29, נתניה",הרב שמואל הרטום 29,8006-166-117,דירה בבית קומות,3.0,עשירית,73.95,617000,,,2005.0,,13.0,7709184802,1,8006166,False,,נתניה,הרב הרטום שמואל,,8006-166-117,8006/166,8343.475321162947,32.3100586144,34.8760038009,2004
2004-11-28,2004-11-28,"עמנואל מול 1, נתניה",עמנואל מול 1,8267-996-32,דירה בבית קומות,2.0,שניה,63.4,699000,,,1980.0,,7.0,7709031548,1,8267996,False,,נתניה,מול עמנואל,,8267-996-32,8267/996,11025.236593059935,32.3374004571,34.8531766422,2004
2004-11-28,2004-11-28,"בארי 65, נתניה",בארי 65,8274-517-3,דירה בבית קומות,2.0,ראשונה,50.47,327000,,,1960.0,,3.0,7771780514,1,8274517,False,,נתניה,בארי,,8274-517-3,8274/517,6479.096492966119,32.3391165525,34.8608222013,2004
2004-11-26,2004-11-26,"הנוטע 11, נתניה",הנוטע 11,8265-99-17,דירה בבית קומות,3.0,רביעית,71.0,432000,,,1957.0,,4.0,7710227018,1,826599,True,-2% ב 2.4 שנים,נתניה,הנוטע,-0.83,8265-99-17,8265/99,6084.507042253521,32.326360489,34.8555040469,2004
2004-11-26,2004-11-26,"ניצה 3, נתניה",ניצה 3,8272-207-49,דירה בבית קומות,3.0,חמישית,80.0,1311000,,,1970.0,,8.0,7709690296,1,8272207,False,,נתניה,ניצה,,8272-207-49,8272/207,16387.5,32.3363570301,34.8516082277,2004
2004-11-26,2004-11-26,"נורדאו 45, נתניה",נורדאו 45,7944-29-12,דירה בבית קומות,2.0,שניה,36.0,1693000,,,1960.0,,3.0,7708828936,1,794429,False,,נתניה,נורדאו,,7944-29-12,7944/29,47027.77777777778,32.2802879623,34.8561664396,2004
2004-11-25,2004-11-25,"עזרא 41, נתניה",עזרא 41,7940-83-1,דירה בבית קומות,3.0,ראשונה,53.7,528000,,,1950.0,,1.0,7708957104,1,794083,False,,נתניה,עזרא,,7940-83-1,7940/83,9832.402234636873,32.2963668755,34.8577575267,2004
2004-11-25,2004-11-25,"המתמיד 8, נתניה",המתמיד 8,8270-72-1,דירה בבית קומות,3.0,ראשונה,83.0,785000,,,1950.0,,3.0,7709892538,1,827072,False,,נתניה,המתמיד,,8270-72-1,8270/72,9457.831325301206,32.3314227985,34.852014589,2004
2004-11-25,2004-11-25,"ברודצקי 12, נתניה",ברודצקי 12,8260-286-7,דירה בבית קומות,3.0,שניה,71.9,567000,,,1962.0,,3.0,7708937124,1,8260286,False,,נתניה,ברודצקי,,8260-286-7,8260/286,7885.952712100138,32.3240666465,34.8551273286,2004
2004-11-24,2004-11-24,"דוד המלך 32, נתניה",דוד המלך 32,8270-40-8,דירה בבית קומות,4.0,שניה,96.27,1093000,,,1980.0,,7.0,7709408282,1,827040,False,,נתניה,דוד המלך,,8270-40-8,8270/40,11353.48499013192,32.3344837473,34.8526954998,2004
2004-11-24,2004-11-24,"דוד המלך 3, נתניה",דוד המלך 3,8270-92-23,דירה בבית קומות,4.0,שביעית,100.21,1584000,,,2002.0,,10.0,7709696438,1,827092,False,,נתניה,דוד המלך,,8270-92-23,8270/92,15806.805708013171,32.3314774495,34.8509379916,2004
2004-11-24,2004-11-24,"חיים כהן-מגורי 1, נתניה",חיים כהן-מגורי 1,7932-609-46,דירה בבית קומות,5.0,שתים עשרה,106.0,853000,,,2004.0,,14.0,7770366744,1,7932609,False,,נתניה,מגורי חיים כהן,,7932-609-46,7932/609,8047.169811320755,32.2985663222,34.8501308675,2004
2004-11-24,2004-11-24,"הלילך 11, נתניה",הלילך 11,7926-129-8,דירה בבית קומות,4.0,קומה ‎4‏,123.0,1364000,,,2000.0,,18.0,7709878478,1,7926129,False,,נתניה,הלילך,,7926-129-8,7926/129,11089.430894308944,32.2723942848,34.8422434263,2004
2004-11-24,2004-11-24,"רמב""ם 24, נתניה","רמב""ם 24",8242-273-91,דירה בבית קומות,3.0,שביעית,69.9,498000,,,2000.0,,9.0,7709300908,1,8242273,True,-14% ב 4.2 שנים,נתניה,"רמב""ם",-3.33,8242-273-91,8242/273,7124.4635193133045,32.3149347816,34.8609441015,2004
2004-11-24,2004-11-24,"גבע 6, נתניה",גבע 6,8261-42-10,דירה בבית קומות,5.0,חמישית,114.1,782000,,,1994.0,,6.0,7708945634,1,826142,False,,נתניה,גבע,,8261-42-10,8261/42,6853.637160385627,32.3246671499,34.8582011649,2004
2004-11-23,2004-11-23,"טרומפלדור 14, נתניה",טרומפלדור 14,8274-630-26,דירה בבית קומות,3.0,שלישית,52.44,394000,,,1970.0,,4.0,7708723486,1,8274630,False,,נתניה,טרומפלדור,,8274-630-26,8274/630,7513.348588863463,32.3396782162,34.8624481098,2004
2004-11-23,2004-11-23,"אדמונית 18, נתניה",אדמונית 18,7993-33-2,דירה בבית קומות,6.0,,285.0,1534000,,,1994.0,,,7708780170,1,799333,False,,נתניה,אדמונית,,7993-33-2,7993/33,5382.456140350877,32.2724500447,34.8495559712,2004
2004-11-23,2004-11-23,"אשר 6, נתניה",אשר 6,9904-66-27,דירה בבית קומות,5.0,שביעית,126.45,955000,,,2005.0,,7.0,7709372984,1,990466,False,,נתניה,אשר,,9904-66-27,9904/66,7552.392249901147,32.2987344169,34.870137087,2004
2004-11-23,2004-11-23,"קרן היסוד 10, נתניה",קרן היסוד 10,7959-28-27,דירה בבית קומות,3.0,שניה,65.3,298000,,,1970.0,,4.0,7709470590,1,795928,False,,נתניה,קרן היסוד,,7959-28-27,7959/28,4563.552833078102,,,2004
2004-11-23,2004-11-23,"אצ""ל 8, נתניה","אצ""ל 8",8238-330-26,דירה בבית קומות,2.0,שלישית,33.5,262000,,,1950.0,,4.0,7708705726,1,8238330,False,,נתניה,"אצ""ל",,8238-330-26,8238/330,7820.895522388059,32.3177951459,34.8591273244,2004
2004-11-23,2004-11-23,"יוספטל 35, נתניה",יוספטל 35,8284-95-9,דירה בבית קומות,3.0,שניה,40.74,234000,,,1960.0,,3.0,7708997434,1,828495,False,,נתניה,יוספטל,,8284-95-9,8284/95,5743.740795287187,32.3266957173,34.8671517282,2004
2004-11-22,2004-11-22,"מנדלסון 8, נתניה",מנדלסון 8,8230-73-2,דירה בבית קומות,5.0,,150.0,1103000,,,1998.0,,,7709216622,1,823073,False,,נתניה,מנדלסון,,8230-73-2,8230/73,7353.333333333333,32.3402585851,34.8688058719,2004
2004-11-22,2004-11-22,"גולדה מאיר 32, נתניה",גולדה מאיר 32,7928-5-213,דירה בבית קומות,4.0,שישית,74.0,468000,,,1984.0,,8.0,7710220876,1,79285,False,,נתניה,גולדה מאיר,,7928-5-213,7928/5,6324.324324324324,32.2767518325,34.8541550064,2004
2004-11-22,2004-11-22,"דוד המלך 3, נתניה",דוד המלך 3,8270-92-15,דירה בבית קומות,4.0,חמישית,100.21,1475000,,,2002.0,,10.0,7709697622,1,827092,False,,נתניה,דוד המלך,,8270-92-15,8270/92,14719.08991118651,32.3314774495,34.8509379916,2004
2004-11-22,2004-11-22,"בן-יהודה 13, נתניה",בן-יהודה 13,8259-6-2,דירה בבית קומות,4.0,ראשונה,89.2,705000,,,1970.0,,5.0,7709265388,1,82596,False,,נתניה,בן יהודה,,8259-6-2,8259/6,7903.587443946188,32.3234086499,34.8525215771,2004
2004-11-22,2004-11-22,"עמנואל מול 18, נתניה",עמנואל מול 18,8267-646-1,דירה בבית קומות,4.0,ראשונה,92.48,810000,,,1980.0,,6.0,7708844180,1,8267646,False,26% ב 5.6 שנים,נתניה,מול עמנואל,4.64,8267-646-1,8267/646,8758.650519031142,32.3384922553,34.8540220691,2004
2004-11-21,2004-11-21,"חיים כהן-מגורי 1, נתניה",חיים כהן-מגורי 1,7932-609-41,דירה בבית קומות,5.0,אחד עשרה,106.0,824000,,,2004.0,,14.0,7770368520,1,7932609,False,,נתניה,מגורי חיים כהן,,7932-609-41,7932/609,7773.584905660377,32.2985663222,34.8501308675,2004
2004-11-21,2004-11-21,"גד מכנס 39, נתניה",גד מכנס 39,8262-36-15,דירה בבית קומות,4.0,שביעית,85.34,1109000,,,1960.0,,7.0,7708760560,1,826236,False,,נתניה,מכנס גד,,8262-36-15,8262/36,12995.078509491446,32.3258226782,34.8498777306,2004
2004-11-21,2004-11-21,"היהלום 18, נתניה",היהלום 18,8266-7-7,חנות,,קרקע,,87000,,,1970.0,,4.0,7770342916,1,82667,False,,נתניה,היהלום,,8266-7-7,8266/7,,32.3288044271,34.8616178922,2004
2004-11-21,2004-11-21,"הגליל 21, נתניה",הגליל 21,8260-229-4,דירה בבית קומות,2.0,ראשונה,55.0,426000,,,1960.0,,3.0,7708759376,1,8260229,True,-13% ב 5 שנים,נתניה,הגליל,-2.6,8260-229-4,8260/229,7745.454545454545,32.3228875424,34.854092739,2004
2004-11-21,2004-11-21,"הכרמל 10, נתניה",הכרמל 10,8260-180-1,מחסנים,,קרקע,24.95,87000,,,1980.0,,6.0,7709600682,1,8260180,False,,נתניה,הכרמל,,8260-180-1,8260/180,3486.973947895792,32.3252205481,34.8554849367,2004
2004-11-18,2004-11-18,"שמחה ארליך 12, נתניה",שמחה ארליך 12,8448-6-25,דירה בבית קומות,5.0,תשיעית,167.1,1206000,,,2000.0,,10.0,7708668948,1,84486,False,,נתניה,ארליך שמחה,,8448-6-25,8448/6,7217.235188509874,32.2994434836,34.8474826842,2004
2004-11-18,2004-11-18,"התנאים 3, נתניה",התנאים 3,8230-32-1,דירה בבית קומות,6.0,קרקע+ראשונה+שניה,180.3,1250000,,,1980.0,,,7770157842,1,823032,False,,נתניה,התנאים,,8230-32-1,8230/32,6932.889628397115,32.3390776339,34.867461775,2004
2004-11-18,2004-11-18,"לילינבלום 4, נתניה",לילינבלום 4,8261-2-9,דירה בבית קומות,3.0,שניה,65.57,394000,,,1970.0,,4.0,7708786312,1,82612,False,,נתניה,לילינבלום,,8261-2-9,8261/2,6008.845508616746,32.3252258222,34.8579334036,2004
2004-11-18,2004-11-18,"הרב קוק 10, נתניה",הרב קוק 10,8268-78-20,דירה בבית קומות,3.0,רביעית,65.0,504000,,,1964.0,,4.0,7709976750,1,826878,False,,נתניה,הרב קוק,,8268-78-20,8268/78,7753.846153846154,32.330857189,34.8538694086,2004
2004-11-18,2004-11-18,"ז'בוטינסקי 30, נתניה",ז'בוטינסקי 30,8258-25-6,דירה בבית קומות,3.0,שניה,62.5,630000,,,1960.0,,4.0,7709066402,1,825825,False,,נתניה,ז'בוטינסקי,,8258-25-6,8258/25,10080.0,32.3217896678,34.8482606897,2004
2004-11-18,2004-11-18,"הרב שמואל הרטום 29, נתניה",הרב שמואל הרטום 29,8006-166-125,דירה בבית קומות,3.0,שתים עשרה,73.95,645000,,,2005.0,,13.0,7709133520,1,8006166,False,,נתניה,הרב הרטום שמואל,,8006-166-125,8006/166,8722.10953346856,32.3100586144,34.8760038009,2004
2004-11-18,2004-11-18,"ירמיהו הלפרן 5, נתניה",ירמיהו הלפרן 5,8259-79-12,דירה בבית קומות,3.0,שישית,79.5,636000,,,1986.0,,7.0,7708542038,1,825979,False,,נתניה,הלפרין ירמיהו,,8259-79-12,8259/79,8000.0,32.3204526001,34.8497216851,2004
2004-11-18,2004-11-18,"בן-אב""י 19, נתניה","בן-אב""י 19",8259-131-1,דירה בבית קומות,4.0,ראשונה,76.15,662000,,,1977.0,,6.0,7709032140,1,8259131,False,,נתניה,"בן אב""י",,8259-131-1,8259/131,8693.368351936966,32.3193155928,34.8505941696,2004
2004-11-17,2004-11-17,"ארלוזורוב 15, נתניה",ארלוזורוב 15,8217-18-2,דירה בבית קומות,2.0,קרקע,23.75,509000,,,1950.0,,,7708727112,1,821718,False,,נתניה,ארלוזורוב,,8217-18-2,8217/18,21431.57894736842,32.3119715834,34.8791298583,2004
2004-11-17,2004-11-17,"הרב קוק 10, נתניה",הרב קוק 10,8268-78-43,דירה בבית קומות,4.0,רביעית,78.0,587000,,,1964.0,,4.0,7709210480,1,826878,False,,נתניה,הרב קוק,,8268-78-43,8268/78,7525.641025641025,32.330857189,34.8538694086,2004
2004-11-17,2004-11-17,"בני בנימין 55, נתניה",בני בנימין 55,8568-124-10,דירה בבית קומות,5.0,חמישית,111.2,1103000,,,2006.0,,7.0,7708714828,1,8568124,False,,נתניה,בני בנימין,,8568-124-10,8568/124,9919.06474820144,32.2948449869,34.8421201637,2004
2004-11-17,2004-11-17,"בן-אב""י 44, נתניה","בן-אב""י 44",8256-123-50,דירה בבית קומות,4.0,שישית,87.8,658000,,,1987.0,,7.0,7708828344,1,8256123,False,,נתניה,"בן אב""י",,8256-123-50,8256/123,7494.305239179955,32.3179656041,34.8529791714,2004
2004-11-17,2004-11-17,"ברודצקי 15, נתניה",ברודצקי 15,8260-173-11,דירה בבית קומות,2.0,שלישית,49.0,342000,,,1960.0,,2.0,7708821610,1,8260173,False,,נתניה,ברודצקי,,8260-173-11,8260/173,6979.591836734694,32.3245529982,34.8558222415,2004
2004-11-17,2004-11-17,"הרב קלישר 14, נתניה",הרב קלישר 14,8267-824-2,דירה בבית קומות,3.0,ראשונה,48.4,504000,,,1950.0,,2.0,7708458344,1,8267824,False,,נתניה,הרב קלישר,,8267-824-2,8267/824,10413.223140495867,32.3299334463,34.8646867095,2004
2004-11-16,2004-11-16,"יהושע טהון 5, נתניה",יהושע טהון 5,8273-74-1,דירה בבית קומות,4.0,ראשונה,88.12,616000,,,1975.0,,5.0,7709335614,1,827374,False,,נתניה,טהון יהושע,,8273-74-1,8273/74,6990.46754425783,32.3392915789,34.8561966165,2004
2004-11-16,2004-11-16,"דוד המלך 3, נתניה",דוד המלך 3,8270-92-16,דירה בבית קומות,3.0,חמישית,67.31,1161000,,,2002.0,,10.0,7708892428,1,827092,False,,נתניה,דוד המלך,,8270-92-16,8270/92,17248.551478235033,32.3314774495,34.8509379916,2004
2004-11-16,2004-11-16,"דגניה 46, נתניה",דגניה 46,8006-48-8,דירה בבית קומות,4.0,שניה,96.61,680000,,,2005.0,,10.0,7708542630,1,800648,False,,נתניה,דגניה,,8006-48-8,8006/48,7038.608839664631,32.3087475867,34.8743313393,2004
2004-11-16,2004-11-16,"גבעת חיים 14, נתניה",גבעת חיים 14,8267-150-9,דירה בבית קומות,5.0,שלישית,135.16,1019000,,,2004.0,,9.0,7709875962,1,8267150,False,,נתניה,גבעת חיים,,8267-150-9,8267/150,7539.212784847588,32.3359116429,34.8579905533,2004
2004-11-15,2004-11-15,"סמילנסקי 4, נתניה",סמילנסקי 4,8264-134-52,משרד,,שישית,151.74,948000,,,1980.0,,9.0,7710194088,1,8264134,False,,נתניה,סמילנסקי,,8264-134-52,8264/134,6247.528667457493,32.3285419869,34.8558974069,2004
2004-11-15,2004-11-15,"גבעת חיים 14, נתניה",גבעת חיים 14,8267-150-15,דירה בבית קומות,5.0,חמישית,135.16,1081000,,,2004.0,,9.0,7709366842,1,8267150,False,,נתניה,גבעת חיים,,8267-150-15,8267/150,7997.928381177863,32.3359116429,34.8579905533,2004
2004-11-15,2004-11-15,"גד מכנס 5, נתניה",גד מכנס 5,8263-108-5,דירה בבית קומות,3.0,ראשונה,71.1,617000,,,1970.0,,5.0,7708931500,1,8263108,False,,נתניה,מכנס גד,,8263-108-5,8263/108,8677.918424753869,32.3295404684,34.8502214864,2004
2004-11-15,2004-11-15,"מלחמת ששת הימים 25, נתניה",מלחמת ששת הימים 25,8267-96-17,דירה בבית קומות,4.0,חמישית,85.1,692000,,,1970.0,,7.0,7708604346,1,826796,False,,נתניה,מלחמת ששת הימים,,8267-96-17,8267/96,8131.609870740306,32.3318331882,34.8604023782,2004
2004-11-15,2004-11-15,"גורדון 38, נתניה",גורדון 38,8269-105-6,דירה בבית קומות,2.0,ראשונה,59.0,439000,,,1950.0,,2.0,7708477880,1,8269105,False,,נתניה,גורדון,,8269-105-6,8269/105,7440.677966101695,32.33402136,34.8582860249,2004
2004-11-14,2004-11-14,"הגאולה 2, נתניה",הגאולה 2,8241-2-1,דירה בבית קומות,3.0,,80.0,894000,,,1950.0,,,7708278302,1,82412,False,,נתניה,הגאולה,,8241-2-1,8241/2,11175.0,32.3154269786,34.8576396058,2004
2004-11-14,2004-11-14,"דוד המלך 23, נתניה",דוד המלך 23,8270-31-16,דירה בבית קומות,3.0,שביעית,88.0,747000,,,1970.0,,8.0,7709007202,1,827031,False,,נתניה,דוד המלך,,8270-31-16,8270/31,8488.636363636364,32.3345337943,34.8519753815,2004
2004-11-14,2004-11-14,"בן-יהודה 32, נתניה",בן-יהודה 32,8259-198-8,דירה בבית קומות,5.0,שלישית,127.65,772000,,,1980.0,,9.0,7709396146,1,8259198,False,,נתניה,בן יהודה,,8259-198-8,8259/198,6047.786917352135,32.3213041696,34.8512789918,2004
2004-11-14,2004-11-14,"ויצמן 18, נתניה",ויצמן 18,8267-712-70,דירה בבית קומות,2.0,שניה,38.0,283000,,,1960.0,,10.0,7708367990,1,8267712,False,8% ב 3.8 שנים,נתניה,ויצמן,2.11,8267-712-70,8267/712,7447.368421052632,32.330650978,34.8592957358,2004
2004-11-14,2004-11-14,"קרליבך 3, נתניה",קרליבך 3,8262-57-1,דירה בבית קומות,4.0,1אשונה,82.0,819000,,,1970.0,,6.0,7708274010,1,826257,False,48% ב 1.5 שנים,נתניה,קרליבך,32.0,8262-57-1,8262/57,9987.80487804878,32.3248520458,34.8505298421,2004
2004-11-14,2004-11-14,"יהושע טהון 20, נתניה",יהושע טהון 20,8273-375-21,דירה בבית קומות,3.0,ראשונה,42.0,332000,,,1960.0,,4.0,7708894352,1,8273375,False,,נתניה,טהון יהושע,,8273-375-21,8273/375,7904.761904761905,32.3410659874,34.8568779743,2004
2004-11-14,2004-11-14,"לבון פנחס 28, נתניה",לבון פנחס 28,7958-91-91,דירה בבית קומות,3.0,שביעית,65.2,354000,,,1970.0,,8.0,7708374724,1,795891,False,,נתניה,לבון פנחס,,7958-91-91,7958/91,5429.447852760736,32.2820221552,34.8528294904,2004
2004-11-11,2004-11-11,"הכרמל 6, נתניה",הכרמל 6,8260-182-3,דירה בבית קומות,2.0,ראשונה,59.45,352000,,,1956.0,,3.0,7708300872,1,8260182,False,,נתניה,הכרמל,,8260-182-3,8260/182,5920.94196804037,32.3253022567,34.8551143113,2004
2004-11-11,2004-11-11,"ניצה 1, נתניה",ניצה 1,8270-140-65,דירה בבית קומות,2.0,שמינית,44.2,576000,,,1970.0,,14.0,7709830230,1,8270140,False,,נתניה,ניצה,,8270-140-65,8270/140,13031.674208144796,32.3355663854,34.8515103327,2004
2004-11-10,2004-10-11,"אנדריוס 4, נתניה",אנדריוס 4,8271-217-31,דירה בבית קומות,6.0,שמינית,115.4,938000,,,1990.0,,9.0,7707482654,1,8271217,False,,נתניה,אנדריוס,,8271-217-31,8271/217,8128.249566724437,32.3352780878,34.8538785162,2004
2004-11-10,2004-10-11,"נורדאו 35, נתניה",נורדאו 35,7944-31-5,דירה בבית קומות,2.0,ראשונה,36.0,253000,,,1960.0,,3.0,7707331398,1,794431,False,,נתניה,נורדאו,,7944-31-5,7944/31,7027.777777777777,32.2809697141,34.8563894576,2004
2004-11-10,2004-10-11,"קנדי 12, נתניה",קנדי 12,8274-272-2,דירה בבית קומות,6.0,קרקע+ראשונה,185.45,1335000,,,2000.0,,,7707107326,1,8274272,False,,נתניה,קנדי,,8274-272-2,8274/272,7198.705850633594,32.343544057,34.8634592459,2004
2004-11-10,2004-10-11,"דיזנגוף 51, נתניה",דיזנגוף 51,8264-124-2,דירה בבית קומות,3.0,רביעית,75.0,467000,,,1960.0,,4.0,7707531050,1,8264124,False,,נתניה,דיזנגוף,,8264-124-2,8264/124,6226.666666666667,32.3273920016,34.8529458627,2004
2004-11-09,2004-09-11,"הנוטע 9, נתניה",הנוטע 9,8265-100-7,דירה בבית קומות,2.0,שלישית,50.0,400000,,,1950.0,,1.0,7707155500,1,8265100,False,,נתניה,הנוטע,,8265-100-7,8265/100,8000.0,32.3265446683,34.8557594905,2004
2004-11-08,2004-08-11,"ניצה 22, נתניה",ניצה 22,8272-165-74,דירה בבית קומות,2.0,חמישית,49.5,680000,,,1980.0,,10.0,7707221508,1,8272165,False,,נתניה,ניצה,,8272-165-74,8272/165,13737.373737373737,32.3396442862,34.853206656,2004
2004-11-08,2004-08-11,"התהילה 24, נתניה",התהילה 24,8247-165-1,דירה בבית קומות,5.0,,120.0,2947000,,,2004.0,,,7706002210,1,8247165,False,,נתניה,התהילה,,8247-165-1,8247/165,24558.33333333333,32.3066004048,34.8440972294,2004
2004-11-08,2004-08-11,"בן-צבי 46, נתניה",בן-צבי 46,7932-448-2,דירה בבית קומות,4.0,ראשונה,100.59,585000,,,1994.0,,8.0,7705222694,1,7932448,False,,נתניה,בן צבי,,7932-448-2,7932/448,5815.687444079928,32.3004306699,34.8534491223,2004
2004-11-08,2004-08-11,"הבריגדה היהודית 15, נתניה",הבריגדה היהודית 15,8448-30-5,דירה בבית קומות,4.5,שניה,102.15,830000,,,2005.0,,10.0,7705908378,1,844830,False,,נתניה,הבריגדה היהודית,,8448-30-5,8448/30,8125.30592266275,32.2965002158,34.8448836514,2004
2004-11-08,2004-08-11,"רבי טרפון 13, נתניה",רבי טרפון 13,8273-19-5,דירה בבית קומות,3.0,שניה,72.0,292000,,,1999.0,,,7705572492,1,827319,False,,נתניה,רבי טרפון,,8273-19-5,8273/19,4055.555555555556,32.3450124124,34.8603078108,2004
2004-11-07,2004-07-11,"הרב רפאל 12, נתניה",הרב רפאל 12,7929-31-34,דירה בבית קומות,3.0,ראשונה,62.0,430000,,,1987.0,,8.0,7704778250,1,792931,False,,נתניה,הרב רפאל,,7929-31-34,7929/31,6935.4838709677415,32.2859111342,34.8565876539,2004
2004-11-07,2004-07-11,"יעקב דורי 6, נתניה",יעקב דורי 6,8448-58-109,דירה בבית קומות,5.0,תשיעית,119.2,1065000,,,2005.0,,19.0,7703874044,1,844858,False,,נתניה,דורי יעקב,,8448-58-109,8448/58,8934.563758389262,32.2980133131,34.8465200405,2004
2004-11-07,2004-07-11,"לבונטין 4, נתניה",לבונטין 4,8261-116-23,דירה בבית קומות,4.0,רביעית,104.18,806000,,,1982.0,,7.0,7704181736,1,8261116,False,,נתניה,לבונטין,,8261-116-23,8261/116,7736.609713956613,32.3240741242,34.859467934,2004
2004-11-07,2004-07-11,"הרצל 41, נתניה",הרצל 41,8266-54-12,חנות,,,40.0,672000,,,1950.0,,5.0,7704402700,1,826654,False,,נתניה,הרצל,,8266-54-12,8266/54,16800.0,32.3279631141,34.8596268364,2004
2004-11-06,2004-06-11,"ישראל בורגנסקי 1, נתניה",ישראל בורגנסקי 1,8256-92-6,דירה בבית קומות,5.0,רביעית,125.0,413000,,,1980.0,,3.0,7702493796,1,825692,False,,נתניה,בורגנסקי ישראל,,8256-92-6,8256/92,3304.0,32.3186369935,34.8510857944,2004
2004-11-06,2004-06-11,"ברוך רם 21, נתניה",ברוך רם 21,8258-39-4,דירה בבית קומות,4.0,שניה+שלישית,87.08,1358000,,,1999.0,,7.0,7703253850,1,825839,False,,נתניה,רם ברוך,,8258-39-4,8258/39,15594.85530546624,32.3202157646,34.8474017321,2004
2004-11-05,2004-05-11,"בן-אב""י 41, נתניה","בן-אב""י 41",8260-340-13,דירה בבית קומות,4.0,רביעית,88.0,717000,,,1985.0,,7.0,7701110958,1,8260340,False,10% ב 0.8 שנים,נתניה,"בן אב""י",12.5,8260-340-13,8260/340,8147.727272727273,32.3187724281,34.853062372,2004
2004-11-05,2004-05-11,"מזא""ה 1, נתניה","מזא""ה 1",8228-178-3,דירה בבית קומות,5.0,מרתף + קרקע + ראשונה,181.32,995000,,,1997.0,,,7703075066,1,8228178,False,4% ב 5.7 שנים,נתניה,"מזא""ה",0.7,8228-178-3,8228/178,5487.535848224135,32.3425613297,34.8693651896,2004
2004-11-05,2004-05-11,"הבריגדה היהודית 15, נתניה",הבריגדה היהודית 15,8448-30-30,דירה בבית קומות,6.0,עשירית,144.9,1350000,,,2005.0,,10.0,7701484658,1,844830,False,,נתניה,הבריגדה היהודית,,8448-30-30,8448/30,9316.770186335403,32.2965002158,34.8448836514,2004
2004-11-05,2004-05-11,"רמז דוד 14, נתניה",רמז דוד 14,8264-83-1,משרד,,קרקע + ראשונה,273.72,1272000,,,1960.0,,3.0,7701159946,1,826483,True,-2% ב 5.9 שנים,נתניה,רמז דוד,-0.34,8264-83-1,8264/83,4647.084612012275,32.327354065,34.8533878995,2004
2004-11-04,2004-04-11,"דגניה 48, נתניה",דגניה 48,8006-46-55,דירה בבית קומות,4.0,רביעית,106.2,729000,,,2004.0,,10.0,7700176338,1,800646,False,,נתניה,דגניה,,8006-46-55,8006/46,6864.406779661017,32.3078187547,34.8741716047,2004
2004-11-04,2004-04-11,"ז'בוטינסקי 3, נתניה",ז'בוטינסקי 3,8262-47-4,דירה בבית קומות,4.0,שניה,93.58,1139000,,,1998.0,,9.0,7700267284,1,826247,False,36% ב 5.6 שנים,נתניה,ז'בוטינסקי,6.43,8262-47-4,8262/47,12171.404146185085,32.3246766876,34.8498660022,2004
2004-11-03,2004-03-11,"אברהם שפיגלמן 6, נתניה",אברהם שפיגלמן 6,9901-43-112,דירה בבית קומות,4.0,רביעית,85.6,650000,,,2005.0,,9.0,7699345984,1,990143,False,,נתניה,שפיגלמן אברהם,,9901-43-112,9901/43,7593.457943925234,32.3096610417,34.8727820496,2004
2004-11-03,2004-03-11,"הבריגדה היהודית 15, נתניה",הבריגדה היהודית 15,8448-30-27,דירה בבית קומות,4.5,תשיעית,109.8,850000,,,2005.0,,10.0,7699400300,1,844830,False,,נתניה,הבריגדה היהודית,,8448-30-27,8448/30,7741.347905282331,32.2965002158,34.8448836514,2004
2004-11-03,2004-03-11,"הבריגדה היהודית 48, נתניה",הבריגדה היהודית 48,8449-31-7,דירה בבית קומות,4.0,קומה ‎2‏,102.49,804000,,,2006.0,,13.0,7699412510,1,844931,False,,נתניה,הבריגדה היהודית,,8449-31-7,8449/31,7844.6677724656065,32.2954000711,34.8436042339,2004
2004-11-03,2004-03-11,"בר יהודה 19, נתניה",בר יהודה 19,7944-67-1,דירה בבית קומות,3.0,קרקע,53.0,640000,,,1963.0,,2.0,7698902798,1,794467,False,,נתניה,בר יהודה,,7944-67-1,7944/67,12075.471698113208,32.282221541,34.8542538396,2004
2004-11-02,2004-02-11,"ניצה 26, נתניה",ניצה 26,8272-283-110,דירה בבית קומות,4.0,קומה ‎5‏,104.64,1312000,,,2008.0,,34.0,7703903348,1,8272283,False,,נתניה,ניצה,,8272-283-110,8272/283,12538.22629969419,32.3404813199,34.8538271361,2004
2004-11-02,2004-02-11,"גורדון 24, נתניה",גורדון 24,8269-17-35,דירה בבית קומות,2.0,שניה,47.0,470000,,,1969.0,,2.0,7698443628,1,826917,False,,נתניה,גורדון,,8269-17-35,8269/17,10000.0,32.3321482027,34.8581403833,2004
2004-11-02,2004-02-11,"יואל סלומון 14, נתניה",יואל סלומון 14,8271-87-5,,3.0,קרקע,76.46,528000,,,1960.0,,3.0,7697874050,1,827187,False,,נתניה,סלומון יואל,,8271-87-5,8271/87,6905.571540674863,32.3326029635,34.8559599527,2004
2004-11-02,2004-02-11,"גולדה מאיר 21, נתניה",גולדה מאיר 21,7928-27-116,,4.0,אחת עשרה,84.62,605000,,,1995.0,,18.0,7698452286,1,792827,False,,נתניה,גולדה מאיר,,7928-27-116,7928/27,7149.610021271566,32.2761000009,34.8526535429,2004
2004-11-02,2004-02-11,"הדליות 40, נתניה",הדליות 40,8276-207-1,,5.0,,190.0,1541000,,,1980.0,,1.0,7697953452,1,8276207,False,,נתניה,הדליות,,8276-207-1,8276/207,8110.526315789473,32.2727783111,34.8398522429,2004
2004-11-01,2004-01-11,"מקדונלד 24, נתניה",מקדונלד 24,8271-164-41,,5.0,שביעית,122.6,784000,,,1983.0,,8.0,7696587190,1,8271164,False,,נתניה,מקדונלד,,8271-164-41,8271/164,6394.779771615008,32.3341484877,34.8534842461,2004
2004-11-01,2004-01-11,"איכילוב 3, נתניה",איכילוב 3,8273-386-34,,3.0,ראשונה,53.0,333000,,,1960.0,,4.0,7697016982,1,8273386,False,,נתניה,איכילוב,,8273-386-34,8273/386,6283.018867924528,32.3395894127,34.8570179007,2004
2004-10-31,2004-10-31,"ויצמן 30, נתניה",ויצמן 30,8267-86-14,דירה בבית קומות,3.0,שלישית,58.0,558000,,,1970.0,,5.0,7708323442,1,826786,False,6% ב 0.5 שנים,נתניה,ויצמן,12.0,8267-86-14,8267/86,9620.689655172411,32.3323175999,34.8595413303,2004
2004-10-31,2004-10-31,"טום לנטוס 19, נתניה",טום לנטוס 19,9901-13-28,דירה בבית קומות,5.0,חמישית,121.7,970000,,,2004.0,,6.0,7707991330,1,990113,False,,נתניה,לנטוס טום,,9901-13-28,9901/13,7970.419063270337,32.3080518031,34.8703239126,2004
2004-10-31,2004-10-31,"הרב ברוך הלברשטם 18, נתניה",הרב ברוך הלברשטם 18,8273-378-20,דירה בבית קומות,4.0,שניה,85.0,396000,,,1960.0,,2.0,7707819872,1,8273378,False,,נתניה,הרב הלברשטם ברוך,,8273-378-20,8273/378,4658.823529411765,32.3422550971,34.8569765583,2004
2004-10-31,2004-10-31,"ויצמן 50, נתניה",ויצמן 50,8267-36-16,דירה בבית קומות,4.0,שביעית,92.71,893000,,,2005.0,,9.0,7707851470,1,826736,False,,נתניה,ויצמן,,8267-36-16,8267/36,9632.186387660448,32.3342362536,34.8597094749,2004
2004-10-30,2004-10-30,"בנימין 67, נתניה",בנימין 67,8260-29-17,דירה בבית קומות,3.0,רביעית,67.9,580000,,,1970.0,,5.0,7708543222,1,826029,False,,נתניה,בנימין,,8260-29-17,8260/29,8541.973490427097,32.3196088123,34.8559129201,2004
2004-10-29,2004-10-29,"בן-אב""י 41, נתניה","בן-אב""י 41",8260-340-9,דירה בבית קומות,4.0,שלישית,76.0,580000,,,1985.0,,7.0,7708151318,1,8260340,False,,נתניה,"בן אב""י",,8260-340-9,8260/340,7631.578947368421,32.3187724281,34.853062372,2004
2004-10-29,2004-10-29,"תשרי 7, נתניה",תשרי 7,9904-24-37,דירה בבית קומות,4.0,שלישית,99.28,700000,,,2004.0,,8.0,7708476104,1,990424,False,,נתניה,תשרי,,9904-24-37,9904/24,7050.765511684126,32.297326963,34.8709795681,2004
2004-10-28,2004-10-28,"יצחק מודעי 3, נתניה",יצחק מודעי 3,8449-10-7,דירה בבית קומות,4.0,שלישית,87.9,739000,,,2004.0,,9.0,7707752014,1,844910,False,,נתניה,מודעי יצחק,,8449-10-7,8449/10,8407.281001137655,32.2939592224,34.8435514284,2004
2004-10-28,2004-10-28,"נר הלילה 12, נתניה",נר הלילה 12,7992-12-2,דירה בבית קומות,7.0,קרקע + ראשונה,155.44,1501000,,,1997.0,,2.0,7707924804,1,799212,False,,נתניה,נר הלילה,,7992-12-2,7992/12,9656.45908389089,32.275687189,34.8504150016,2004
2004-10-28,2004-10-28,"רבי עקיבא 53, נתניה",רבי עקיבא 53,8274-195-1,דירה בבית קומות,5.0,,150.0,1176000,,,1982.0,,,7708009016,1,8274195,False,,נתניה,רבי עקיבא,,8274-195-1,8274/195,7840.0,32.3427464693,34.8638382723,2004
2004-10-28,2004-10-28,"זנגביל 39, נתניה",זנגביל 39,8267-74-0,קוטג' חד משפחתי,6.0,ראשונה,536.0,1209000,,,2006.0,,6.0,7708233014,1,826774,False,,נתניה,זנגביל,,8267-74-0,8267/74,2255.597014925373,32.3331823858,34.8611653347,2004
2004-10-27,2004-10-27,"בני בנימין 55, נתניה",בני בנימין 55,8568-124-12,דירה בבית קומות,5.0,ששית,111.2,1108000,,,2006.0,,7.0,7708717862,1,8568124,False,,נתניה,בני בנימין,,8568-124-12,8568/124,9964.028776978415,32.2948449869,34.8421201637,2004
2004-10-26,2004-10-26,"גורדון 9, נתניה",גורדון 9,8269-47-26,דירה בבית קומות,2.0,חמישית,46.08,434000,,,1966.0,,5.0,7709537856,1,826947,False,,נתניה,גורדון,,8269-47-26,8269/47,9418.402777777776,32.3305201967,34.8575220463,2004
2004-10-26,2004-10-26,"תשרי 7, נתניה",תשרי 7,9904-24-41,דירה בבית קומות,4.0,רביעית,103.91,713000,,,2004.0,,8.0,7708475512,1,990424,False,,נתניה,תשרי,,9904-24-41,9904/24,6861.70724665576,32.297326963,34.8709795681,2004
2004-10-26,2004-10-26,"עגנון 8, נתניה",עגנון 8,7958-84-1,דירה בבית קומות,3.0,ראשונה,66.0,407000,,,1978.0,,8.0,7707894316,1,795884,False,,נתניה,עגנון,,7958-84-1,7958/84,6166.666666666667,32.2814556064,34.8510668687,2004
2004-10-26,2004-10-26,"בן צבי 5, נתניה",בן צבי 5,8242-220-10,דירה בבית קומות,3.0,שלישית,65.47,438000,,,1970.0,,3.0,7708812434,1,8242220,False,,נתניה,בן צבי,,8242-220-10,8242/220,6690.0870627768445,32.3116471044,34.8555727661,2004
2004-10-26,2004-10-26,"יוסף 10, נתניה",יוסף 10,9904-54-63,דירה בבית קומות,4.0,שלישית,91.6,735000,,,2005.0,,6.0,7708088418,1,990454,False,,נתניה,יוסף,,9904-54-63,9904/54,8024.017467248908,32.2973461822,34.872079724,2004
2004-10-25,2004-10-25,"פנחס לבון 22, נתניה",פנחס לבון 22,7958-92-1,דירה בבית קומות,4.0,ראשונה,85.76,551000,,,1992.0,,9.0,7707976826,1,795892,False,,נתניה,לבון פנחס,,7958-92-1,7958/92,6424.906716417911,32.2826038148,34.8531351438,2004
2004-10-25,2004-10-25,"ניצה 34, נתניה",ניצה 34,8272-208-37,דירה בבית קומות,5.0,עשירית,136.76,1384000,,,1992.0,,11.0,7708180030,1,8272208,False,,נתניה,ניצה,,8272-208-37,8272/208,10119.91810470898,32.3421024227,34.8536269712,2004
2004-10-25,2004-10-25,"יוחנן הסנדלר 8, נתניה",יוחנן הסנדלר 8,8230-267-3,דירה בבית קומות,2.0,שניה,40.74,283000,,,1960.0,,3.0,7707813730,1,8230267,False,,נתניה,יוחנן הסנדלר,,8230-267-3,8230/267,6946.489936180657,32.3367762989,34.8691451231,2004
2004-10-25,2004-10-25,"ויצמן 62, נתניה",ויצמן 62,8267-278-11,דירה בבית קומות,4.0,רביעית,94.31,686000,,,1989.0,,8.0,7707698216,1,8267278,False,,נתניה,ויצמן,,8267-278-11,8267/278,7273.883999575866,32.3360960556,34.8598919144,2004
2004-10-25,2004-10-25,"ז'בוטינסקי 42, נתניה",ז'בוטינסקי 42,8258-37-1,דירה בבית קומות,3.0,ראשונה,68.8,620000,,,1970.0,,5.0,7707547996,1,825837,False,3% ב 4.7 שנים,נתניה,ז'בוטינסקי,0.64,8258-37-1,8258/37,9011.627906976744,32.3204718524,34.8479057151,2004
2004-10-24,2004-10-24,"סוקולוב 23, נתניה",סוקולוב 23,8274-707-31,דירה בבית קומות,4.0,שמינית,100.7,740000,,,1997.0,,9.0,7708924174,1,8274707,False,,נתניה,סוקולוב,,8274-707-31,8274/707,7348.560079443892,32.3421343223,34.8623392497,2004
2004-10-24,2004-10-24,"הלילך 1, נתניה",הלילך 1,7926-134-10,דירה בבית קומות,4.0,חמישית,102.65,1190000,,,1994.0,,9.0,7707622440,1,7926134,False,59% ב 3.8 שנים,נתניה,הלילך,15.53,7926-134-10,7926/134,11592.791037506087,32.273565074,34.8414720152,2004
2004-10-24,2004-10-24,"אמנון ותמר 2, נתניה",אמנון ותמר 2,7992-48-24,דירה בבית קומות,4.0,שישית,88.0,910000,,,1997.0,,9.0,7707915554,1,799248,False,,נתניה,אמנון ותמר,,7992-48-24,7992/48,10340.90909090909,32.2760790663,34.8470267291,2004
2004-10-24,2004-10-24,"הזוהר 4, נתניה",הזוהר 4,8252-151-1,קרקע למגורים,,שניה,210.0,1332000,,,2004.0,,1.0,7708964430,1,8252151,False,,נתניה,הזוהר,,8252-151-1,8252/151,6342.857142857143,32.3093925438,34.8454837681,2004
2004-10-22,2004-10-22,"ברודצקי 37, נתניה",ברודצקי 37,8260-218-8,דירה בבית קומות,2.0,שניה,47.5,399000,,,1960.0,,3.0,7708278894,1,8260218,False,,נתניה,ברודצקי,,8260-218-8,8260/218,8400.0,32.3220813129,34.8550578648,2004
2004-10-22,2004-10-22,"ניצה 26, נתניה",ניצה 26,8272-283-153,דירה בבית קומות,5.0,קומה ‎16‏,119.26,2265000,,,2008.0,,34.0,7707549180,1,8272283,False,,נתניה,ניצה,,8272-283-153,8272/283,18992.1180613785,32.3404813199,34.8538271361,2004
2004-10-22,2004-10-22,"בנימין 51, נתניה",בנימין 51,8260-98-20,דירה בבית קומות,2.0,חמישית,47.95,495000,,,1960.0,,6.0,7707775176,1,826098,False,,נתניה,בנימין,,8260-98-20,8260/98,10323.25338894682,32.3215134268,34.8563870812,2004
2004-10-21,2004-10-21,"רמב""ם 26, נתניה","רמב""ם 26",8242-273-31,דירה בבית קומות,3.0,שישית,69.9,542000,,,2000.0,,9.0,7708631134,1,8242273,True,-9% ב 5.8 שנים,נתניה,"רמב""ם",-1.55,8242-273-31,8242/273,7753.934191702431,32.3149347816,34.8609441015,2004
2004-10-21,2004-10-21,"פנחס לבון 22, נתניה",פנחס לבון 22,7958-92-21,דירה בבית קומות,4.0,שישית,85.76,555000,,,1992.0,,9.0,7707603126,1,795892,True,-1% ב 3.1 שנים,נתניה,לבון פנחס,-0.32,7958-92-21,7958/92,6471.548507462686,32.2826038148,34.8531351438,2004
2004-10-21,2004-10-21,"הקליר 12, נתניה",הקליר 12,8242-116-1,דירה בבית קומות,2.0,,40.0,288000,,,1950.0,,,7707761264,1,8242116,False,,נתניה,הקליר,,8242-116-1,8242/116,7200.0,32.3143495235,34.8598945757,2004
2004-10-21,2004-10-21,"בן-יהודה 3, נתניה",בן-יהודה 3,8259-195-4,דירה בבית קומות,4.0,ראשונה,92.95,755000,,,1985.0,,4.0,7708132374,1,8259195,False,12% ב 6.4 שנים,נתניה,בן יהודה,1.88,8259-195-4,8259/195,8122.646584185046,32.3242879206,34.8529908141,2004
2004-10-21,2004-10-21,"בנימין 44, נתניה",בנימין 44,8260-213-15,דירה בבית קומות,2.0,שניה,43.0,421000,,,1960.0,,5.0,7708609748,1,8260213,False,,נתניה,בנימין,,8260-213-15,8260/213,9790.697674418603,32.3225303126,34.8558238918,2004
2004-10-20,2004-10-20,"סמילנסקי 28, נתניה",סמילנסקי 28,8264-62-10,דירה בבית קומות,4.0,שלישית,95.49,761000,,,1960.0,,7.0,7707676386,1,826462,False,,נתניה,סמילנסקי,,8264-62-10,8264/62,7969.4208817677245,32.3261287932,34.8529158561,2004
2004-10-20,2004-10-20,"החצבים 39, נתניה",החצבים 39,8276-22-3,דירה בבית קומות,5.0,קרקע + ראשונה,132.5,1603000,,,1972.0,,2.0,7707868046,1,827622,False,,נתניה,החצבים,,8276-22-3,8276/22,12098.11320754717,32.268906235,34.8411750504,2004
2004-10-20,2004-10-20,"אשר 8, נתניה",אשר 8,9904-13-26,דירה בבית קומות,5.0,שישית,110.65,815000,,,2004.0,,7.0,7707891208,1,990413,False,,נתניה,אשר,,9904-13-26,9904/13,7365.567103479439,32.2981703984,34.871011957,2004
2004-10-20,2004-10-20,"ניצה 30, נתניה",ניצה 30,8272-8-41,דירה בבית קומות,5.0,שתים עשרה,125.0,2894000,,,1990.0,,9.0,7707458974,1,82728,False,,נתניה,ניצה,,8272-8-41,8272/8,23152.0,32.3410842709,34.8535620277,2004
2004-10-20,2004-10-20,"שבזי 4, נתניה",שבזי 4,8257-74-4,דירה בבית קומות,6.0,,150.0,1206000,,,1997.0,,1.0,7707743504,1,825774,False,,נתניה,שבזי,,8257-74-4,8257/74,8040.0,32.3144365896,34.8548252558,2004
2004-10-20,2004-10-20,"גולדה מאיר 21, נתניה",גולדה מאיר 21,7928-27-70,דירה בבית קומות,4.0,שניה,84.88,601000,,,1995.0,,18.0,7707924212,1,792827,False,,נתניה,גולדה מאיר,,7928-27-70,7928/27,7080.584354382659,32.2761000009,34.8526535429,2004
2004-10-20,2004-10-20,"הר מירון 4, נתניה",הר מירון 4,9901-15-68,דירה בבית קומות,5.0,שישית+שביעית,113.1,880000,,,2004.0,,6.0,7707725744,1,990115,False,,נתניה,הר מירון,,9901-15-68,9901/15,7780.725022104333,32.3095978637,34.8711282494,2004
2004-10-19,2004-10-19,"בוסל 60, נתניה",בוסל 60,8217-175-1,דירה בבית קומות,4.0,קרקע,120.0,826000,,,1950.0,,,7708690334,1,8217175,False,,נתניה,בוסל,,8217-175-1,8217/175,6883.333333333333,32.315945753,34.8825858397,2004
2004-10-19,2004-10-19,"ביאליק 3, נתניה",ביאליק 3,8270-51-10,דירה בבית קומות,3.0,שלישית,70.9,737000,,,1965.0,,5.0,7707461490,1,827051,False,,נתניה,ביאליק,,8270-51-10,8270/51,10394.922425952043,32.3323596402,34.8521428616,2004
2004-10-18,2004-10-18,"המייסדים 3, נתניה",המייסדים 3,8268-96-1,דירה בבית קומות,,רביעית,290.0,2148000,,,1950.0,,6.0,7708878960,1,826896,False,,נתניה,המייסדים,,8268-96-1,8268/96,7406.896551724138,32.3299329383,34.8548312815,2004
2004-10-18,2004-10-18,"הוז דב 9, נתניה",הוז דב 9,8230-264-17,דירה בבית קומות,3.0,שלישית,40.74,317000,,,1960.0,,3.0,7707736770,1,8230264,False,21% ב 4.8 שנים,נתניה,הוז דב,4.38,8230-264-17,8230/264,7781.050564555719,32.3368645291,34.8683229543,2004
2004-10-18,2004-10-18,"יצחק מודעי 3, נתניה",יצחק מודעי 3,8449-10-2,דירה בבית קומות,4.0,ראשונה,86.26,696000,,,2004.0,,9.0,7707685488,1,844910,False,,נתניה,מודעי יצחק,,8449-10-2,8449/10,8068.62972408996,32.2939592224,34.8435514284,2004
2004-10-18,2004-10-18,"מאיר אבנר 21, נתניה",מאיר אבנר 21,8234-128-1,קוטג' דו משפחתי,,ראשונה,167.0,1230000,,,1950.0,,1.0,7709080462,1,8234128,False,,נתניה,אבנר מאיר,,8234-128-1,8234/128,7365.269461077844,32.3255279687,34.8741183745,2004
2004-10-17,2004-10-17,"הרב שמואל הרטום 22, נתניה",הרב שמואל הרטום 22,8006-62-68,דירה בבית קומות,4.0,שישית,93.2,660000,,,2004.0,,9.0,7708902196,1,800662,False,,נתניה,הרב הרטום שמואל,,8006-62-68,8006/62,7081.545064377682,32.3084338219,34.8761736032,2004
2004-10-15,2004-10-15,"חיים כהן-מגורי 1, נתניה",חיים כהן-מגורי 1,7932-609-22,דירה בבית קומות,4.0,שישית,91.0,683000,,,2004.0,,14.0,7708977898,1,7932609,False,,נתניה,מגורי חיים כהן,,7932-609-22,7932/609,7505.494505494506,32.2985663222,34.8501308675,2004
2004-10-15,2004-10-15,"חיים כהן-מגורי 1, נתניה",חיים כהן-מגורי 1,7932-609-37,דירה בבית קומות,4.0,עשירית,93.0,732000,,,2004.0,,14.0,7708774620,1,7932609,False,,נתניה,מגורי חיים כהן,,7932-609-37,7932/609,7870.967741935484,32.2985663222,34.8501308675,2004
2004-10-14,2004-10-14,"אברהם שפירא 21, נתניה",אברהם שפירא 21,8260-489-5,דירה בבית קומות,4.0,שלישית,96.33,674000,,,1987.0,,6.0,7708854022,1,8260489,False,,נתניה,שפירא אברהם,,8260-489-5,8260/489,6996.781895567321,32.3218797804,34.8582362547,2004
2004-10-14,2004-10-14,"ניצה 26, נתניה",ניצה 26,8272-283-120,דירה בבית קומות,4.0,קומה ‎7‏,107.62,1920000,,,2008.0,,34.0,7708707502,1,8272283,False,,נתניה,ניצה,,8272-283-120,8272/283,17840.55008362758,32.3404813199,34.8538271361,2004
2004-10-14,2004-10-14,"ויצמן 73, נתניה",ויצמן 73,8267-136-22,דירה בבית קומות,2.0,רביעית,46.3,468000,,,1970.0,,5.0,7708203932,1,8267136,False,,נתניה,ויצמן,,8267-136-22,8267/136,10107.991360691143,32.3368111521,34.8591042975,2004
2004-10-14,2004-10-14,"חיים כהן-מגורי 1, נתניה",חיים כהן-מגורי 1,7932-609-33,דירה בבית קומות,4.0,תשיעית,93.0,715000,,,2004.0,,14.0,7708981598,1,7932609,False,,נתניה,מגורי חיים כהן,,7932-609-33,7932/609,7688.172043010752,32.2985663222,34.8501308675,2004
2004-10-14,2004-10-14,"גבעת חיים 14, נתניה",גבעת חיים 14,8267-150-3,דירה בבית קומות,5.0,ראשונה,135.16,904000,,,2004.0,,9.0,7707161716,1,8267150,False,,נתניה,גבעת חיים,,8267-150-3,8267/150,6688.369340041432,32.3359116429,34.8579905533,2004
2004-10-14,2004-10-14,"גבעת חיים 14, נתניה",גבעת חיים 14,8267-150-21,דירה בבית קומות,5.0,שביעית,135.16,1138000,,,2004.0,,9.0,7707921104,1,8267150,False,,נתניה,גבעת חיים,,8267-150-21,8267/150,8419.650784255697,32.3359116429,34.8579905533,2004
2004-10-13,2004-10-13,"חיים לסקוב 10, נתניה",חיים לסקוב 10,7926-12-3,דירה בבית קומות,3.5,שלישית,100.0,905000,,,1997.0,,,7707729444,1,792612,False,,נתניה,לסקוב חיים,,7926-12-3,7926/12,9050.0,32.271721889,34.8436787732,2004
2004-10-13,2004-10-13,"זלמן שניאור 2, נתניה",זלמן שניאור 2,7959-20-16,דירה בבית קומות,4.0,רביעית,80.0,506000,,,1970.0,,8.0,7707711684,1,795920,False,,נתניה,שניאור זלמן,,7959-20-16,7959/20,6325.0,32.2820018692,34.8471896259,2004
2004-10-13,2004-10-13,"ברודצקי 19, נתניה",ברודצקי 19,8260-175-11,דירה בבית קומות,6.0,שישית,132.7,940000,,,1970.0,,6.0,7708592580,1,8260175,False,,נתניה,ברודצקי,,8260-175-11,8260/175,7083.647324792766,32.3242400787,34.855702561,2004
2004-10-13,2004-10-13,"יהודה הלוי 44, נתניה",יהודה הלוי 44,8260-51-2,דירה בבית קומות,5.0,שניה,100.16,691000,,,1999.0,,7.0,7707916886,1,826051,True,-19% ב 5.8 שנים,נתניה,יהודה הלוי,-3.28,8260-51-2,8260/51,6898.961661341853,32.3195888694,34.8563587354,2004
2004-10-11,2004-11-10,"שמחה ארליך 8, נתניה",שמחה ארליך 8,8448-4-10,דירה בבית קומות,4.0,רביעית,105.8,860000,,,1999.0,,8.0,7708168486,1,84484,False,16% ב 4.9 שנים,נתניה,ארליך שמחה,3.27,8448-4-10,8448/4,8128.544423440454,32.2996418527,34.8469347094,2004
2004-10-11,2004-11-10,"הגולן 10, נתניה",הגולן 10,9901-31-17,דירה בבית קומות,4.0,רביעית,97.62,720000,,,2005.0,,7.0,7708410762,1,990131,False,,נתניה,הגולן,,9901-31-17,9901/31,7375.537799631223,32.3079938818,34.8722758515,2004
2004-10-11,2004-11-10,"אירוס הארגמן 52, נתניה",אירוס הארגמן 52,8628-29-12,דירה בבית קומות,4.0,שלישית + רביעית,97.9,752000,,,1990.0,,3.0,7708423638,1,862829,False,,נתניה,אירוס הארגמן,,8628-29-12,8628/29,7681.307456588355,32.2861766694,34.8461368106,2004
2004-10-11,2004-11-10,"שלונסקי 22, נתניה",שלונסקי 22,7960-13-10,דירה בבית קומות,3.0,ראשונה,60.08,344000,,,1970.0,,4.0,7708706910,1,796013,False,,נתניה,שלונסקי,,7960-13-10,7960/13,5725.699067909454,32.2864064734,34.8525876401,2004
2004-10-11,2004-11-10,"רמז דוד 4, נתניה",רמז דוד 4,8263-83-23,דירה בבית קומות,2.0,תשיעית,45.02,793000,,,1989.0,,8.0,7708672056,1,826383,False,,נתניה,רמז דוד,,8263-83-23,8263/83,17614.393602843178,32.3286624822,34.8518590053,2004
2004-10-11,2004-11-10,"בן-אב""י 46, נתניה","בן-אב""י 46",8256-124-55,דירה בבית קומות,4.0,שביעית,89.55,690000,,,1990.0,,7.0,7708250700,1,8256124,False,,נתניה,"בן אב""י",,8256-124-55,8256/124,7705.192629815746,32.3178213481,34.8535733461,2004
2004-10-11,2004-11-10,"שטמפפר 14, נתניה",שטמפפר 14,8264-113-20,דירה בבית קומות,4.0,שלישית,75.05,588000,,,1970.0,,7.0,7708190464,1,8264113,False,,נתניה,שטמפפר,,8264-113-20,8264/113,7834.776815456363,32.3281677709,34.8538832307,2004
2004-10-11,2004-11-10,"אוסישקין 13, נתניה",אוסישקין 13,8263-77-8,דירה בבית קומות,3.0,שניה,69.0,705000,,,1966.0,,5.0,7708967538,1,826377,False,20% ב 6.8 שנים,נתניה,אוסישקין,2.94,8263-77-8,8263/77,10217.391304347826,32.3282679396,34.8517105044,2004
2004-10-11,2004-11-10,"הבריגדה היהודית 11, נתניה",הבריגדה היהודית 11,8448-33-8,דירה בבית קומות,4.0,שלישית,102.79,816000,,,1995.0,,7.0,7708701360,1,844833,False,,נתניה,הבריגדה היהודית,,8448-33-8,8448/33,7938.5154197879165,32.2971249333,34.8452112341,2004
2004-10-10,2004-10-10,"יצחק מודעי 3, נתניה",יצחק מודעי 3,8449-10-5,דירה בבית קומות,4.0,שנייה,86.26,813000,,,2004.0,,9.0,7707889432,1,844910,False,,נתניה,מודעי יצחק,,8449-10-5,8449/10,9424.9942035706,32.2939592224,34.8435514284,2004
2004-10-10,2004-10-10,"בן-אב""י 3, נתניה","בן-אב""י 3",8259-123-21,דירה בבית קומות,5.0,שביעית,129.55,1081000,,,2004.0,,9.0,7708220286,1,8259123,False,,נתניה,"בן אב""י",,8259-123-21,8259/123,8344.268622153608,32.3197176198,34.8488046036,2004
2004-10-10,2004-10-10,"סמילנסקי 73, נתניה",סמילנסקי 73,8259-75-2,דירה בבית קומות,3.0,ראשונה,69.02,625000,,,1970.0,,5.0,7707170892,1,825975,False,,נתניה,סמילנסקי,,8259-75-2,8259/75,9055.34627644161,32.3221136307,34.8501469992,2004
2004-10-09,2004-09-10,"גולדה מאיר 22, נתניה",גולדה מאיר 22,7928-27-201,דירה בבית קומות,5.0,שתים עשרה,94.45,631000,,,1996.0,,17.0,7707248296,1,792827,False,,נתניה,גולדה מאיר,,7928-27-201,7928/27,6680.78348332451,32.2761000009,34.8526535429,2004
2004-10-09,2004-09-10,"גולדה מאיר 33, נתניה",גולדה מאיר 33,7928-23-14,דירה בבית קומות,4.0,רביעית,73.5,467000,,,1988.0,,8.0,7706030922,1,792823,True,-17% ב 4.5 שנים,נתניה,גולדה מאיר,-3.78,7928-23-14,7928/23,6353.741496598639,32.2775909551,34.8532486333,2004
2004-10-09,2004-09-10,"אמנון ותמר 2, נתניה",אמנון ותמר 2,7992-48-1,דירה בבית קומות,3.0,ראשונה,72.4,752000,,,1997.0,,9.0,7706104256,1,799248,False,,נתניה,אמנון ותמר,,7992-48-1,7992/48,10386.740331491712,32.2760790663,34.8470267291,2004
2004-10-08,2004-08-10,"הרב ריינס 24, נתניה",הרב ריינס 24,8232-80-4,דירה בבית קומות,4.0,שניה,71.0,587000,,,1980.0,,4.0,7705583518,1,823280,False,,נתניה,הרב ריינס,,8232-80-4,8232/80,8267.605633802817,32.3348388221,34.8656958131,2004
2004-10-08,2004-08-10,"ניצה 8, נתניה",ניצה 8,8272-220-91,דירה בבית קומות,4.0,תשיעית,107.2,1332000,,,1990.0,,11.0,7706219548,1,8272220,False,,נתניה,ניצה,,8272-220-91,8272/220,12425.373134328358,32.3364902037,34.8523790124,2004
2004-10-08,2004-08-10,"דוד רזניק 1, נתניה",דוד רזניק 1,8449-22-13,דירה בבית קומות,4.0,חמישית,96.2,678000,,,1996.0,,10.0,7705127456,1,844922,False,,נתניה,רזניק דוד,,8449-22-13,8449/22,7047.817047817048,32.2951699352,34.8451197984,2004
2004-10-08,2004-08-10,"חיים כהן-מגורי 1, נתניה",חיים כהן-מגורי 1,7932-609-25,דירה בבית קומות,4.0,שביעית,93.0,707000,,,2004.0,,14.0,7706435110,1,7932609,False,,נתניה,מגורי חיים כהן,,7932-609-25,7932/609,7602.150537634408,32.2985663222,34.8501308675,2004
2004-10-08,2004-08-10,"בן יהודה 1, נתניה",בן יהודה 1,8259-94-9,דירה בבית קומות,3.0,שניה,83.6,560000,,,1960.0,,3.0,7705261692,1,825994,False,,נתניה,בן יהודה,,8259-94-9,8259/94,6698.564593301436,32.3245083995,34.8530945512,2004
2004-10-08,2004-08-10,"הרב קוק 1, נתניה",הרב קוק 1,8268-49-24,דירה בבית קומות,2.0,שלישית,52.17,429000,,,1960.0,,3.0,7706301466,1,826849,False,,נתניה,הרב קוק,,8268-49-24,8268/49,8223.11673375503,32.3303051796,34.8527866349,2004
2004-10-06,2004-06-10,"לוטם 5, נתניה",לוטם 5,7992-45-13,דירה בבית קומות,4.0,שלישית,104.5,911000,,,2002.0,,18.0,7702617080,1,799245,False,,נתניה,לוטם,,7992-45-13,7992/45,8717.703349282297,32.274731775,34.8460744308,2004
2004-10-06,2004-06-10,"יהודה הלוי 27, נתניה",יהודה הלוי 27,8260-567-25,דירה בבית קומות,3.0,שישית,61.61,610000,,,1970.0,,7.0,7702588368,1,8260567,False,,נתניה,יהודה הלוי,,8260-567-25,8260/567,9900.9900990099,32.3214571434,34.8572518348,2004
2004-10-06,2004-06-10,"הסחלב 56, נתניה",הסחלב 56,7994-29-1,קרקע למגורים,,,625.0,1402000,,,,,,7704200088,1,799429,False,,נתניה,הסחלב,,7994-29-1,7994/29,2243.2,32.2720566536,34.8515573804,2004
2004-10-06,2004-06-10,"האלונים 16, נתניה",האלונים 16,9089-87-2,דירה בבית קומות,4.0,ראשונה,100.2,676000,,,2007.0,,16.0,7703236238,1,908987,False,,נתניה,האלונים,,9089-87-2,9089/87,6746.506986027944,32.3023316917,34.8777482746,2004
2004-10-06,2004-06-10,"בן-אב""י 41, נתניה","בן-אב""י 41",8260-340-10,דירה בבית קומות,3.0,שלישית,76.0,646000,,,1985.0,,7.0,7703110956,1,8260340,False,27% ב 5.3 שנים,נתניה,"בן אב""י",5.09,8260-340-10,8260/340,8500.0,32.3187724281,34.853062372,2004
2004-10-05,2004-05-10,"שטמפפר 3, נתניה",שטמפפר 3,8264-133-20,דירה בבית קומות,3.0,שניה,54.66,579000,,,1970.0,,6.0,7701393786,1,8264133,False,,נתניה,שטמפפר,,8264-133-20,8264/133,10592.755214050494,32.3288118899,34.8554723797,2004
2004-10-05,2004-05-10,"סוקולוב 23, נתניה",סוקולוב 23,8274-707-15,דירה בבית קומות,4.0,רביעית,100.7,716000,,,1997.0,,9.0,7702000512,1,8274707,False,,נתניה,סוקולוב,,8274-707-15,8274/707,7110.228401191658,32.3421343223,34.8623392497,2004
2004-10-05,2004-05-10,"בארי 48, נתניה",בארי 48,8267-947-5,דירה בבית קומות,4.0,שניה,100.08,801000,,,1998.0,,7.0,7701655598,1,8267947,False,,נתניה,בארי,,8267-947-5,8267/947,8003.597122302159,32.3375873001,34.8611794923,2004
2004-10-04,2004-04-10,"בנימין 39, נתניה",בנימין 39,8261-62-29,דירה בבית קומות,2.0,שלישית,45.5,519000,,,1960.0,,6.0,7700070666,1,826162,False,17% ב 6.1 שנים,נתניה,בנימין,2.79,8261-62-29,8261/62,11406.593406593409,32.3230226332,34.8566276284,2004
2004-10-03,2004-03-10,"גורדון 17, נתניה",גורדון 17,8269-120-16,דירה בבית קומות,2.0,רביעית,55.98,382000,,,1960.0,,4.0,7699065154,1,8269120,False,,נתניה,גורדון,,8269-120-16,8269/120,6823.865666309396,32.3313790582,34.857504928,2004
2004-10-03,2004-03-10,"יעבץ 5, נתניה",יעבץ 5,8267-826-1,דירה בבית קומות,3.0,,75.0,809000,,,1963.0,,,7699062786,1,8267826,False,,נתניה,"יעב""ץ",,8267-826-1,8267/826,10786.666666666666,32.3294930683,34.864535405,2004
2004-10-03,2004-03-10,"יוסף 5, נתניה",יוסף 5,9904-13-8,דירה בבית קומות,4.0,שניה,91.9,650000,,,2003.0,,7.0,7699342876,1,990413,False,,נתניה,יוסף,,9904-13-8,9904/13,7072.905331882481,32.2981703984,34.871011957,2004
2004-10-02,2004-02-10,"תשרי 7, נתניה",תשרי 7,9904-24-40,דירה בבית קומות,4.0,רביעית,104.83,672000,,,2004.0,,8.0,7698495650,1,990424,False,,נתניה,תשרי,,9904-24-40,9904/24,6410.378708385005,32.297326963,34.8709795681,2004
2004-10-02,2004-02-10,"המעפילים 22, נתניה",המעפילים 22,8270-35-15,,4.0,רביעית,105.5,1051000,,,1980.0,,8.0,7698624336,1,827035,False,,נתניה,המעפילים,,8270-35-15,8270/35,9962.085308056872,32.3351171905,34.8518761901,2004
2004-10-02,2004-02-10,"בן-יהודה 35, נתניה",בן-יהודה 35,8260-334-25,,3.0,שביעית,67.77,648000,,,1970.0,,7.0,7697748990,1,8260334,False,,נתניה,בן יהודה,,8260-334-25,8260/334,9561.752988047809,32.3199957001,34.8514463178,2004
2004-10-02,2004-02-10,"הנוטע 12, נתניה",הנוטע 12,8264-147-4,דירה בבית קומות,3.0,ראשונה,72.0,442000,,,1960.0,,3.0,7698217780,1,8264147,False,,נתניה,הנוטע,,8264-147-4,8264/147,6138.888888888889,32.3270314022,34.8557064229,2004
2004-10-02,2004-02-10,"יהודה הלוי 11, נתניה",יהודה הלוי 11,8261-47-5,דירה בבית קומות,3.0,שניה,68.0,581000,,,1970.0,,5.0,7699635990,1,826147,False,,נתניה,יהודה הלוי,,8261-47-5,8261/47,8544.117647058823,32.323601381,34.8577964938,2004
2004-10-02,2004-02-10,"אוסישקין 10, נתניה",אוסישקין 10,8263-44-3,,4.0,קומה ‎1‏,114.7,527000,,,1964.0,,10.0,7698024788,1,826344,False,,נתניה,אוסישקין,,8263-44-3,8263/44,4594.594594594594,32.3285574834,34.8510568599,2004
2004-10-02,2004-02-10,"יעקב דורי 6, נתניה",יעקב דורי 6,8448-58-137,דירה בבית קומות,5.0,שש עשרה,119.2,1120000,,,2005.0,,19.0,7698527840,1,844858,False,,נתניה,דורי יעקב,,8448-58-137,8448/58,9395.973154362417,32.2980133131,34.8465200405,2004
2004-09-28,2004-09-28,"בר-כוכבא 22, נתניה",בר-כוכבא 22,8267-536-1,דירה בבית קומות,2.0,שניה,65.0,528000,,,1950.0,,2.0,7708043870,1,8267536,False,,נתניה,בר כוכבא,,8267-536-1,8267/536,8123.076923076923,32.3373810819,34.8651339278,2004
2004-09-28,2004-09-28,"בן-אב""י 3, נתניה","בן-אב""י 3",8259-123-10,דירה בבית קומות,4.0,שלישית,110.7,918000,,,2004.0,,9.0,7708217770,1,8259123,False,,נתניה,"בן אב""י",,8259-123-10,8259/123,8292.682926829268,32.3197176198,34.8488046036,2004
2004-09-28,2004-09-28,"אברהם שפיגלמן 6, נתניה",אברהם שפיגלמן 6,9901-43-111,דירה בבית קומות,4.0,רביעית,82.8,685000,,,2005.0,,9.0,7707991848,1,990143,False,,נתניה,שפיגלמן אברהם,,9901-43-111,9901/43,8272.946859903383,32.3096610417,34.8727820496,2004
2004-09-28,2004-09-28,"בר-יהודה 2, נתניה",בר-יהודה 2,7929-50-27,דירה בבית קומות,2.0,שניה,47.0,337000,,,1980.0,,3.0,7706948596,1,792950,False,,נתניה,בר יהודה,,7929-50-27,7929/50,7170.212765957447,32.2821890601,34.8561262243,2004
2004-09-27,2004-09-27,"הרב פריגיה זוארץ 16, נתניה",הרב פריגיה זוארץ 16,8217-416-87,דירה בבית קומות,3.0,שניה,66.1,497000,,,1997.0,,10.0,7707946782,1,8217416,False,,נתניה,הרב זוארץ פריגיה,,8217-416-87,8217/416,7518.91074130106,32.3135069349,34.8878550414,2004
2004-09-27,2004-09-27,"גבעת חיים 3, נתניה",גבעת חיים 3,8267-897-5,דירה בבית קומות,4.0,שניה,86.79,722000,,,1979.0,,6.0,7708235530,1,8267897,False,,נתניה,גבעת חיים,,8267-897-5,8267/897,8318.930752390828,32.3363990522,34.8567430449,2004
2004-09-27,2004-09-27,"הרב קוק 68, נתניה",הרב קוק 68,8267-663-4,דירה בבית קומות,2.0,ראשונה,34.62,314000,,,1950.0,,2.0,7706626918,1,8267663,False,,נתניה,הרב קוק,,8267-663-4,8267/663,9069.901790872327,32.3373511008,34.8554954651,2004
2004-09-27,2004-09-27,"ניצה 26, נתניה",ניצה 26,8272-283-119,דירה בבית קומות,4.0,קומה ‎7‏,107.62,2198000,,,2008.0,,34.0,7707875372,1,8272283,False,,נתניה,ניצה,,8272-283-119,8272/283,20423.713064486157,32.3404813199,34.8538271361,2004
2004-09-27,2004-09-27,"הסחלב 3, נתניה",הסחלב 3,7993-133-2,דירה בבית קומות,6.0,מרתף+קרקע+ראשונה,185.9,1381000,,,1996.0,,,7707656184,1,7993133,False,,נתניה,הסחלב,,7993-133-2,7993/133,7428.725121032813,32.2707480331,34.8462121417,2004
2004-09-26,2004-09-26,"אברהם שפירא 23, נתניה",אברהם שפירא 23,8260-566-49,דירה בבית קומות,3.0,רביעית,62.38,501000,,,1970.0,,7.0,7707945598,1,8260566,False,,נתניה,שפירא אברהם,,8260-566-49,8260/566,8031.420327027893,32.3215858863,34.857725845,2004
2004-09-26,2004-09-26,"המתמיד 10, נתניה",המתמיד 10,8270-73-19,דירה בבית קומות,5.0,שמינית,120.0,1479000,,,2005.0,,7.0,7708123346,1,827073,False,,נתניה,המתמיד,,8270-73-19,8270/73,12325.0,32.3312213436,34.851956308,2004
2004-09-26,2004-09-26,"בנימין 27, נתניה",בנימין 27,8261-56-19,דירה בבית קומות,4.0,שביעית,100.18,773000,,,1970.0,,7.0,7707843626,1,826156,False,,נתניה,בנימין,,8261-56-19,8261/56,7716.11100019964,32.3244632889,34.8571509762,2004
2004-09-26,2004-09-26,"ז'בוטינסקי 16, נתניה",ז'בוטינסקי 16,8262-25-9,דירה בבית קומות,5.0,חמישית ושישית,118.66,1300000,,,1970.0,,6.0,7707890616,1,826225,False,,נתניה,ז'בוטינסקי,,8262-25-9,8262/25,10955.67166694758,32.3237095703,34.848777575,2004
2004-09-26,2004-09-26,"הרב שמואל הרטום 14, נתניה",הרב שמואל הרטום 14,8006-124-20,דירה בבית קומות,3.0,חמישית,71.2,473000,,,1996.0,,6.0,7707024372,1,8006124,False,,נתניה,הרב הרטום שמואל,,8006-124-20,8006/124,6643.258426966292,32.3084142146,34.8781603171,2004
2004-09-23,2004-09-23,"השבעה 12, נתניה",השבעה 12,8259-76-6,דירה בבית קומות,3.0,שניה,74.0,744000,,,1970.0,,7.0,7706691520,1,825976,False,13% ב 4.7 שנים,נתניה,השבעה,2.77,8259-76-6,8259/76,10054.054054054051,32.3220020388,34.85051067,2004
2004-09-23,2004-09-23,"שלונסקי 30, נתניה",שלונסקי 30,7960-10-13,דירה בבית קומות,2.0,שלישית,48.66,230000,,,1970.0,,4.0,7707329474,1,796010,False,,נתניה,שלונסקי,,7960-10-13,7960/10,4726.674886970818,32.2859721383,34.8523747701,2004
2004-09-23,2004-09-23,"ירמיהו הלפרן 14, נתניה",ירמיהו הלפרן 14,8259-110-5,דירה בבית קומות,2.0,שניה,40.88,372000,,,1950.0,,2.0,7706628102,1,8259110,False,,נתניה,הלפרין ירמיהו,,8259-110-5,8259/110,9099.804305283757,32.3196925555,34.850269993,2004
2004-09-23,2004-09-23,"פלמ""ח 18, נתניה","פלמ""ח 18",8231-190-1,דירה בבית קומות,6.0,מרתף קרקע ראשונה,222.62,1591000,,,1994.0,,,7706905824,1,8231190,False,,נתניה,"פלמ""ח",,8231-190-1,8231/190,7146.70739376516,32.3388478743,34.8642435428,2004
2004-09-23,2004-09-23,"גבעת חיים 12, נתניה",גבעת חיים 12,8267-584-11,דירה בבית קומות,3.0,שלישית,81.28,538000,,,1970.0,,7.0,7708143992,1,8267584,False,,נתניה,גבעת חיים,,8267-584-11,8267/584,6619.094488188976,32.3359031122,34.8576682717,2004
2004-09-23,2004-09-23,"המתמיד 10, נתניה",המתמיד 10,8270-73-20,דירה בבית קומות,4.0,שלישית,100.0,1219000,,,2005.0,,7.0,7708054304,1,827073,False,,נתניה,המתמיד,,8270-73-20,8270/73,12190.0,32.3312213436,34.851956308,2004
2004-09-21,2004-09-21,"דוד המלך 3, נתניה",דוד המלך 3,8270-92-34,דירה בבית קומות,4.0,תשיעית,97.3,1562000,,,2002.0,,10.0,7706921068,1,827092,False,,נתניה,דוד המלך,,8270-92-34,8270/92,16053.44295991778,32.3314774495,34.8509379916,2004
2004-09-21,2004-09-21,"הבריגדה היהודית 60, נתניה",הבריגדה היהודית 60,8449-9-32,דירה בבית קומות,5.0,אחת עשרה,126.2,1164000,,,1998.0,,14.0,7706446062,1,84499,False,7% ב 2.3 שנים,נתניה,הבריגדה היהודית,3.04,8449-9-32,8449/9,9223.454833597463,32.2940563948,34.8431084624,2004
2004-09-20,2004-09-20,"הגילה 13, נתניה",הגילה 13,8253-227-11,דירה בבית קומות,5.0,שישית,127.0,1186000,,,2005.0,,16.0,7706533456,1,8253227,False,,נתניה,הגילה,,8253-227-11,8253/227,9338.582677165354,32.314567198,34.8477799373,2004
2004-09-20,2004-09-20,"הגילה 13, נתניה",הגילה 13,8253-227-8,דירה בבית קומות,5.0,רביעית,127.0,1276000,,,2005.0,,16.0,7706535898,1,8253227,False,,נתניה,הגילה,,8253-227-8,8253/227,10047.24409448819,32.314567198,34.8477799373,2004
2004-09-20,2004-09-20,"סטופ 4, נתניה",סטופ 4,7932-349-23,דירה בבית קומות,3.0,שניה,58.77,333000,,,1970.0,,4.0,7706524946,1,7932349,False,,נתניה,סטופ,,7932-349-23,7932/349,5666.15620214395,32.2967446139,34.8515272955,2004
2004-09-20,2004-09-20,"גולדה מאיר 22, נתניה",גולדה מאיר 22,7928-27-199,דירה בבית קומות,4.0,שתים עשרה,84.88,573000,,,1996.0,,17.0,7706599982,1,792827,False,,נתניה,גולדה מאיר,,7928-27-199,7928/27,6750.706880301603,32.2761000009,34.8526535429,2004
2004-09-20,2004-09-20,"הידידות 14, נתניה",הידידות 14,8253-162-3,קוטג' דו משפחתי,5.0,,238.0,1567000,,,2008.0,,3.0,7709070694,1,8253162,False,,נתניה,הידידות,,8253-162-3,8253/162,6584.033613445378,32.3172578115,34.8483060361,2004
2004-09-20,2004-09-20,"החצבים 14, נתניה",החצבים 14,8276-25-1,דירה בבית קומות,6.0,,150.0,2015000,,,1993.0,,,7707902234,1,827625,False,,נתניה,החצבים,,8276-25-1,8276/25,13433.333333333334,32.2694930742,34.8412381876,2004
2004-09-20,2004-09-20,"בנימין 6, נתניה",בנימין 6,8265-63-12,חנות,,,31.0,474000,,,1950.0,,4.0,7708036544,1,826563,False,,נתניה,בנימין,,8265-63-12,8265/63,15290.32258064516,32.3275850761,34.8575998068,2004
2004-09-20,2004-09-20,"בני בנימין 55, נתניה",בני בנימין 55,8568-124-13,דירה בבית קומות,5.0,שביעית+שמינית,132.15,1500000,,,2006.0,,7.0,7707308236,1,8568124,False,,נתניה,בני בנימין,,8568-124-13,8568/124,11350.737797956866,32.2948449869,34.8421201637,2004
2004-09-19,2004-09-19,"בנימין 56, נתניה",בנימין 56,8260-628-49,דירה בבית קומות,2.0,עשירית,65.5,470000,,,1970.0,,12.0,7706386270,1,8260628,True,-11% ב 5.7 שנים,נתניה,בנימין,-1.93,8260-628-49,8260/628,7175.572519083969,32.3209992963,34.8553663385,2004
2004-09-19,2004-09-19,"הדר 6, נתניה",הדר 6,8315-279-1,דירה בבית קומות,3.0,,80.0,627000,,,1979.0,,,7706697662,1,8315279,False,,נתניה,הדר,,8315-279-1,8315/279,7837.5,32.3498826229,34.8642529143,2004
2004-09-19,2004-09-19,"יצחק מודעי 3, נתניה",יצחק מודעי 3,8449-10-9,דירה בבית קומות,4.0,שלישית,87.31,785000,,,2004.0,,9.0,7706551734,1,844910,False,,נתניה,מודעי יצחק,,8449-10-9,8449/10,8990.951781010193,32.2939592224,34.8435514284,2004
2004-09-19,2004-09-19,"התהילה 17, נתניה",התהילה 17,8247-180-2,דירה בבית קומות,6.0,,160.0,4636000,,,2000.0,,2.0,7706412540,1,8247180,False,,נתניה,התהילה,,8247-180-2,8247/180,28975.0,32.3064549242,34.8447099759,2004
2004-09-19,2004-09-19,"ירושלים 29, נתניה",ירושלים 29,8260-286-3,דירה בבית קומות,3.0,ראשונה,71.9,510000,,,1962.0,,3.0,7706630026,1,8260286,False,,נתניה,ירושלים,,8260-286-3,8260/286,7093.184979137691,32.3240666465,34.8551273286,2004
2004-09-19,2004-09-19,"רמז דוד 4, נתניה",רמז דוד 4,8263-83-20,דירה בבית קומות,2.0,שמינית,38.62,922000,,,1989.0,,8.0,7706913742,1,826383,False,,נתניה,רמז דוד,,8263-83-20,8263/83,23873.64060072501,32.3286624822,34.8518590053,2004
2004-09-15,2004-09-15,"הנוטע 1, נתניה",הנוטע 1,8265-78-17,משרד,,שניה,,107000,,,1950.0,,4.0,7707802704,1,826578,False,,נתניה,הנוטע,,8265-78-17,8265/78,,32.3273554658,34.8570092296,2004
2004-09-14,2004-09-14,"תשרי 7, נתניה",תשרי 7,9904-24-29,דירה בבית קומות,4.0,ראשונה,94.09,636000,,,2004.0,,8.0,7707064554,1,990424,False,,נתניה,תשרי,,9904-24-29,9904/24,6759.485598894675,32.297326963,34.8709795681,2004
2004-09-14,2004-09-14,"האלונים 16, נתניה",האלונים 16,9089-87-52,דירה בבית קומות,4.0,שלוש עשרה,116.8,747000,,,2007.0,,16.0,7706260026,1,908987,False,,נתניה,האלונים,,9089-87-52,9089/87,6395.54794520548,32.3023316917,34.8777482746,2004
2004-09-14,2004-09-14,"האלונים 16, נתניה",האלונים 16,9089-87-51,דירה בבית קומות,4.0,שלוש עשרה,116.8,776000,,,2007.0,,16.0,7706261728,1,908987,False,,נתניה,האלונים,,9089-87-51,9089/87,6643.835616438357,32.3023316917,34.8777482746,2004
2004-09-14,2004-09-14,"מסריק 28, נתניה",מסריק 28,8274-53-2,דירה בבית קומות,5.0,,130.0,1567000,,,1986.0,,,7706522430,1,827453,False,,נתניה,מסריק,,8274-53-2,8274/53,12053.846153846154,32.34447316,34.8688234019,2004
2004-09-14,2004-09-14,"דוד המלך 3, נתניה",דוד המלך 3,8270-92-32,דירה בבית קומות,3.0,תשיעית,67.31,1186000,,,2002.0,,10.0,7706576228,1,827092,False,,נתניה,דוד המלך,,8270-92-32,8270/92,17619.967315406328,32.3314774495,34.8509379916,2004
2004-09-14,2004-09-14,"ד""ר יהודה פרח 6, נתניה","ד""ר יהודה פרח 6",9903-19-68,דירה בבית קומות,5.5,תשיעית,139.4,1120000,,,2004.0,,9.0,7706183658,1,990319,False,,נתניה,"ד""ר פרח יהודה",,9903-19-68,9903/19,8034.433285509325,32.3023966734,34.8706834142,2004
2004-09-14,2004-09-14,"בן-אב""י 44, נתניה","בן-אב""י 44",8256-123-54,דירה בבית קומות,4.0,שביעית,90.5,719000,,,1987.0,,7.0,7706212222,1,8256123,False,,נתניה,"בן אב""י",,8256-123-54,8256/123,7944.751381215469,32.3179656041,34.8529791714,2004
2004-09-13,2004-09-13,"טום לנטוס 23, נתניה",טום לנטוס 23,9901-14-69,דירה בבית קומות,4.0,שלישית,93.1,655000,,,2006.0,,8.0,7706407730,1,990114,False,,נתניה,לנטוס טום,,9901-14-69,9901/14,7035.445757250269,32.3069942196,34.8701984907,2004
2004-09-13,2004-09-13,"אריה לייב יפה 3, נתניה",אריה לייב יפה 3,7959-3-8,דירה בבית קומות,3.0,שניה,61.37,323000,,,1970.0,,4.0,7706404030,1,79593,False,,נתניה,אריה לייב יפה,,7959-3-8,7959/3,5263.1578947368425,32.282836632,34.8464880903,2004
2004-09-13,2004-09-13,"הרב שמואל הרטום 22, נתניה",הרב שמואל הרטום 22,8006-62-48,דירה בבית קומות,4.0,ראשונה,97.75,682000,,,2004.0,,9.0,7706586440,1,800662,False,,נתניה,הרב הרטום שמואל,,8006-62-48,8006/62,6976.982097186701,32.3084338219,34.8761736032,2004
2004-09-12,2004-12-09,"דגניה 84, נתניה",דגניה 84,9904-20-16,דירה בבית קומות,4.0,חמישית,97.24,685000,,,2005.0,,7.0,7709960174,1,990420,False,,נתניה,דגניה,,9904-20-16,9904/20,7044.426162073221,32.2980533722,34.8730348122,2004
2004-09-12,2004-12-09,"הדליות 8, נתניה",הדליות 8,8276-238-1,דירה בבית קומות,8.0,,200.0,2953000,,,1991.0,,1.0,7771005290,1,8276238,False,,נתניה,הדליות,,8276-238-1,8276/238,14765.0,32.2723851412,34.8387643219,2004
2004-09-12,2004-12-09,"גדעון 13, נתניה",גדעון 13,8232-341-1,דירה בבית קומות,5.0,קרקע,150.0,686000,,,1990.0,,,7709688002,1,8232341,False,,נתניה,גדעון,,8232-341-1,8232/341,4573.333333333333,32.3329446368,34.8691825101,2004
2004-09-12,2004-12-09,"ניצה 8, נתניה",ניצה 8,8272-220-33,דירה בבית קומות,4.0,שמינית,107.0,1192000,,,1990.0,,11.0,7709872262,1,8272220,False,,נתניה,ניצה,,8272-220-33,8272/220,11140.18691588785,32.3364902037,34.8523790124,2004
2004-09-12,2004-12-09,"הוז דב 2, נתניה",הוז דב 2,8232-484-3,דירה בבית קומות,4.0,שניה,98.57,477000,,,1980.0,,4.0,7709581812,1,8232484,False,,נתניה,הוז דב,,8232-484-3,8232/484,4839.200568124176,32.3367679244,34.8661324548,2004
2004-09-11,2004-11-09,"מימון 35, נתניה",מימון 35,8274-750-2,דירה בבית קומות,4.0,קרקע,98.0,847000,,,2004.0,,2.0,7708287404,1,8274750,False,,נתניה,מימון,,8274-750-2,8274/750,8642.857142857143,32.3454412624,34.8620765383,2004
2004-09-11,2004-11-09,"הלילך 33, נתניה",הלילך 33,7926-82-1,דירה בבית קומות,6.0,,150.0,1348000,,,1990.0,,,7708982782,1,792682,False,,נתניה,הלילך,,7926-82-1,7926/82,8986.666666666666,32.2707370643,34.8432338084,2004
2004-09-09,2004-09-09,"הגליל 28, נתניה",הגליל 28,8260-241-6,דירה בבית קומות,2.0,ראשונה,60.0,369000,,,1950.0,,3.0,7706231832,1,8260241,False,,נתניה,הגליל,,8260-241-6,8260/241,6150.0,32.3230709089,34.8536654647,2004
2004-09-09,2004-09-09,"שמואל הנציב 40, נתניה",שמואל הנציב 40,8269-175-7,דירה בבית קומות,4.0,שלישית,71.35,545000,,,1970.0,,4.0,7706109806,1,8269175,False,,נתניה,שמואל הנציב,,8269-175-7,8269/175,7638.402242466714,32.3323133674,34.8571753694,2004
2004-09-09,2004-09-09,"המעפילים 14, נתניה",המעפילים 14,8270-26-10,דירה בבית קומות,4.0,שלישית,89.38,766000,,,1977.0,,10.0,7707105402,1,827026,False,,נתניה,המעפילים,,8270-26-10,8270/26,8570.149921682703,32.3338591575,34.8513806533,2004
2004-09-09,2004-09-09,"נורוק 12, נתניה",נורוק 12,8272-198-2,דירה בבית קומות,4.0,ראשונה,89.09,699000,,,1987.0,,8.0,7706998620,1,8272198,False,,נתניה,נורוק,,8272-198-2,8272/198,7845.998428555393,32.3414800002,34.8549797981,2004
2004-09-09,2004-09-09,"בן-יהודה 7, נתניה",בן-יהודה 7,8259-3-4,דירה בבית קומות,5.0,שניה,113.14,1096000,,,1996.0,,6.0,7706089604,1,82593,False,,נתניה,בן יהודה,,8259-3-4,8259/3,9687.113310942195,32.3238730844,34.8527643477,2004
2004-09-09,2004-09-09,"יעקב דורי 8, נתניה",יעקב דורי 8,8448-58-203,דירה בבית קומות,5.0,ארבע עשרה,119.2,1096000,,,2007.0,,19.0,7706068736,1,844858,False,,נתניה,דורי יעקב,,8448-58-203,8448/58,9194.630872483222,32.2980133131,34.8465200405,2004
2004-09-09,2004-09-09,"אחד העם 21, נתניה",אחד העם 21,8265-37-5,דירה בבית קומות,2.0,ראשונה,50.0,347000,,,1960.0,,1.0,7706906416,1,826537,False,,נתניה,אחד העם,,8265-37-5,8265/37,6940.0,32.3256701219,34.8592608589,2004
2004-09-09,2004-09-09,"תשרי 7, נתניה",תשרי 7,9904-24-31,דירה בבית קומות,4.0,שניה,94.09,640000,,,2004.0,,8.0,7707066478,1,990424,False,,נתניה,תשרי,,9904-24-31,9904/24,6801.998086938038,32.297326963,34.8709795681,2004
2004-09-09,2004-09-09,"בן-אב""י 31, נתניה","בן-אב""י 31",8260-425-5,דירה בבית קומות,2.0,ראשונה,34.7,324000,,,1960.0,,3.0,7706418682,1,8260425,False,,נתניה,"בן אב""י",,8260-425-5,8260/425,9337.175792507203,32.3190204651,34.8520839121,2004
2004-09-08,2004-08-09,"דוד המלך 3, נתניה",דוד המלך 3,8270-92-33,דירה בבית קומות,3.0,תשיעית,67.31,1223000,,,2002.0,,10.0,7705525502,1,827092,False,,נתניה,דוד המלך,,8270-92-33,8270/92,18169.66275441985,32.3314774495,34.8509379916,2004
2004-09-08,2004-08-09,"לאה גולדברג 6, נתניה",לאה גולדברג 6,8230-312-2,דירה בבית קומות,5.0,,205.0,838000,,,2004.0,,1.0,7705634060,1,8230312,False,,נתניה,גולדברג לאה,,8230-312-2,8230/312,4087.8048780487807,32.3376110392,34.8688595917,2004
2004-09-08,2004-08-09,"ויצמן 84, נתניה",ויצמן 84,8274-518-12,דירה בבית קומות,2.0,שלישית,50.47,271000,,,1960.0,,3.0,7707001062,1,8274518,False,,נתניה,ויצמן,,8274-518-12,8274/518,5369.526451357242,32.3389735953,34.8602950224,2004
2004-09-07,2004-07-09,"ד""ר אברהם אבו שדיד 5, נתניה","ד""ר אברהם אבו שדיד 5",8260-580-22,דירה בבית קומות,3.0,חמישית,68.22,515000,,,1980.0,,5.0,7703797676,1,8260580,False,,נתניה,"ד""ר אבו שדיד אברהם",,8260-580-22,8260/580,7549.105834066257,32.3198612361,34.8520409543,2004
2004-09-07,2004-07-09,"בארי 9, נתניה",בארי 9,8267-94-2,דירה בבית קומות,5.0,קומה ‎2‏,112.7,239000,,,1959.0,,9.0,7704684714,1,826794,False,,נתניה,בארי,,8267-94-2,8267/94,2120.6743566992013,32.3324864911,34.8600127814,2004
2004-09-06,2004-06-09,"עגנון 1, נתניה",עגנון 1,7958-68-47,דירה בבית קומות,2.0,רביעית,44.0,228000,,,1980.0,,8.0,7703013424,1,795868,False,,נתניה,עגנון,,7958-68-47,7958/68,5181.818181818182,32.2800991648,34.8518441832,2004
2004-09-06,2004-06-09,"יותם 15, נתניה",יותם 15,8232-88-1,דירה בבית קומות,5.0,קרקע +ראשונה,144.37,1031000,,,1984.0,,,7703037104,1,823288,False,,נתניה,יותם,,8232-88-1,8232/88,7141.372861397797,32.3358111163,34.866860205,2004
2004-09-05,2004-05-09,"מלחמת ששת הימים 19, נתניה",מלחמת ששת הימים 19,8267-88-2,דירה בבית קומות,2.0,ראשונה,50.0,288000,,,1950.0,,4.0,7701717832,1,826788,False,,נתניה,מלחמת ששת הימים,,8267-88-2,8267/88,5760.0,32.331994286,34.8596558246,2004
2004-09-05,2004-05-09,"הרב קוק 44, נתניה",הרב קוק 44,8271-19-19,דירה בבית קומות,2.0,שלישית,43.0,477000,,,1960.0,,4.0,7701025562,1,827119,False,6% ב 6.2 שנים,נתניה,הרב קוק,0.97,8271-19-19,8271/19,11093.023255813954,32.334589452,34.8548119996,2004
2004-09-05,2004-05-09,"הבריגדה היהודית 48, נתניה",הבריגדה היהודית 48,8449-31-55,דירה בבית קומות,4.0,קומה ‎4‏,101.71,877000,,,2006.0,,13.0,7701118284,1,844931,False,,נתניה,הבריגדה היהודית,,8449-31-55,8449/31,8622.554321109035,32.2954000711,34.8436042339,2004
2004-09-05,2004-05-09,"טום לנטוס 19, נתניה",טום לנטוס 19,9901-13-2,דירה בבית קומות,5.0,קרקע,115.0,893000,,,2004.0,,6.0,7702088424,1,990113,False,,נתניה,לנטוס טום,,9901-13-2,9901/13,7765.217391304348,32.3080518031,34.8703239126,2004
2004-09-05,2004-05-09,"אלון צבי 12, נתניה",אלון צבי 12,8265-31-4,דירה בבית קומות,3.0,שניה,60.0,454000,,,1950.0,,1.0,7701528614,1,826531,False,,נתניה,החלוצים,,8265-31-4,8265/31,7566.666666666667,32.3259981237,34.8596570583,2004
2004-09-05,2004-05-09,"שמואל הנציב 37, נתניה",שמואל הנציב 37,8269-78-9,דירה בבית קומות,4.0,שלישית,85.0,676000,,,1970.0,,5.0,7701651306,1,826978,False,,נתניה,שמואל הנציב,,8269-78-9,8269/78,7952.941176470588,32.3337692708,34.8562780388,2004
2004-09-05,2004-05-09,"ד""ר יהודה פרח 6, נתניה","ד""ר יהודה פרח 6",9903-19-52,דירה בבית קומות,5.0,חמישית,107.4,720000,,,2004.0,,9.0,7701130494,1,990319,False,,נתניה,"ד""ר פרח יהודה",,9903-19-52,9903/19,6703.910614525139,32.3023966734,34.8706834142,2004
2004-09-05,2004-05-09,"הרב שמואל הרטום 29, נתניה",הרב שמואל הרטום 29,8006-166-99,דירה בבית קומות,4.0,שישית,83.1,675000,,,2005.0,,13.0,7701780732,1,8006166,False,,נתניה,הרב הרטום שמואל,,8006-166-99,8006/166,8122.74368231047,32.3100586144,34.8760038009,2004
2004-09-04,2004-04-09,"יפתח הגלעדי 35, נתניה",יפתח הגלעדי 35,8232-236-3,דירה בבית קומות,3.0,קרקע,100.0,542000,,,1960.0,,,7699908384,1,8232236,False,,נתניה,יפתח הגלעדי,,8232-236-3,8232/236,5420.0,32.335501172,34.8707788659,2004
2004-09-03,2004-03-09,"בובר 3, נתניה",בובר 3,8230-68-1,דירה בבית קומות,5.0,,125.0,1124000,,,1999.0,,,7698857658,1,823068,False,,נתניה,בובר,,8230-68-1,8230/68,8992.0,32.3406299727,34.8685996698,2004
2004-09-02,2004-02-09,"סמילנסקי 55, נתניה",סמילנסקי 55,8262-117-12,דירה בבית קומות,4.0,רביעית,99.3,715000,,,1970.0,,8.0,7697876492,1,8262117,False,,נתניה,סמילנסקי,,8262-117-12,8262/117,7200.402819738168,32.323859408,34.8519342628,2004
2004-09-02,2004-02-09,"דגניה 50, נתניה",דגניה 50,8006-46-35,דירה בבית קומות,5.0,תשיעית+עשירית,135.48,830000,,,2003.0,,10.0,7697951528,1,800646,False,,נתניה,דגניה,,8006-46-35,8006/46,6126.365515205197,32.3078187547,34.8741716047,2004
2004-09-02,2004-02-09,"ויסלברגר 5, נתניה",ויסלברגר 5,7960-52-16,דירה בבית קומות,4.0,שלישית,82.63,616000,,,1992.0,,7.0,7698034630,1,796052,False,,נתניה,ויסלברגר,,7960-52-16,7960/52,7454.919520755174,32.2835777717,34.8526613513,2004
2004-09-02,2004-02-09,"שוהם 24, נתניה",שוהם 24,8267-558-2,חנות,,קרקע,23.87,223000,,,1977.0,,4.0,7699485178,1,8267558,False,,נתניה,שוהם,,8267-558-2,8267/558,9342.270632593212,32.3309567614,34.860328254,2004
2004-09-02,2004-02-09,"חב""ד 7, נתניה","חב""ד 7",8273-195-1,,5.0,קרקע+ראשונה+שניה+גג,164.15,974000,,,1990.0,,,7697892328,1,8273195,False,,נתניה,"חב""ד",,8273-195-1,8273/195,5933.597319524824,32.3452279693,34.8603452085,2004
2004-09-02,2004-02-09,"מרק אברהם 7, נתניה",מרק אברהם 7,8217-408-5,דירה בבית קומות,5.0,,125.0,804000,,,1981.0,,,7698280680,1,8217408,False,,נתניה,מרק אברהם,,8217-408-5,8217/408,6432.0,32.3141933033,34.8862613909,2004
2004-09-02,2004-02-09,"יוסף 11, נתניה",יוסף 11,9904-52-82,דירה בבית קומות,4.0,שניה,96.9,715000,,,2003.0,,6.0,7698656156,1,990452,False,,נתניה,יוסף,,9904-52-82,9904/52,7378.740970072239,32.298090326,34.8721078924,2004
2004-09-01,2004-01-09,"משה שפירא 11, נתניה",משה שפירא 11,8267-627-3,דירה בבית קומות,4.0,ראשונה,97.26,845000,,,2003.0,,6.0,7696950974,1,8267627,False,,נתניה,שפירא משה,,8267-627-3,8267/627,8688.05264240181,32.3352089427,34.8610939429,2004
2004-08-31,2004-08-31,"הגולן 10, נתניה",הגולן 10,9901-31-13,דירה בבית קומות,4.0,שלישית,97.05,694000,,,2005.0,,7.0,7706471148,1,990131,False,,נתניה,הגולן,,9901-31-13,9901/31,7150.953116950026,32.3079938818,34.8722758515,2004
2004-08-30,2004-08-30,"סמילנסקי 48, נתניה",סמילנסקי 48,8262-108-6,דירה בבית קומות,3.0,שניה,87.24,725000,,,1970.0,,7.0,7707266056,1,8262108,False,,נתניה,סמילנסקי,,8262-108-6,8262/108,8310.408069692801,32.3242497741,34.8514144349,2004
2004-08-30,2004-08-30,"המתמיד 10, נתניה",המתמיד 10,8270-73-22,דירה בבית קומות,3.0,ראשונה,85.0,1065000,,,2005.0,,7.0,7706791124,1,827073,False,,נתניה,המתמיד,,8270-73-22,8270/73,12529.411764705885,32.3312213436,34.851956308,2004
2004-08-30,2004-08-30,"ניצה 34, נתניה",ניצה 34,8272-208-24,דירה בבית קומות,5.0,שישית,132.02,1488000,,,1992.0,,11.0,7705784280,1,8272208,False,,נתניה,ניצה,,8272-208-24,8272/208,11271.01954249356,32.3421024227,34.8536269712,2004
2004-08-30,2004-08-30,"תל חי 4, נתניה",תל חי 4,8264-151-20,דירה בבית קומות,3.0,שניה,58.85,462000,,,1970.0,,4.0,7705747798,1,8264151,False,,נתניה,תל חי,,8264-151-20,8264/151,7850.467289719626,32.3290878479,34.8544680505,2004
2004-08-29,2004-08-29,"מימון 28, נתניה",מימון 28,8273-349-1,דירה בבית קומות,8.0,,250.0,1659000,,,1995.0,,,7706156130,1,8273349,False,,נתניה,מימון,,8273-349-1,8273/349,6636.0,32.3456398555,34.860638603,2004
2004-08-29,2004-08-29,"הגלבוע 4, נתניה",הגלבוע 4,8260-290-2,דירה בבית קומות,3.0,עמודים,47.72,431000,,,1960.0,,3.0,7706779506,1,8260290,False,,נתניה,הגלבוע,,8260-290-2,8260/290,9031.852472757751,32.3245562863,34.8547044438,2004
2004-08-29,2004-08-29,"דיזנגוף 9, נתניה",דיזנגוף 9,8268-59-7,דירה בבית קומות,3.0,שלישית,62.47,647000,,,1963.0,,4.0,7706069920,1,826859,False,19% ב 6.5 שנים,נתניה,דיזנגוף,2.92,8268-59-7,8268/59,10356.9713462462,32.3309571016,34.8555228372,2004
2004-08-29,2004-08-29,"ניצה 22, נתניה",ניצה 22,8272-165-79,דירה בבית קומות,4.0,שביעית,108.0,1091000,,,1980.0,,10.0,7707032142,1,8272165,False,,נתניה,ניצה,,8272-165-79,8272/165,10101.851851851852,32.3396442862,34.853206656,2004
2004-08-29,2004-08-29,"הגולן 10, נתניה",הגולן 10,9901-31-21,דירה בבית קומות,4.0,חמישית,97.05,687000,,,2005.0,,7.0,7706037138,1,990131,False,,נתניה,הגולן,,9901-31-21,9901/31,7078.825347758888,32.3079938818,34.8722758515,2004
2004-08-29,2004-08-29,"ניצה 22, נתניה",ניצה 22,8272-165-53,דירה בבית קומות,2.0,שמינית,49.5,709000,,,1980.0,,10.0,7705698810,1,8272165,False,,נתניה,ניצה,,8272-165-53,8272/165,14323.232323232323,32.3396442862,34.853206656,2004
2004-08-27,2004-08-27,"אוסישקין 36, נתניה",אוסישקין 36,8263-69-1,דירה בבית קומות,2.0,מרתף,63.95,545000,,,1950.0,,2.0,7706303834,1,826369,False,,נתניה,אוסישקין,,8263-69-1,8263/69,8522.283033620015,32.3263086136,34.850678947,2004
2004-08-27,2004-08-27,"הרב שמואל הרטום 29, נתניה",הרב שמואל הרטום 29,8006-166-113,דירה בבית קומות,3.0,תשיעית,73.95,610000,,,2005.0,,13.0,7706915666,1,8006166,False,,נתניה,הרב הרטום שמואל,,8006-166-113,8006/166,8248.816768086544,32.3100586144,34.8760038009,2004
2004-08-27,2004-08-27,"האר""י 18, נתניה","האר""י 18",8242-209-1,דירה בבית קומות,4.0,ראשונה,88.87,599000,,,1980.0,,8.0,7706350972,1,8242209,False,,נתניה,"האר""י",,8242-209-1,8242/209,6740.182288736356,32.311953026,34.8574843994,2004
2004-08-27,2004-08-27,"קפלנסקי 4, נתניה",קפלנסקי 4,8267-595-6,דירה בבית קומות,4.0,שלישית,87.15,727000,,,1980.0,,6.0,7705578560,1,8267595,False,,נתניה,קפלנסקי,,8267-595-6,8267/595,8341.939185312678,32.3364775327,34.8574551751,2004
2004-08-26,2004-08-26,"דנקנר 5, נתניה",דנקנר 5,8262-15-7,דירה בבית קומות,4.0,רביעית,94.0,1180000,,,1970.0,,8.0,7706907600,1,826215,False,32% ב 0.2 שנים,נתניה,דנקנר,160.0,8262-15-7,8262/15,12553.1914893617,32.3254968472,34.8488801326,2004
2004-08-26,2004-08-26,"ד""ר אברהם אבו שדיד 10, נתניה","ד""ר אברהם אבו שדיד 10",8260-424-12,דירה בבית קומות,2.0,שלישית,34.7,340000,,,1960.0,,3.0,7705733146,1,8260424,False,,נתניה,"ד""ר אבו שדיד אברהם",,8260-424-12,8260/424,9798.270893371757,32.3193846314,34.8521960622,2004
2004-08-26,2004-08-26,"המתמיד 10, נתניה",המתמיד 10,8270-73-23,דירה בבית קומות,5.0,שישית,110.0,1407000,,,2005.0,,7.0,7706795342,1,827073,False,,נתניה,המתמיד,,8270-73-23,8270/73,12790.90909090909,32.3312213436,34.851956308,2004
2004-08-26,2004-08-26,"המתמיד 10, נתניה",המתמיד 10,8270-73-1,דירה בבית קומות,5.0,שביעית,110.0,1430000,,,2005.0,,7.0,7706788608,1,827073,False,,נתניה,המתמיד,,8270-73-1,8270/73,13000.0,32.3312213436,34.851956308,2004
2004-08-26,2004-08-26,"הר מירון 4, נתניה",הר מירון 4,9901-15-47,דירה בבית קומות,4.0,קרקע+ראשונה,110.0,785000,,,2004.0,,6.0,7706957698,1,990115,False,,נתניה,הר מירון,,9901-15-47,9901/15,7136.363636363636,32.3095978637,34.8711282494,2004
2004-08-25,2004-08-25,"אוסישקין 5, נתניה",אוסישקין 5,8263-90-18,דירה בבית קומות,3.0,חמישית,75.19,712000,,,1967.0,,5.0,7705545112,1,826390,False,,נתניה,אוסישקין,,8263-90-18,8263/90,9469.344327703153,32.329274901,34.8516093193,2004
2004-08-25,2004-08-25,"גורדון 15, נתניה",גורדון 15,8269-119-2,דירה בבית קומות,2.0,ראשונה,37.36,308000,,,1964.0,,1.0,7705673946,1,8269119,False,,נתניה,גורדון,,8269-119-2,8269/119,8244.111349036402,32.3311933308,34.857491569,2004
2004-08-25,2004-08-25,"גולומב 1, נתניה",גולומב 1,8267-902-10,דירה בבית קומות,3.0,שניה,53.0,396000,,,1980.0,,4.0,7705615930,1,8267902,False,,נתניה,גולומב,,8267-902-10,8267/902,7471.698113207547,32.337383572,34.8656118635,2004
2004-08-25,2004-08-25,"עולי הגרדום 15, נתניה",עולי הגרדום 15,8233-386-6,דירה בבית קומות,4.0,שניה,94.88,612000,,,1993.0,,4.0,7705671430,1,8233386,False,,נתניה,עולי הגרדום,,8233-386-6,8233/386,6450.252951096122,32.3275242412,34.8650900816,2004
2004-08-25,2004-08-25,"גבעת חיים 14, נתניה",גבעת חיים 14,8267-150-28,דירה בבית קומות,6.0,תשיעית+עשירית,138.54,1266000,,,2004.0,,9.0,7706067626,1,8267150,False,,נתניה,גבעת חיים,,8267-150-28,8267/150,9138.155045474232,32.3359116429,34.8579905533,2004
2004-08-24,2004-08-24,"ויצמן 49, נתניה",ויצמן 49,8269-163-5,דירה בבית קומות,4.0,ראשונה,112.5,656000,,,1970.0,,9.0,7706162864,1,8269163,False,,נתניה,ויצמן,,8269-163-5,8269/163,5831.111111111111,32.3340732343,34.8587342299,2004
