DEALDATE,DEALDATETIME,FULLADRESS,DISPLAYADRESS,GUSH,DEALNATUREDESCRIPTION,ASSETROOMNUM,FLOORNO,DEALNATURE,DEALAMOUNT,NEWPROJECTTEXT,PROJECTNAME,BUILDINGYEAR,YEARBUILT,BUILDINGFLOORS,KEYVALUE,TYPE,POLYGON_ID,TREND_IS_NEGATIVE,TREND_FORMAT,city_name,street,presentage per year,GUSH - Copy,Gush_Helka,Price per sqm,lat,lon,Year
2004-12-30,2004-12-30,"בר-כוכבא 6, רמת גן",בר-כוכבא 6,6145-221-2,דירה בבית קומות,2.0,ראשונה,47.0,694000,,,1960.0,,3.0,3045633244,1,6145221,False,,רמת גן,בר כוכבא,,6145-221-2,6145/221,14765.95744680851,32.0708647955,34.8232572072,2004
2004-12-30,2004-12-30,"שפירא 11, רמת גן",שפירא 11,6128-861-143,דירה בבית קומות,4.0,שבע עשרה,96.45,2400000,,,2002.0,,19.0,3045096831,1,6128861,False,,רמת גן,שפירא,,6128-861-143,6128/861,24883.35925349922,32.080566594,34.8052109604,2004
2004-12-30,2004-12-30,"ההלכה 8, רמת גן",ההלכה 8,6158-1185-67,דירה בבית קומות,2.0,שניה,54.0,464000,,,1960.0,,6.0,3045030044,1,61581185,False,,רמת גן,ההלכה,,6158-1185-67,6158/1185,8592.592592592593,,,2004
2004-12-30,2004-12-30,"מגדים 14, רמת גן",מגדים 14,6125-668-20,דירה בבית קומות,4.0,שישית,77.55,846000,,,1960.0,,8.0,3045079141,1,6125668,False,,רמת גן,מגדים,,6125-668-20,6125/668,10909.09090909091,32.0882768714,34.8222128462,2004
2004-12-30,2004-12-30,"הזיתים 5, רמת גן",הזיתים 5,6126-408-6,דירה בבית קומות,2.0,ראשונה,56.2,390000,,,1954.0,,3.0,3045838738,1,6126408,False,,רמת גן,הזיתים,,6126-408-6,6126/408,6939.501779359431,32.0830937132,34.820199282,2004
2004-12-30,2004-12-30,"יוחנן באדר 8, רמת גן",יוחנן באדר 8,6186-669-137,דירה בבית קומות,5.0,שבע עשרה,137.9,1683000,,,2004.0,,,3045459534,1,6186669,False,,רמת גן,באדר יוחנן,,6186-669-137,6186/669,12204.49601160261,32.0722478257,34.8319408174,2004
2004-12-30,2004-12-30,"אלוף הניצחון 17, רמת גן",אלוף הניצחון 17,6158-1066-0,קוטג' חד משפחתי,4.0,,75.0,3948000,,,2005.0,,6.0,3045010904,1,61581066,False,,רמת גן,אלוף הנצחון,,6158-1066-0,6158/1066,52640.0,32.0750694987,34.8276000529,2004
2004-12-30,2004-12-30,"חורגין 9, רמת גן",חורגין 9,6158-706-4,דירה בבית קומות,4.0,שניה,69.0,822000,,,1968.0,,3.0,3045258332,1,6158706,False,,רמת גן,חורגין,,6158-706-4,6158/706,11913.04347826087,32.0737959111,34.8200979982,2004
2004-12-30,2004-12-30,"תובל 21, רמת גן",תובל 21,6109-347-73,מחסנים,,,,57000,,,1988.0,,29.0,3045276718,1,6109347,False,,רמת גן,תובל,,6109-347-73,6109/347,,32.0838519184,34.8021240457,2004
2004-12-30,2004-12-30,"הילד 20, רמת גן",הילד 20,6127-241-1,דירה בבית קומות,3.0,ראשונה,75.0,5242000,,,2020.0,,5.0,3045273847,1,6127241,False,,רמת גן,הילד,,6127-241-1,6127/241,69893.33333333333,32.0846784913,34.8141163368,2004
2004-12-29,2004-12-29,"אמיר 20, רמת גן",אמיר 20,6145-76-2,דירה בבית קומות,4.0,ראשונה,69.03,800000,,,1987.0,,4.0,3045206596,1,614576,False,,רמת גן,אמיר,,6145-76-2,6145/76,11589.164131537013,32.0683758196,34.8249119578,2004
2004-12-29,2004-12-29,"מנחם בגין 3, רמת גן",מנחם בגין 3,6207-877-46,דירה בבית קומות,2.0,קומה ‎16‏,41.35,743000,,,2000.0,,24.0,3045283417,1,6207877,False,3% ב 6.2 שנים,רמת גן,בגין מנחם,0.48,6207-877-46,6207/877,17968.561064087062,32.0844858541,34.7994713944,2004
2004-12-29,2004-12-29,"דניאל 17, רמת גן",דניאל 17,6143-418-2,קוטג' דו משפחתי,5.0,קרקע +ראשונה,119.46,2558000,,,1970.0,,,3045131747,1,6143418,False,,רמת גן,דניאל,,6143-418-2,6143/418,21413.0252804286,32.0541204088,34.8199378923,2004
2004-12-29,2004-12-29,"סוקולוב 9, רמת גן",סוקולוב 9,6204-576-24,דירה בבית קומות,4.0,שישית,90.0,962000,,,1985.0,,8.0,3045001102,1,6204576,False,,רמת גן,סוקולוב,,6204-576-24,6204/576,10688.888888888889,32.0913650429,34.8198104939,2004
2004-12-29,2004-12-29,"אצ""ל 13, רמת גן","אצ""ל 13",6182-357-27,דירה בבית קומות,2.0,שביעית,52.0,737000,,,1968.0,,8.0,3045057362,1,6182357,False,,רמת גן,"אצ""ל",,6182-357-27,6182/357,14173.076923076924,32.0665336307,34.8317899891,2004
2004-12-29,2004-12-29,"הרא""ה 40, רמת גן","הרא""ה 40",6159-636-2,דירה בבית קומות,3.0,ראשונה,66.0,579000,,,1960.0,,3.0,3045277443,1,6159636,False,,רמת גן,"הרא""ה",,6159-636-2,6159/636,8772.727272727272,32.0834528528,34.8218809807,2004
2004-12-28,2004-12-28,"המעפיל 2, רמת גן",המעפיל 2,6205-372-5,דירה בבית קומות,5.0,,99.0,634000,,,1950.0,,3.0,3045097266,1,6205372,False,,רמת גן,המעפיל,,6205-372-5,6205/372,6404.040404040404,32.0894983006,34.8149838938,2004
2004-12-28,2004-12-28,"הגפן 27, רמת גן",הגפן 27,6205-74-3,דירה בבית קומות,2.0,ראשונה,41.23,855000,,,2006.0,,7.0,3022829094,1,620574,False,,רמת גן,הגפן,,6205-74-3,6205/74,20737.327188940093,32.0897321444,34.8128935547,2004
2004-12-28,2004-12-28,"אנה פרנק 15, רמת גן",אנה פרנק 15,6207-132-23,דירה בבית קומות,2.0,,49.0,450000,,,2021.0,,7.0,3045185571,1,6207132,False,,רמת גן,אנה פרנק,,6207-132-23,6207/132,9183.673469387755,32.090566518,34.8036404099,2004
2004-12-28,2004-12-28,"נוה יהושע 21, רמת גן",נוה יהושע 21,6180-161-16,דירה בבית קומות,4.0,ראשונה ושניה,81.91,716000,,,1954.0,,2.0,3045243223,1,6180161,False,,רמת גן,נוה יהושע,,6180-161-16,6180/161,8741.301428397022,32.0601267323,34.8317507782,2004
2004-12-28,2004-12-28,"מוצא 22, רמת גן",מוצא 22,6158-119-7,דירה בבית קומות,4.0,רביעית,88.0,1161000,,,2003.0,,6.0,3045120263,1,6158119,False,,רמת גן,מוצא,,6158-119-7,6158/119,13193.181818181818,32.073325845,34.8276639293,2004
2004-12-27,2004-12-27,"ביאליק 17, רמת גן",ביאליק 17,6127-509-15,דירה בבית קומות,4.0,רביעית ו-גג,82.75,846000,,,1980.0,,5.0,3045745184,1,6127509,False,,רמת גן,ביאליק,,6127-509-15,6127/509,10223.56495468278,32.0805478817,34.814521405,2004
2004-12-27,2004-12-27,"עוזיאל 57, רמת גן",עוזיאל 57,6158-612-11,דירה בבית קומות,2.0,שלישית,56.0,418000,,,1960.0,,3.0,3045867680,1,6158612,False,,רמת גן,עוזיאל,,6158-612-11,6158/612,7464.285714285715,32.0741221374,34.8232535867,2004
2004-12-27,2004-12-27,"אפרים 6, רמת גן",אפרים 6,6145-1563-4,דירה בבית קומות,4.0,שניה,83.4,915000,,,2005.0,,4.0,3045373404,1,61451563,False,,רמת גן,אפרים,,6145-1563-4,6145/1563,10971.223021582731,32.0662739466,34.825847615,2004
2004-12-27,2004-12-27,"חירות 12, רמת גן",חירות 12,6205-497-8,דירה בבית קומות,2.0,שלישית,65.0,694000,,,1950.0,,3.0,3022831501,1,6205497,False,,רמת גן,חרות,,6205-497-8,6205/497,10676.923076923076,32.089587538,34.8112517436,2004
2004-12-27,2004-12-27,"פנקס 17, רמת גן",פנקס 17,6186-108-13,דירה בבית קומות,2.0,ראשונה,26.57,130000,,,1950.0,,2.0,3045034568,1,6186108,False,,רמת גן,פנקס,,6186-108-13,6186/108,4892.736168611215,32.0673853952,34.8309892296,2004
2004-12-26,2004-12-26,"יוחנן באדר 6, רמת גן",יוחנן באדר 6,6186-669-19,דירה בבית קומות,4.0,חמישית,89.5,922000,,,1998.0,,,3045277675,1,6186669,False,0% ב 6.5 שנים,רמת גן,באדר יוחנן,0.0,6186-669-19,6186/669,10301.675977653633,32.0722478257,34.8319408174,2004
2004-12-26,2004-12-26,"תובל 21, רמת גן",תובל 21,6109-347-72,מחסנים,,,,444000,,,1988.0,,29.0,3045824383,1,6109347,False,,רמת גן,תובל,,6109-347-72,6109/347,,32.0838519184,34.8021240457,2004
2004-12-24,2004-12-24,"רמז 14, רמת גן",רמז 14,6157-267-2,דירה בבית קומות,2.0,,50.0,758000,,,1960.0,,1.0,3045210888,1,6157267,False,,רמת גן,רמז,,6157-267-2,6157/267,15160.0,32.0686209968,34.8187703205,2004
2004-12-23,2004-12-23,"הירדן 13, רמת גן",הירדן 13,6186-336-6,דירה בבית קומות,2.0,שניה,47.0,489000,,,1960.0,,3.0,3045059943,1,6186336,False,,רמת גן,הירדן,,6186-336-6,6186/336,10404.255319148937,32.0681479546,34.8287818788,2004
2004-12-22,2004-12-22,"אבא הלל 84, רמת גן",אבא הלל 84,6205-453-4,דירה בבית קומות,2.0,ראשונה,33.0,442000,,,1950.0,,3.0,3045325525,1,6205453,False,,רמת גן,אבא הלל,,6205-453-4,6205/453,13393.939393939394,32.0906384753,34.8123442888,2004
2004-12-22,2004-12-22,"תובל 21, רמת גן",תובל 21,6109-347-70,משרד,,אחת עשרה,45.0,698000,,,1988.0,,29.0,3045571503,1,6109347,False,,רמת גן,תובל,,6109-347-70,6109/347,15511.111111111111,32.0838519184,34.8021240457,2004
2004-12-22,2004-12-22,"תובל 21, רמת גן",תובל 21,6109-347-71,משרד,,תשע עשרה,579.0,7290000,,,1988.0,,29.0,3045710993,1,6109347,False,,רמת גן,תובל,,6109-347-71,6109/347,12590.673575129536,32.0838519184,34.8021240457,2004
2004-12-22,2004-12-22,"תלפיות 13, רמת גן",תלפיות 13,6205-172-10,דירה בבית קומות,3.0,קומה ‎2‏,96.02,651000,,,2014.0,,6.0,3022796121,1,6205172,False,4% ב 6.5 שנים,רמת גן,תלפיות,0.62,6205-172-10,6205/172,6779.837533847115,,,2004
2004-12-22,2004-12-22,"שפירא 11, רמת גן",שפירא 11,6128-861-129,דירה בבית קומות,5.0,ארבע עשרה,109.3,1522000,,,2002.0,,19.0,3045030479,1,6128861,False,,רמת גן,שפירא,,6128-861-129,6128/861,13924.97712717292,32.080566594,34.8052109604,2004
2004-12-22,2004-12-22,"בר-כוכבא 16, רמת גן",בר-כוכבא 16,6145-216-2,דירה בבית קומות,4.0,ראשונה,72.25,976000,,,2004.0,,5.0,3022692504,1,6145216,False,,רמת גן,בר כוכבא,,6145-216-2,6145/216,13508.650519031142,32.0708206708,34.8240313409,2004
2004-12-21,2004-12-21,"קריניצי 13, רמת גן",קריניצי 13,6126-178-3,דירה בבית קומות,3.0,ראשונה,53.38,650000,,,1970.0,,4.0,3022777445,1,6126178,False,,רמת גן,קריניצי,,6126-178-3,6126/178,12176.845260397153,32.0798468083,34.8163310714,2004
2004-12-21,2004-12-21,"השוטרת 16, רמת גן",השוטרת 16,6127-348-1,דירה בבית קומות,2.0,שניה,50.0,3699000,,,1965.0,,6.0,3022687226,1,6127348,False,,רמת גן,השוטרת,,6127-348-1,6127/348,73980.0,32.0810869165,34.8135169367,2004
2004-12-20,2004-12-20,"ז'בוטינסקי 3, רמת גן",ז'בוטינסקי 3,6109-275-23,משרד,,שביעית,,259000,,,1966.0,,20.0,3022814536,1,6109275,False,,רמת גן,ז'בוטינסקי,,6109-275-23,6109/275,,32.0834052795,34.8014749201,2004
2004-12-20,2004-12-20,"חרוזים 8, רמת גן",חרוזים 8,6207-756-5,דירה בבית קומות,5.0,שניה,107.6,1299000,,,1960.0,,7.0,3022785362,1,6207756,False,,רמת גן,חרוזים,,6207-756-5,6207/756,12072.490706319702,32.091593242,34.80287034,2004
2004-12-20,2004-12-20,"הרצל 52, רמת גן",הרצל 52,6125-484-7,דירה בבית קומות,3.0,שלישית,75.0,407000,,,1950.0,,4.0,3045071427,1,6125484,False,,רמת גן,הרצל,,6125-484-7,6125/484,5426.666666666667,32.0843660799,34.8156627665,2004
2004-12-20,2004-12-20,"יהודית 3, רמת גן",יהודית 3,6207-496-7,דירה בבית קומות,3.0,שלישית,66.0,827000,,,2021.0,,3.0,3045182410,1,6207496,False,,רמת גן,יהודית,,6207-496-7,6207/496,12530.30303030303,32.0902634295,34.8047599497,2004
2004-12-20,2004-12-20,"מטה אהרון 4, רמת גן",מטה אהרון 4,6159-201-1,קוטג' דו משפחתי,7.0,קרקע,247.95,2274000,,,1988.0,,3.0,3022681948,1,6159201,False,,רמת גן,מטה אהרון,,6159-201-1,6159/201,9171.203871748336,32.0824102625,34.82183835,2004
2004-12-17,2004-12-17,"האם 16, רמת גן",האם 16,6180-345-10,דירה בבית קומות,3.0,שניה,68.0,544000,,,1960.0,,4.0,3045012586,1,6180345,False,,רמת גן,האם,,6180-345-10,6180/345,8000.0,32.0589678743,34.8322577642,2004
2004-12-17,2004-12-17,"שלם 10, רמת גן",שלם 10,6142-90-30,דירה בבית קומות,3.0,שלישית,53.0,447000,,,1960.0,,3.0,3022706569,1,614290,False,,רמת גן,שלם,,6142-90-30,6142/90,8433.962264150943,32.0518616056,34.8139857568,2004
2004-12-16,2004-12-16,"ז'בוטינסקי 3, רמת גן",ז'בוטינסקי 3,6109-275-22,משרד,,שביעית,,259000,,,1966.0,,20.0,3022815203,1,6109275,False,,רמת גן,ז'בוטינסקי,,6109-275-22,6109/275,,32.0834052795,34.8014749201,2004
2004-12-16,2004-12-16,"רוקח 9, רמת גן",רוקח 9,6205-625-4,דירה בבית קומות,3.0,שניה,62.5,702000,,,1963.0,,3.0,3022693954,1,6205625,False,,רמת גן,רוקח,,6205-625-4,6205/625,11232.0,32.0874055835,34.8109060204,2004
2004-12-16,2004-12-16,"חצור 15, רמת גן",חצור 15,6158-889-73,דירה בבית קומות,2.0,שניה,50.0,534000,,,2021.0,,9.0,3022653238,1,6158889,False,,רמת גן,חצור,,6158-889-73,6158/889,10680.0,,,2004
2004-12-16,2004-12-16,"יונה 2, רמת גן",יונה 2,6159-422-12,דירה בבית קומות,2.0,ראשונה,50.0,497000,,,1950.0,,3.0,3022747749,1,6159422,False,,רמת גן,יונה,,6159-422-12,6159/422,9940.0,32.0808212181,34.8258020228,2004
2004-12-15,2004-12-15,"הירדן 36, רמת גן",הירדן 36,6182-66-7,דירה בבית קומות,2.0,שניה,47.25,562000,,,1958.0,,2.0,3045006090,1,618266,False,40% ב 1.5 שנים,רמת גן,הירדן,26.67,6182-66-7,6182/66,11894.179894179892,32.0666654563,34.8281466096,2004
2004-12-14,2004-12-14,"משמר הירדן 8, רמת גן",משמר הירדן 8,6182-333-20,דירה בבית קומות,2.5,רביעית,41.76,436000,,,1970.0,,4.0,3022545097,1,6182333,True,-9% ב 6.9 שנים,רמת גן,משמר הירדן,-1.3,6182-333-20,6182/333,10440.613026819923,32.0648223856,34.8295245044,2004
2004-12-14,2004-12-14,"קריניצי 44, רמת גן",קריניצי 44,6126-427-16,דירה בבית קומות,3.0,רביעית,50.0,720000,,,2004.0,,7.0,3022652774,1,6126427,False,,רמת גן,קריניצי,,6126-427-16,6126/427,14400.0,32.0812029303,34.8189762465,2004
2004-12-14,2004-12-14,"האוכמניות 12, רמת גן",האוכמניות 12,6176-630-1,קוטג' חד משפחתי,7.0,ראשונה,210.0,2313000,,,1978.0,,1.0,3022610666,1,6176630,False,,רמת גן,האוכמניות,,6176-630-1,6176/630,11014.285714285714,32.0492377642,34.8326795967,2004
2004-12-14,2004-12-14,"הרדוף 16, רמת גן",הרדוף 16,6176-579-8,דירה בבית קומות,4.0,שניה,96.0,1210000,,,1965.0,,3.0,3022665476,1,6176579,False,,רמת גן,הרדוף,,6176-579-8,6176/579,12604.166666666666,32.0446900233,34.8366909711,2004
2004-12-14,2004-12-14,"ההגנה 16, רמת גן",ההגנה 16,6183-327-17,דירה בבית קומות,4.0,רביעית,83.5,1124000,,,2006.0,,5.0,3045012818,1,6183327,False,,רמת גן,ההגנה,,6183-327-17,6183/327,13461.077844311378,32.0695208385,34.8336201259,2004
2004-12-14,2004-12-14,"העמל 23, רמת גן",העמל 23,6204-513-10,דירה בבית קומות,3.0,שלישית,54.96,761000,,,1972.0,,3.0,3046233747,1,6204513,False,14% ב 5 שנים,רמת גן,העמל,2.8,6204-513-10,6204/513,13846.433770014555,32.0943923527,34.8203086834,2004
2004-12-13,2004-12-13,"ירושלים 88, רמת גן",ירושלים 88,6186-221-19,דירה בבית קומות,2.0,שניה,52.0,538000,,,1960.0,,2.0,3022579085,1,6186221,True,-2% ב 4.8 שנים,רמת גן,ירושלים,-0.42,6186-221-19,6186/221,10346.153846153846,32.0744254757,34.8295354566,2004
2004-12-13,2004-12-13,"מיכאל 4, רמת גן",מיכאל 4,6145-155-6,דירה בבית קומות,5.0,שלישית ו-גג,108.25,1406000,,,1993.0,,3.0,3022605620,1,6145155,False,,רמת גן,מיכאל,,6145-155-6,6145/155,12988.452655889145,32.0722630989,34.8274632691,2004
2004-12-13,2004-12-13,"ארלוזורוב 35, רמת גן",ארלוזורוב 35,6127-333-14,דירה בבית קומות,4.0,ראשונה,98.0,741000,,,1950.0,,2.0,3022602285,1,6127333,False,,רמת גן,ארלוזורוב,,6127-333-14,6127/333,7561.224489795918,32.0807667142,34.8105408932,2004
2004-12-13,2004-12-13,"הדר 24, רמת גן",הדר 24,6205-513-10,דירה בבית קומות,2.0,ראשונה,55.0,475000,,,1950.0,,2.0,3022573575,1,6205513,False,,רמת גן,הדר,,6205-513-10,6205/513,8636.363636363636,32.0880027296,34.8131054608,2004
2004-12-13,2004-12-13,"רוקח 36, רמת גן",רוקח 36,6210-99-2,דירה בבית קומות,1.5,"ראשונה, ביניים",144.25,654000,,,1965.0,,6.0,3022649671,1,621099,True,-16% ב 2.7 שנים,רמת גן,רוקח,-5.93,6210-99-2,6210/99,4533.795493934143,32.0904515806,34.8098100888,2004
2004-12-12,2004-12-12,"אנה פרנק 4, רמת גן",אנה פרנק 4,6207-758-6,דירה בבית קומות,4.0,שניה,83.0,959000,1.0,אנה פרנק,1970.0,,5.0,3022525696,1,6207758,False,0% ב 2.5 שנים,רמת גן,אנה פרנק,0.0,6207-758-6,6207/758,11554.21686746988,32.0916240926,34.80227946,2004
2004-12-12,2004-12-12,"האר""י 8, רמת גן","האר""י 8",6145-1310-3,דירה בבית קומות,3.0,שניה,62.18,749000,,,1970.0,,3.0,3022582420,1,61451310,True,-9% ב 5.5 שנים,רמת גן,"האר""י",-1.64,6145-1310-3,6145/1310,12045.673850112576,32.0652184892,34.822808726,2004
2004-12-12,2004-12-12,"מרים 9, רמת גן",מרים 9,6127-731-16,דירה בבית קומות,2.0,ראשונה,50.0,540640,,,1950.0,,3.0,3022680498,1,6127731,False,,רמת גן,מרים,,6127-731-16,6127/731,10812.8,32.0783081214,34.8135042777,2004
2004-12-12,2004-12-12,"ביאליק 65, רמת גן",ביאליק 65,6127-174-22,דירה בבית קומות,5.0,רביעית + חמישית,104.55,1013000,,,1987.0,,3.0,3022609245,1,6127174,False,,רמת גן,ביאליק,,6127-174-22,6127/174,9689.143950263033,32.0845777301,34.8119312968,2004
2004-12-10,2004-10-12,"הירדן 13, רמת גן",הירדן 13,6186-336-3,דירה בבית קומות,2.0,ראשונה,34.0,401000,,,1960.0,,3.0,3021562780,1,6186336,False,,רמת גן,הירדן,,6186-336-3,6186/336,11794.117647058823,32.0681479546,34.8287818788,2004
2004-12-10,2004-10-12,"בר-יוחאי 12, רמת גן",בר-יוחאי 12,6145-1205-6,דירה בבית קומות,3.5,שלישית,55.0,700000,,,1970.0,,3.0,3021338320,1,61451205,False,,רמת גן,בר יוחאי,,6145-1205-6,6145/1205,12727.272727272728,32.0642411229,34.8248142618,2004
2004-12-09,2004-09-12,"ירושלים 55, רמת גן",ירושלים 55,6158-957-2,דירה בבית קומות,2.0,שניה,50.0,360000,,,1950.0,,3.0,3021234036,1,6158957,False,,רמת גן,ירושלים,,6158-957-2,6158/957,7200.0,32.0747385011,34.8254527123,2004
2004-12-09,2004-09-12,"שרה אהרונסון 44, רמת גן",שרה אהרונסון 44,6180-428-6,דירה בבית קומות,3.0,קומה ‎2‏,107.46,643000,,,1960.0,,4.0,3019813819,1,6180428,False,,רמת גן,אהרונסון שרה,,6180-428-6,6180/428,5983.621812767542,32.0606503632,34.8266957442,2004
2004-12-09,2004-09-12,"ז'בוטינסקי 91, רמת גן",ז'בוטינסקי 91,6205-259-14,דירה בבית קומות,2.0,ראשונה,70.0,450000,,,1960.0,,3.0,3021548889,1,6205259,False,,רמת גן,ז'בוטינסקי,,6205-259-14,6205/259,6428.571428571428,32.0884478824,34.8141697867,2004
2004-12-09,2004-09-12,"הרא""ה 69, רמת גן","הרא""ה 69",6159-361-4,דירה בבית קומות,2.0,ראשונה,50.0,554000,,,1960.0,,3.0,3021236443,1,6159361,False,,רמת גן,"הרא""ה",,6159-361-4,6159/361,11080.0,32.0835745425,34.8242477929,2004
2004-12-09,2004-09-12,"פנחס 7, רמת גן",פנחס 7,6145-1120-3,דירה בבית קומות,3.0,שניה,56.0,697000,,,2023.0,,3.0,3020905756,1,61451120,False,,רמת גן,פנחס,,6145-1120-3,6145/1120,12446.42857142857,32.0645042026,34.8213660443,2004
2004-12-09,2004-09-12,"ירושלים 96, רמת גן",ירושלים 96,6186-503-26,דירה בבית קומות,4.0,חמישית,75.7,846000,,,1970.0,,8.0,3020979735,1,6186503,False,,רמת גן,ירושלים,,6186-503-26,6186/503,11175.69352708058,32.0743699756,34.8302728886,2004
2004-12-08,2004-08-12,"יוחנן באדר 8, רמת גן",יוחנן באדר 8,6186-669-153,דירה בבית קומות,5.0,עשרים ואחת,133.4,1711000,,,2004.0,,,3020730886,1,6186669,False,,רמת גן,באדר יוחנן,,6186-669-153,6186/669,12826.086956521738,32.0722478257,34.8319408174,2004
2004-12-07,2004-07-12,"י""א באדר 5, רמת גן","י""א באדר 5",6182-389-30,דירה בבית קומות,3.0,שלישית,57.0,682000,,,1960.0,,5.0,3019910302,1,6182389,False,,רמת גן,"י""א באדר",,6182-389-30,6182/389,11964.912280701754,32.065114722,34.8280306734,2004
2004-12-07,2004-07-12,"אבא הלל 94, רמת גן",אבא הלל 94,6205-448-2,דירה בבית קומות,2.0,שניה,65.0,514000,,,1948.0,,2.0,3020167938,1,6205448,False,,רמת גן,אבא הלל,,6205-448-2,6205/448,7907.692307692308,32.0909718675,34.8135239353,2004
2004-12-07,2004-07-12,"הרא""ה 23, רמת גן","הרא""ה 23",6125-98-24,דירה בבית קומות,3.0,שלישית,68.3,582000,,,1950.0,,3.0,3019805438,1,612598,False,,רמת גן,"הרא""ה",,6125-98-24,6125/98,8521.229868228404,32.0842554244,34.8183713023,2004
2004-12-07,2004-07-12,,,6159-449-2,דירה בבית קומות,3.0,שניה,60.0,447000,,,1962.0,,,3019803524,2,6159449,False,,רמת גן,"הרא""ה",,6159-449-2,6159/449,7450.0,32.0796083156,34.8252469694,2004
2004-12-07,2004-07-12,"גרנדוס 19, רמת גן",גרנדוס 19,6157-159-2,דירה בבית קומות,3.0,שמינית,75.0,729000,,,1970.0,,2.0,3019820750,1,6157159,False,,רמת גן,גרנדוס,,6157-159-2,6157/159,9720.0,32.0700823557,34.8201314799,2004
2004-12-07,2004-07-12,"בית חורון 7, רמת גן",בית חורון 7,6127-689-1,דירה בבית קומות,2.0,ראשונה,50.0,537000,,,1960.0,,2.0,3019914362,1,6127689,False,,רמת גן,בית חורון,,6127-689-1,6127/689,10740.0,32.0847582459,34.81064578,2004
2004-12-07,2004-07-12,"נוה יהושע 51, רמת גן",נוה יהושע 51,6180-512-21,דירה בבית קומות,2.0,שניה,48.5,411000,,,1960.0,,4.0,3020262188,1,6180512,False,,רמת גן,נוה יהושע,,6180-512-21,6180/512,8474.226804123711,32.0609609139,34.8339070028,2004
2004-12-07,2004-07-12,"הרב לנדרס 6, רמת גן",הרב לנדרס 6,6187-377-11,דירה בבית קומות,4.0,שלישית,89.4,743000,,,1970.0,,7.0,3020379406,1,6187377,False,,רמת גן,הרב לנדרס,,6187-377-11,6187/377,8310.961968680089,32.0700141055,34.838654761,2004
2004-12-05,2004-05-12,"החשמונאים 6, רמת גן",החשמונאים 6,6128-680-7,דירה בבית קומות,4.0,שניה,77.0,832000,,,1950.0,,3.0,3018583117,1,6128680,False,,רמת גן,החשמונאים,,6128-680-7,6128/680,10805.194805194806,32.0836053201,34.8089414386,2004
2004-12-05,2004-05-12,"יוחנן באדר 8, רמת גן",יוחנן באדר 8,6186-669-80,דירה בבית קומות,4.0,שניה,125.2,1463000,,,2004.0,,,3018905597,1,6186669,False,,רמת גן,באדר יוחנן,,6186-669-80,6186/669,11685.303514376996,32.0722478257,34.8319408174,2004
2004-12-05,2004-05-12,"נגבה 21, רמת גן",נגבה 21,6145-1027-7,דירה בבית קומות,4.0,ראשונה,77.3,647000,,,1960.0,,4.0,3018853281,1,61451027,False,,רמת גן,נגבה,,6145-1027-7,6145/1027,8369.987063389392,32.0705754654,34.8244848505,2004
2004-12-05,2004-05-12,"הרכסים 58, רמת גן",הרכסים 58,6158-838-2,דירה בבית קומות,4.0,ראשונה,77.8,981000,,,2003.0,,6.0,3019040824,1,6158838,False,,רמת גן,הרכסים,,6158-838-2,6158/838,12609.254498714654,32.0727367934,34.82564052,2004
2004-12-05,2004-05-12,"חורגין 16, רמת גן",חורגין 16,6158-726-4,דירה בבית קומות,4.0,שניה,74.16,1027000,,,2003.0,,6.0,3018748736,1,6158726,False,,רמת גן,חורגין,,6158-726-4,6158/726,13848.435814455232,32.0734202639,34.8203313838,2004
2004-12-05,2004-05-12,"הפודים 19, רמת גן",הפודים 19,6204-525-1,דירה בבית קומות,3.0,ראשונה,59.5,730000,,,1970.0,,8.0,3018603504,1,6204525,False,,רמת גן,הפודים,,6204-525-1,6204/525,12268.90756302521,32.0922313534,34.8185114811,2004
2004-12-03,2004-03-12,"שקדייה 11, רמת גן",שקדייה 11,6205-669-9,דירה בבית קומות,3.0,שלישית,67.63,902000,,,1970.0,,8.0,3017683508,1,6205669,False,,רמת גן,שקדיה,,6205-669-9,6205/669,13337.27635664646,32.0884653668,34.8117774464,2004
2004-12-03,2004-03-12,"ארלוזורוב 6, רמת גן",ארלוזורוב 6,6127-539-6,חנות,,,40.0,300048,,,1950.0,,8.0,3017517019,1,6127539,False,,רמת גן,ארלוזורוב,,6127-539-6,6127/539,7501.2,32.0796745267,34.8142656221,2004
2004-12-02,2004-02-12,"דוד בן-גוריון 253, רמת גן",דוד בן-גוריון 253,6157-321-14,דירה בבית קומות,2.0,חמישית,37.4,581000,,,2004.0,,6.0,3017204080,1,6157321,False,,רמת גן,בן גוריון דוד,,6157-321-14,6157/321,15534.759358288771,32.0670531478,34.8167495756,2004
2004-12-02,2004-02-12,"אלימלך רימלט 14, רמת גן",אלימלך רימלט 14,6186-678-75,דירה בבית קומות,4.0,תשע עשרה,103.9,1228000,,,2003.0,,22.0,3017494573,1,6186678,False,,רמת גן,רימלט אלימלך,,6186-678-75,6186/678,11819.056785370549,32.0711024216,34.8315883404,2004
2004-12-02,2004-02-12,"מרים 9, רמת גן",מרים 9,6127-731-14,דירה בבית קומות,2.0,שניה,50.0,634000,,,1950.0,,3.0,3017812036,1,6127731,False,,רמת גן,מרים,,6127-731-14,6127/731,12680.0,32.0783081214,34.8135042777,2004
2004-12-02,2004-02-12,"פנקס 2, רמת גן",פנקס 2,6186-145-1,דירה בבית קומות,4.0,ראשונה,87.65,795000,,,1980.0,,6.0,3016983303,1,6186145,False,,רמת גן,פנקס,,6186-145-1,6186/145,9070.165430690246,32.0698192748,34.8305677284,2004
2004-12-01,2004-01-12,"טור הברושים 10, רמת גן",טור הברושים 10,6159-516-3,דירה בבית קומות,3.0,ראשונה,69.0,1104000,,,1958.0,,1.0,3016408581,1,6159516,False,,רמת גן,טור הברושים,,6159-516-3,6159/516,16000.0,32.0816068636,34.8224907622,2004
2004-11-30,2004-11-30,"בית הלל 13, רמת גן",בית הלל 13,6159-62-4,דירה בבית קומות,3.0,שניה,58.0,838000,,,2003.0,,6.0,3045009483,1,615962,False,,רמת גן,בית הלל,,6159-62-4,6159/62,14448.275862068966,32.0837889822,34.8234153986,2004
2004-11-30,2004-11-30,"יוחנן באדר 8, רמת גן",יוחנן באדר 8,6186-669-124,דירה בבית קומות,5.0,שלוש עשרה,129.6,1677000,,,2004.0,,,3022667129,1,6186669,False,,רמת גן,באדר יוחנן,,6186-669-124,6186/669,12939.814814814816,32.0722478257,34.8319408174,2004
2004-11-30,2004-11-30,"הדר 9, רמת גן",הדר 9,6205-664-3,דירה בבית קומות,4.0,ראשונה,81.8,822000,,,1970.0,,8.0,3022551361,1,6205664,False,,רמת גן,הדר,,6205-664-3,6205/664,10048.899755501225,32.0878701098,34.8120221991,2004
2004-11-30,2004-11-30,"הצלע 14, רמת גן",הצלע 14,6204-555-11,דירה בבית קומות,3.0,רביעית,64.55,671000,,,1974.0,,5.0,3022468073,1,6204555,False,,רמת גן,הצלע,,6204-555-11,6204/555,10395.042602633615,32.0946403566,34.8201417278,2004
2004-11-30,2004-11-30,"יוסף הגלילי 9, רמת גן",יוסף הגלילי 9,6125-120-16,דירה בבית קומות,3.0,שניה,83.0,660000,,,1950.0,,3.0,3022475004,1,6125120,False,,רמת גן,יוסף הגלילי,,6125-120-16,6125/120,7951.807228915663,32.0878421284,34.8192043213,2004
2004-11-30,2004-11-30,"בית שמאי 4, רמת גן",בית שמאי 4,6159-43-5,דירה בבית קומות,4.0,שלישית,100.0,962000,,,1995.0,,4.0,3022679309,1,615943,False,,רמת גן,בית שמאי,,6159-43-5,6159/43,9620.0,32.0845155113,34.8224562758,2004
2004-11-29,2004-11-29,"ירושלים 53, רמת גן",ירושלים 53,6158-955-3,דירה בבית קומות,2.0,שניה,50.0,481000,,,1950.0,,3.0,3022263275,1,6158955,False,,רמת גן,ירושלים,,6158-955-3,6158/955,9620.0,32.074747165,34.8252285671,2004
2004-11-29,2004-11-29,"ירושלים 104, רמת גן",ירושלים 104,6186-481-9,דירה בבית קומות,3.0,שלישית,59.0,568000,,,1970.0,,3.0,3022424979,1,6186481,False,,רמת גן,ירושלים,,6186-481-9,6186/481,9627.118644067798,32.0746202541,34.8317630115,2004
2004-11-29,2004-11-29,"מנחם בגין 3, רמת גן",מנחם בגין 3,6207-877-78,דירה בבית קומות,2.0,קומה ‎18‏,48.35,517000,,,2000.0,,24.0,3022342706,1,6207877,False,,רמת גן,בגין מנחם,,6207-877-78,6207/877,10692.864529472596,32.0844858541,34.7994713944,2004
2004-11-28,2004-11-28,"הראשונים 13, רמת גן",הראשונים 13,6128-866-12,דירה בבית קומות,4.0,שישית,107.1,1945000,,,2003.0,,6.0,3022357757,1,6128866,False,,רמת גן,הראשונים,,6128-866-12,6128/866,18160.59757236228,32.0806575401,34.8039645925,2004
2004-11-28,2004-11-28,"חצור 8, רמת גן",חצור 8,6158-876-4,דירה בבית קומות,2.0,שניה,50.0,474000,,,1949.0,,1.0,3022169257,1,6158876,False,,רמת גן,חצור,,6158-876-4,6158/876,9480.0,32.0771144404,34.8239824697,2004
2004-11-28,2004-11-28,"גולני 23, רמת גן",גולני 23,6143-566-1,קוטג' דו משפחתי,3.0,קרקע,69.5,1827000,,,1950.0,,,3022343692,1,6143566,False,,רמת גן,גולני,,6143-566-1,6143/566,26287.769784172662,32.0550888701,34.8141182583,2004
2004-11-28,2004-11-28,"שוהם 4, רמת גן",שוהם 4,6207-231-5,משרד,,שניה,,150000,,,1970.0,,5.0,3022329772,1,6207231,False,,רמת גן,שוהם,,6207-231-5,6207/231,,32.0843822984,34.8003818011,2004
2004-11-28,2004-11-28,"יהודה הנשיא 3, רמת גן",יהודה הנשיא 3,6158-1121-5,דירה בבית קומות,2.0,עמודים,,480000,,,1950.0,,2.0,3022571922,1,61581121,False,17% ב 6.1 שנים,רמת גן,יהודה הנשיא,2.79,6158-1121-5,6158/1121,,32.0784781345,34.8259098302,2004
2004-11-28,2004-11-28,"התפוצות 33, רמת גן",התפוצות 33,6183-398-2,דירה בבית קומות,3.0,ראשונה,71.85,568000,,,1975.0,,2.0,3022248630,1,6183398,False,,רמת גן,התפוצות,,6183-398-2,6183/398,7905.358385525401,32.0658454534,34.8371412848,2004
2004-11-25,2004-11-25,"ביאליק 86, רמת גן",ביאליק 86,6205-223-18,דירה בבית קומות,2.0,ראשונה,60.0,589000,,,1950.0,,2.0,3022264899,1,6205223,False,25% ב 3.5 שנים,רמת גן,ביאליק,7.14,6205-223-18,6205/223,9816.666666666666,32.0865039437,34.8097616804,2004
2004-11-25,2004-11-25,"הרבי מריז'ין 10, רמת גן",הרבי מריז'ין 10,6186-428-7,דירה בבית קומות,3.0,שניה,72.0,840000,,,1965.0,,1.0,3022188600,1,6186428,False,,רמת גן,הרבי מריז'ין,,6186-428-7,6186/428,11666.666666666666,,,2004
2004-11-25,2004-11-25,"הכבאים 1, רמת גן",הכבאים 1,6181-667-75,דירה בבית קומות,5.0,תשע עשרה-עשרים,116.8,1438000,,,2006.0,,29.0,3022469494,1,6181667,False,,רמת גן,הכבאים,,6181-667-75,6181/667,12311.643835616438,32.0639633937,34.8332410095,2004
2004-11-25,2004-11-25,"בן-שמן 6, רמת גן",בן-שמן 6,6204-235-2,דירה בבית קומות,4.0,ראשונה,68.24,663000,,,1980.0,,3.0,3022436985,1,6204235,False,,רמת גן,בן שמן,,6204-235-2,6204/235,9715.709261430247,32.092526293,34.8215825452,2004
2004-11-25,2004-11-25,"יוחנן באדר 8, רמת גן",יוחנן באדר 8,6186-669-158,דירה בבית קומות,5.0,עשרים ושתים,168.7,2549000,,,2004.0,,,3045036511,1,6186669,False,,רמת גן,באדר יוחנן,,6186-669-158,6186/669,15109.662122110256,32.0722478257,34.8319408174,2004
2004-11-25,2004-11-25,"נגבה 33, רמת גן",נגבה 33,6145-950-1,חנות,,ראשונה,,55000,,,1960.0,,3.0,3045125541,1,6145950,False,,רמת גן,נגבה,,6145-950-1,6145/950,,32.0705108791,34.8257636987,2004
2004-11-24,2004-11-24,"סוקולוב 20, רמת גן",סוקולוב 20,6204-465-29,דירה בבית קומות,3.0,שלישית,48.0,588000,,,2020.0,,3.0,3022148638,1,6204465,False,,רמת גן,סוקולוב,,6204-465-29,6204/465,12250.0,32.0922872552,34.8199083234,2004
2004-11-24,2004-11-24,"ביאליק 16, רמת גן",ביאליק 16,6126-523-15,דירה בבית קומות,2.0,שניה,56.0,612000,,,1960.0,,4.0,3022127845,1,6126523,False,,רמת גן,ביאליק,,6126-523-15,6126/523,10928.57142857143,32.0801630737,34.8151652551,2004
2004-11-24,2004-11-24,"בנימין 1, רמת גן",בנימין 1,6109-97-1,דירה בבית קומות,2.0,,50.0,491000,,,1950.0,,2.0,3022277108,1,610997,False,,רמת גן,בנימין,,6109-97-1,6109/97,9820.0,32.0871334593,34.8063588,2004
2004-11-24,2004-11-24,"הרכסים 47, רמת גן",הרכסים 47,6158-829-7,דירה בבית קומות,2.0,שניה,47.0,525000,,,1950.0,,2.0,3022427183,1,6158829,False,,רמת גן,הרכסים,,6158-829-7,6158/829,11170.212765957447,32.073065934,34.8241024422,2004
2004-11-24,2004-11-24,"אריה בן-אליעזר 43, רמת גן",אריה בן-אליעזר 43,6181-621-7,דירה בבית קומות,5.0,רביעית,111.33,1119000,,,1991.0,,6.0,3022777677,1,6181621,False,,רמת גן,בן אליעזר אריה,,6181-621-7,6181/621,10051.199137698732,32.0624577286,34.8328870605,2004
2004-11-24,2004-11-24,"האחים בז'רנו 4, רמת גן",האחים בז'רנו 4,6207-517-8,דירה בבית קומות,2.0,שלישית,52.0,524000,,,1950.0,,3.0,3022173085,1,6207517,False,,רמת גן,האחים בז'רנו,,6207-517-8,6207/517,10076.923076923076,32.0875112289,34.8053303982,2004
2004-11-23,2004-11-23,"יוחנן באדר 6, רמת גן",יוחנן באדר 6,6186-669-3,דירה בבית קומות,4.0,ראשונה,97.3,964000,,,1998.0,,,3022102470,1,6186669,False,11% ב 6.8 שנים,רמת גן,באדר יוחנן,1.62,6186-669-3,6186/669,9907.502569373071,32.0722478257,34.8319408174,2004
2004-11-23,2004-11-23,"שילה 6, רמת גן",שילה 6,6126-434-2,דירה בבית קומות,2.0,ראשונה,50.0,381000,,,1950.0,,1.0,3022371880,1,6126434,False,,רמת גן,שילה,,6126-434-2,6126/434,7620.0,32.0822858926,34.8153592125,2004
2004-11-23,2004-11-23,"בית לחם 5, רמת גן",בית לחם 5,6158-600-1,דירה בבית קומות,4.0,ראשונה,90.0,961000,,,1996.0,,3.0,3019899485,1,6158600,False,,רמת גן,בית לחם,,6158-600-1,6158/600,10677.777777777776,32.074097309,34.8238946123,2004
2004-11-22,2004-11-22,"חירות 31, רמת גן",חירות 31,6205-659-3,דירה בבית קומות,3.0,ראשונה,61.0,724000,,,1970.0,,3.0,3022167807,1,6205659,False,,רמת גן,חרות,,6205-659-3,6205/659,11868.852459016394,32.0908339744,34.8140116768,2004
2004-11-22,2004-11-22,"משה דיין 36, רמת גן",משה דיין 36,6181-227-6,דירה בבית קומות,2.0,שניה,48.6,549000,,,1965.0,,3.0,3022316171,1,6181227,False,,רמת גן,דיין משה,,6181-227-6,6181/227,11296.296296296296,32.0613675593,34.826740042,2004
2004-11-21,2004-11-21,"אפרים 5, רמת גן",אפרים 5,6145-1558-1,דירה בבית קומות,2.0,קרקע,32.31,538000,,,2004.0,,4.0,3022381914,1,61451558,False,,רמת גן,אפרים,,6145-1558-1,6145/1558,16651.191581553696,32.0660941605,34.8258171638,2004
2004-11-21,2004-11-21,"המבדיל 21, רמת גן",המבדיל 21,6205-350-14,דירה בבית קומות,1.0,שלישית,32.0,562000,,,1956.0,,3.0,3022672117,1,6205350,False,23% ב 1.4 שנים,רמת גן,המבדיל,16.43,6205-350-14,6205/350,17562.5,32.0912061396,34.8162153107,2004
2004-11-21,2004-11-21,"מוריה 7, רמת גן",מוריה 7,6158-674-5,דירה בבית קומות,3.0,שלישית,57.03,680000,,,1965.0,,3.0,3022662808,1,6158674,False,,רמת גן,מוריה,,6158-674-5,6158/674,11923.549009293354,32.0743864921,34.8216544953,2004
2004-11-21,2004-11-21,"דונש 4, רמת גן",דונש 4,6186-106-3,דירה בבית קומות,5.0,ראשונה,95.3,1091000,,,2004.0,,5.0,3022060652,1,6186106,False,,רמת גן,דונש,,6186-106-3,6186/106,11448.058761804828,32.0688721424,34.8317498056,2004
2004-11-20,2004-11-20,"הרב לנדרס 16, רמת גן",הרב לנדרס 16,6187-380-6,דירה בבית קומות,4.0,שניה,91.35,812000,,,1970.0,,7.0,3045279125,1,6187380,False,,רמת גן,הרב לנדרס,,6187-380-6,6187/380,8888.888888888889,32.0704625466,34.8371882744,2004
2004-11-19,2004-11-19,"הביל""ויים 37, רמת גן","הביל""ויים 37",6180-426-9,דירה בבית קומות,2.0,ראשונה,42.1,500000,,,1960.0,,4.0,3022407318,1,6180426,False,,רמת גן,הבילויים,,6180-426-9,6180/426,11876.48456057007,32.0605703316,34.8258606138,2004
2004-11-19,2004-11-19,"הרכסים 31, רמת גן",הרכסים 31,6158-813-5,דירה בבית קומות,3.0,ראשונה,47.7,759000,,,1965.0,,1.0,3022193182,1,6158813,False,,רמת גן,הרכסים,,6158-813-5,6158/813,15911.94968553459,32.0731507523,34.8218173304,2004
2004-11-18,2004-11-18,"התקוה 1, רמת גן",התקוה 1,6205-446-6,דירה בבית קומות,3.0,שניה,59.0,636000,,,1960.0,,3.0,3022233608,1,6205446,False,22% ב 0.2 שנים,רמת גן,התקוה,110.0,6205-446-6,6205/446,10779.661016949152,32.0908627371,34.8131435629,2004
2004-11-18,2004-11-18,"זבוטינסקי 5, רמת גן",זבוטינסקי 5,6109-348-54,משרד,,שתים עשרה,23.0,227000,,,1983.0,,18.0,3045120031,1,6109348,False,,רמת גן,ז'בוטינסקי,,6109-348-54,6109/348,9869.565217391304,32.0833998099,34.8025067333,2004
2004-11-17,2004-11-17,"הרא""ה 47, רמת גן","הרא""ה 47",6159-632-14,דירה בבית קומות,3.0,שביעית,61.9,696000,,,1970.0,,9.0,3022363267,1,6159632,False,,רמת גן,"הרא""ה",,6159-632-14,6159/632,11243.941841680127,32.0838781677,34.8218742789,2004
2004-11-17,2004-11-17,"פנחס 5, רמת גן",פנחס 5,6145-428-8,דירה בבית קומות,3.0,רביעית,58.54,658000,,,2004.0,,5.0,3022182626,1,6145428,False,,רמת גן,פנחס,,6145-428-8,6145/428,11240.177656303382,32.0645165909,34.8211389593,2004
2004-11-17,2004-11-17,"מתניה 3, רמת גן",מתניה 3,6141-102-4,דירה בבית קומות,2.0,שניה,50.5,386000,,,1950.0,,2.0,5208869050,1,6141102,False,,רמת גן,מתניה,,6141-102-4,6141/102,7643.564356435643,32.0483895011,34.8187895674,2004
2004-11-17,2004-11-17,"ז'בוטינסקי 20, רמת גן",ז'בוטינסקי 20,6128-550-6,דירה בבית קומות,2.0,שניה,48.0,519000,,,1957.0,,3.0,3022054156,1,6128550,False,11% ב 3 שנים,רמת גן,ז'בוטינסקי,3.67,6128-550-6,6128/550,10812.5,32.0829556918,34.8063391685,2004
2004-11-16,2004-11-16,"רמבה 5, רמת גן",רמבה 5,6210-63-1,דירה בבית קומות,5.0,ראשונה,200.0,5480000,,,1975.0,,1.0,3021955324,1,621063,False,,רמת גן,רמבה,,6210-63-1,6210/63,27400.0,32.0937935754,34.8102733094,2004
2004-11-16,2004-11-16,"שפירא 11, רמת גן",שפירא 11,6128-861-139,דירה בבית קומות,4.0,שש עשרה,96.45,1828000,,,2002.0,,19.0,3022078806,1,6128861,False,,רמת גן,שפירא,,6128-861-139,6128/861,18952.82529808191,32.080566594,34.8052109604,2004
2004-11-16,2004-11-16,"גדעון 22, רמת גן",גדעון 22,6157-336-5,דירה בבית קומות,4.0,שניה,76.0,1014000,,,1960.0,,2.0,3022485067,1,6157336,False,13% ב 6.5 שנים,רמת גן,גדעון,2.0,6157-336-5,6157/336,13342.105263157897,32.0674663442,34.8185520415,2004
2004-11-15,2004-11-15,"הדר 11, רמת גן",הדר 11,6205-665-26,דירה בבית קומות,4.0,שביעית,70.4,987000,,,1970.0,,8.0,3021963937,1,6205665,False,12% ב 6.5 שנים,רמת גן,הדר,1.85,6205-665-26,6205/665,14019.886363636362,32.0880216089,34.8122738771,2004
2004-11-15,2004-11-15,"הרצל 30, רמת גן",הרצל 30,6126-470-14,דירה בבית קומות,2.0,שלישית,51.0,463000,,,1956.0,,3.0,3021952453,1,6126470,False,,רמת גן,הרצל,,6126-470-14,6126/470,9078.43137254902,32.0823708433,34.8165930732,2004
2004-11-15,2004-11-15,"הסנה 1, רמת גן",הסנה 1,6158-992-7,דירה בבית קומות,2.0,ראשונה,57.0,586000,,,1950.0,,2.0,3021941984,1,6158992,False,5% ב 3.7 שנים,רמת גן,הסנה,1.35,6158-992-7,6158/992,10280.701754385966,32.0764848646,34.8247118099,2004
2004-11-15,2004-11-15,"נתן 18, רמת גן",נתן 18,6126-132-1,דירה בבית קומות,2.0,רביעית,50.0,474000,,,1950.0,,3.0,3022096496,1,6126132,False,,רמת גן,נתן,,6126-132-1,6126/132,9480.0,32.0821616902,34.817187778,2004
2004-11-15,2004-11-15,"העם הצרפתי 40, רמת גן",העם הצרפתי 40,6203-77-3,דירה בבית קומות,2.0,שניה,58.05,1279000,,,1950.0,,2.0,3022060130,1,620377,False,,רמת גן,העם הצרפתי,,6203-77-3,6203/77,22032.73040482343,32.0932666564,34.8152898121,2004
2004-11-15,2004-11-15,"אריה בן-אליעזר 33, רמת גן",אריה בן-אליעזר 33,6181-667-88,דירה בבית קומות,5.0,שניה,108.3,1118000,,,2006.0,,29.0,3021954367,1,6181667,False,,רמת גן,בן אליעזר אריה,,6181-667-88,6181/667,10323.176361957523,32.0639633937,34.8332410095,2004
2004-11-15,2004-11-15,"חורגין 19, רמת גן",חורגין 19,6158-1378-6,דירה בבית קומות,3.0,שלישית,59.12,695000,,,1960.0,,3.0,3022100324,1,61581378,False,9% ב 6.8 שנים,רמת גן,חורגין,1.32,6158-1378-6,6158/1378,11755.75101488498,32.0737216687,34.8210734475,2004
2004-11-15,2004-11-15,"קריניצי 85, רמת גן",קריניצי 85,6125-708-2,דירה בבית קומות,2.0,ראשונה,50.0,471000,,,1950.0,,6.0,3021913042,1,6125708,False,,רמת גן,קריניצי,,6125-708-2,6125/708,9420.0,32.0865536611,34.8197709878,2004
2004-11-15,2004-11-15,"עוזיאל 13, רמת גן",עוזיאל 13,6158-883-7,דירה בבית קומות,2.0,שניה,49.0,472000,,,1965.0,,3.0,3022156091,1,6158883,False,,רמת גן,עוזיאל,,6158-883-7,6158/883,9632.65306122449,32.0777604635,34.8234637805,2004
2004-11-15,2004-11-15,"פנחס 8, רמת גן",פנחס 8,6144-532-2,דירה בבית קומות,4.0,ראשונה,70.67,794000,,,1980.0,,3.0,3021958659,1,6144532,False,,רמת גן,פנחס,,6144-532-2,6144/532,11235.31908872223,32.0641370032,34.8212568859,2004
2004-11-14,2004-11-14,"הגת 28, רמת גן",הגת 28,6126-443-6,דירה בבית קומות,3.0,שניה,60.03,903000,,,2005.0,,5.0,3022032116,1,6126443,False,,רמת גן,הגת,,6126-443-6,6126/443,15042.47876061969,32.0827233014,34.8204574484,2004
2004-11-14,2004-11-14,"ירושלים 33, רמת גן",ירושלים 33,6158-1278-10,דירה בבית קומות,2.0,ראשונה,42.0,465000,,,1960.0,,3.0,3045468814,1,61581278,False,,רמת גן,ירושלים,,6158-1278-10,6158/1278,11071.42857142857,32.074935653,34.8225364222,2004
2004-11-14,2004-11-14,"עוזיאל 3, רמת גן",עוזיאל 3,6158-1196-95,דירה בבית קומות,2.0,ראשונה,53.0,376000,,,1950.0,,3.0,3022021386,1,61581196,False,,רמת גן,עוזיאל,,6158-1196-95,6158/1196,7094.33962264151,32.0788277528,34.8243274712,2004
2004-11-14,2004-11-14,"נחמה 4, רמת גן",נחמה 4,6127-902-1,דירה בבית קומות,2.0,קרקע,59.0,656000,,,1970.0,,2.0,3021974464,1,6127902,False,,רמת גן,נחמה,,6127-902-1,6127/902,11118.64406779661,32.0808487863,34.8127147317,2004
2004-11-11,2004-11-11,"ז'בוטינסקי 73, רמת גן",ז'בוטינסקי 73,6205-520-3,דירה בבית קומות,2.0,ראשונה,66.0,403000,,,1960.0,,4.0,3022559916,1,6205520,False,,רמת גן,ז'בוטינסקי,,6205-520-3,6205/520,6106.060606060606,32.0871723864,34.8122227124,2004
2004-11-11,2004-11-11,"אסף 18, רמת גן",אסף 18,6206-41-5,דירה בבית קומות,2.0,שניה,58.0,598000,,,1955.0,,2.0,3022358946,1,620641,False,,רמת גן,אסף,,6206-41-5,6206/41,10310.344827586208,32.0891732024,34.8077850051,2004
2004-11-11,2004-11-11,"הגפן 8, רמת גן",הגפן 8,6205-50-4,דירה בבית קומות,2.0,ראשונה,70.0,496000,,,1954.0,,2.0,3021960109,1,620550,False,,רמת גן,הגפן,,6205-50-4,6205/50,7085.714285714285,32.088838134,34.8113143041,2004
2004-11-10,2004-10-11,"ז'בוטינסקי 3, רמת גן",ז'בוטינסקי 3,6109-275-21,משרד,,ראשונה,41.0,278000,,,1966.0,,20.0,3021632380,1,6109275,False,,רמת גן,ז'בוטינסקי,,6109-275-21,6109/275,6780.487804878048,32.0834052795,34.8014749201,2004
2004-11-10,2004-10-11,"הירדן 50, רמת גן",הירדן 50,6182-284-1,דירה בבית קומות,2.0,ראשונה,36.9,520000,,,1960.0,,3.0,3021399336,1,6182284,False,,רמת גן,הירדן,,6182-284-1,6182/284,14092.140921409216,32.0653801175,34.8281623936,2004
2004-11-08,2004-08-11,"שקדייה 13, רמת גן",שקדייה 13,6205-670-25,דירה בבית קומות,3.5,שביעית,74.38,950000,,,1970.0,,8.0,3020355974,1,6205670,False,,רמת גן,שקדיה,,6205-670-25,6205/670,12772.250605001344,32.0883603348,34.8115297038,2004
2004-11-08,2004-08-11,"שילה 14, רמת גן",שילה 14,6126-68-8,דירה בבית קומות,2.0,שניה,59.0,509920,,,1948.0,,4.0,3020355742,1,612668,False,,רמת גן,שילה,,6126-68-8,6126/68,8642.71186440678,32.0816559351,34.8153194595,2004
2004-11-08,2004-08-11,"אלימלך 4, רמת גן",אלימלך 4,6125-394-3,דירה בבית קומות,2.0,שניה,68.0,68025,,,1950.0,,3.0,3020350232,1,6125394,False,,רמת גן,אלימלך,,6125-394-3,6125/394,1000.3676470588236,32.0861987642,34.8154635685,2004
2004-11-08,2004-08-11,"חבר 11, רמת גן",חבר 11,6157-288-2,דירה בבית קומות,4.0,שניה,108.0,884000,,,1950.0,,2.0,3021194538,1,6157288,False,,רמת גן,חבר,,6157-288-2,6157/288,8185.185185185185,32.0683778417,34.8206199261,2004
2004-11-07,2004-07-11,"הראשונים 13, רמת גן",הראשונים 13,6128-866-7,דירה בבית קומות,4.0,שלישית,91.5,1164000,,,2003.0,,6.0,3019853549,1,6128866,False,,רמת גן,הראשונים,,6128-866-7,6128/866,12721.311475409835,32.0806575401,34.8039645925,2004
2004-11-07,2004-07-11,"נוה יהושע 12, רמת גן",נוה יהושע 12,6180-159-14,דירה בבית קומות,4.0,חמישית+גג,86.0,940000,,,2001.0,,5.0,3020145695,1,6180159,False,,רמת גן,נוה יהושע,,6180-159-14,6180/159,10930.232558139534,32.059748395,34.8295356628,2004
2004-11-06,2004-06-11,"דוד בן-גוריון 104, רמת גן",דוד בן-גוריון 104,6125-492-12,דירה בבית קומות,2.0,שניה,47.0,475000,,,1950.0,,2.0,3019661395,1,6125492,False,,רמת גן,בן גוריון דוד,,6125-492-12,6125/492,10106.382978723404,32.0842717895,34.8214717561,2004
2004-11-05,2004-05-11,"ביאליק 156, רמת גן",ביאליק 156,6207-689-8,דירה בבית קומות,3.0,שלישית,71.1,776000,,,1970.0,,4.0,3018926448,1,6207689,False,,רמת גן,ביאליק,,6207-689-8,6207/689,10914.205344585092,32.0894847446,34.8021273478,2004
2004-11-05,2004-05-11,"יוחנן באדר 8, רמת גן",יוחנן באדר 8,6186-669-114,דירה בבית קומות,4.0,אחת עשרה,99.5,1260000,,,2004.0,,,3018906815,1,6186669,False,,רמת גן,באדר יוחנן,,6186-669-114,6186/669,12663.316582914573,32.0722478257,34.8319408174,2004
2004-11-04,2004-04-11,"הירדן 25, רמת גן",הירדן 25,6182-524-22,דירה בבית קומות,4.0,שישית,101.7,876000,,,1982.0,,9.0,3018492724,1,6182524,False,,רמת גן,הירדן,,6182-524-22,6182/524,8613.569321533923,32.0670835641,34.828839783,2004
2004-11-03,2004-03-11,"רש""י 6, רמת גן","רש""י 6",6204-90-12,דירה בבית קומות,4.0,שלישית,75.6,846000,,,1997.0,,5.0,3017604106,1,620490,False,,רמת גן,"רש""י",,6204-90-12,6204/90,11190.47619047619,32.0904315883,34.8191522056,2004
2004-11-03,2004-03-11,"אחד העם 6, רמת גן",אחד העם 6,6141-91-9,דירה בבית קומות,2.0,ראשונה,38.7,331000,,,1962.0,,2.0,5202561500,1,614191,False,,רמת גן,אחד העם,,6141-91-9,6141/91,8552.97157622739,32.04746618,34.8156990337,2004
2004-11-03,2004-03-11,"רוחמה 44, רמת גן",רוחמה 44,6157-765-7,דירה בבית קומות,3.0,רביעית,63.0,878000,,,2004.0,,6.0,3017604338,1,6157765,False,,רמת גן,רוחמה,,6157-765-7,6157/765,13936.507936507936,32.071704357,34.8222904049,2004
2004-11-03,2004-03-11,"רוחמה 11, רמת גן",רוחמה 11,6157-49-1,קוטג' דו משפחתי,3.0,,92.0,1306000,,,1949.0,,,3017541640,1,615749,False,,רמת גן,רוחמה,,6157-49-1,6157/49,14195.652173913044,32.0722028868,34.8192205137,2004
2004-11-03,2004-03-11,"הזמיר 10, רמת גן",הזמיר 10,6203-98-3,דירה בבית קומות,3.0,קרקע,55.0,1174000,,,1950.0,,1.0,3018025476,1,620398,False,,רמת גן,הזמיר,,6203-98-3,6203/98,21345.454545454544,32.0944447921,34.8167692207,2004
2004-11-03,2004-03-11,"הבנים 6, רמת גן",הבנים 6,6159-336-16,משרד,,,,126000,,,1950.0,,3.0,3017799566,1,6159336,False,,רמת גן,הבנים,,6159-336-16,6159/336,,32.0845463622,34.8245981015,2004
2004-11-03,2004-03-11,"אריה בן-אליעזר 40, רמת גן",אריה בן-אליעזר 40,6181-581-3,דירה בבית קומות,4.0,שניה,87.1,955000,,,2003.0,,8.0,3017987399,1,6181581,False,,רמת גן,בן אליעזר אריה,,6181-581-3,6181/581,10964.408725602756,32.0626002659,34.8323767407,2004
2004-11-03,2004-03-11,"חורגין 16, רמת גן",חורגין 16,6158-726-6,דירה בבית קומות,3.0,שלישית,64.22,923000,,,2003.0,,6.0,3017603642,1,6158726,False,,רמת גן,חורגין,,6158-726-6,6158/726,14372.46963562753,32.0734202639,34.8203313838,2004
2004-11-02,2004-02-11,"מירקין 4, רמת גן",מירקין 4,6126-165-12,דירה בבית קומות,4.0,שישית,89.6,1501000,,,2003.0,,7.0,3017429207,1,6126165,False,,רמת גן,מירקין,,6126-165-12,6126/165,16752.232142857145,32.0833539997,34.8165015452,2004
2004-11-02,2004-02-11,"שפירא 11, רמת גן",שפירא 11,6128-861-52,דירה בבית קומות,4.0,שלוש עשרה,96.45,1476000,,,2002.0,,19.0,3017322284,1,6128861,False,,רמת גן,שפירא,,6128-861-52,6128/861,15303.265940902022,32.080566594,34.8052109604,2004
2004-11-02,2004-02-11,"יוחנן באדר 6, רמת גן",יוחנן באדר 6,6186-669-2,דירה בבית קומות,4.0,ראשונה,101.3,1120000,,,2000.0,,,3017686176,1,6186669,False,14% ב 5.4 שנים,רמת גן,באדר יוחנן,2.59,6186-669-2,6186/669,11056.268509378086,32.0722478257,34.8319408174,2004
2004-11-02,2004-02-11,"שרה אהרונסון 39, רמת גן",שרה אהרונסון 39,6180-417-16,דירה בבית קומות,3.0,רביעית,67.0,694000,,,1970.0,,6.0,3017094286,1,6180417,False,,רמת גן,אהרונסון שרה,,6180-417-16,6180/417,10358.20895522388,32.0611898685,34.8259840446,2004
2004-11-01,2004-01-11,"צל הגבעה 4, רמת גן",צל הגבעה 4,6158-1354-8,דירה בבית קומות,4.0,שלישית ו-גג,91.98,986000,,,1960.0,,4.0,3016384859,1,61581354,False,,רמת גן,צל הגבעה,,6158-1354-8,6158/1354,10719.721678625789,32.0778252192,34.8197460427,2004
2004-10-31,2004-10-31,"אבן עזרא 4, רמת גן",אבן עזרא 4,6186-107-11,דירה בבית קומות,4.0,ראשונה,89.77,982000,,,1999.0,,6.0,3022031942,1,6186107,False,,רמת גן,אבן עזרא,,6186-107-11,6186/107,10939.066503286176,32.0690694782,34.8315368869,2004
2004-10-31,2004-10-31,"הרצל 57, רמת גן",הרצל 57,6127-903-10,חנות,,קרקע,20.74,290000,,,1970.0,,4.0,3021880475,1,6127903,False,,רמת גן,הרצל,,6127-903-10,6127/903,13982.64223722276,32.0847522589,34.814961314,2004
2004-10-31,2004-10-31,"שמעון פרוג 10, רמת גן",שמעון פרוג 10,6127-588-19,דירה בבית קומות,2.0,רביעית,58.62,524000,,,1950.0,,3.0,3021754905,1,6127588,False,,רמת גן,פרוג שמעון,,6127-588-19,6127/588,8938.928693278745,32.0797825031,34.811010683,2004
2004-10-31,2004-10-31,"יוחנן באדר 4, רמת גן",יוחנן באדר 4,6186-668-31,דירה בבית קומות,4.0,שמינית,103.29,1242000,,,1999.0,,18.0,3021983309,1,6186668,False,,רמת גן,באדר יוחנן,,6186-668-31,6186/668,12024.397327911704,32.0728098208,34.8312425182,2004
2004-10-31,2004-10-31,"רוקח 19, רמת גן",רוקח 19,6205-150-8,דירה בבית קומות,2.0,ראשונה,43.5,625000,,,1965.0,,2.0,3021792460,1,6205150,False,,רמת גן,רוקח,,6205-150-8,6205/150,14367.816091954022,32.0881161109,34.8105469552,2004
2004-10-31,2004-10-31,"יוחנן באדר 8, רמת גן",יוחנן באדר 8,6186-669-145,דירה בבית קומות,5.0,תשע עשרה,123.6,1679000,,,2004.0,,,3021913738,1,6186669,False,,רמת גן,באדר יוחנן,,6186-669-145,6186/669,13584.142394822007,32.0722478257,34.8319408174,2004
2004-10-28,2004-10-28,"מרים 7, רמת גן",מרים 7,6127-728-7,דירה בבית קומות,2.0,שניה,48.0,548000,,,1960.0,,4.0,3021668978,1,6127728,False,,רמת גן,מרים,,6127-728-7,6127/728,11416.666666666666,32.0783387192,34.8138272393,2004
2004-10-28,2004-10-28,"הפודים 14, רמת גן",הפודים 14,6204-263-4,חנות,,חנויות,28.3,155000,,,1950.0,,4.0,3022406100,1,6204263,False,,רמת גן,הפודים,,6204-263-4,6204/263,5477.031802120141,32.0915753118,34.8180366949,2004
2004-10-27,2004-10-27,"הפודים 26, רמת גן",הפודים 26,6204-175-8,חנות,,ראשונה,21.0,66000,,,1956.0,,3.0,3021675938,1,6204175,False,,רמת גן,הפודים,,6204-175-8,6204/175,3142.8571428571427,,,2004
2004-10-27,2004-10-27,"שלומציון 10, רמת גן",שלומציון 10,6145-1035-6,דירה בבית קומות,4.0,שניה,78.0,857000,,,1968.0,,3.0,3021622375,1,61451035,False,,רמת גן,שלומציון,,6145-1035-6,6145/1035,10987.179487179486,32.069545122,34.8257812606,2004
2004-10-27,2004-10-27,"עידו 2, רמת גן",עידו 2,6143-145-1,קוטג' דו משפחתי,3.0,,85.0,1756000,,,1962.0,,,3021682434,1,6143145,False,,רמת גן,עידו,,6143-145-1,6143/145,20658.82352941177,32.0550784278,34.8216065989,2004
2004-10-27,2004-10-27,"הגולן 6, רמת גן",הגולן 6,6183-243-1,דירה בבית קומות,1.0,ראשונה,24.8,293000,,,1950.0,,2.0,3021662250,1,6183243,False,,רמת גן,הגולן,,6183-243-1,6183/243,11814.516129032258,32.0669220367,34.8342020372,2004
2004-10-26,2004-10-26,"גרנדוס 31, רמת גן",גרנדוס 31,6157-165-1,דירה בבית קומות,2.0,,50.0,709000,,,1950.0,,1.0,3021593665,1,6157165,False,,רמת גן,גרנדוס,,6157-165-1,6157/165,14180.0,32.0698175211,34.8216094691,2004
2004-10-26,2004-10-26,"שפירא 11, רמת גן",שפירא 11,6128-861-125,דירה בבית קומות,5.0,שלוש עשרה,109.3,1484000,,,2002.0,,19.0,3021747713,1,6128861,False,,רמת גן,שפירא,,6128-861-125,6128/861,13577.310155535224,32.080566594,34.8052109604,2004
2004-10-26,2004-10-26,"יוחנן באדר 8, רמת גן",יוחנן באדר 8,6186-669-106,דירה בבית קומות,4.0,תשיעית,99.5,1273000,,,2004.0,,,3022234362,1,6186669,False,,רמת גן,באדר יוחנן,,6186-669-106,6186/669,12793.96984924623,32.0722478257,34.8319408174,2004
2004-10-26,2004-10-26,"המעפיל 4, רמת גן",המעפיל 4,6205-370-2,דירה בבית קומות,2.0,ראשונה,56.0,465000,,,1950.0,,2.0,3021802204,1,6205370,False,,רמת גן,המעפיל,,6205-370-2,6205/370,8303.57142857143,32.0896214916,34.8154017371,2004
2004-10-26,2004-10-26,"רמת חן 14, רמת גן",רמת חן 14,6144-505-1,דירה בבית קומות,3.0,ראשונה,51.88,1019000,,,1960.0,,2.0,3022319274,1,6144505,False,,רמת גן,רמת חן,,6144-505-1,6144/505,19641.48033924441,32.0569160492,34.8179643974,2004
2004-10-25,2004-10-25,"תובל 21, רמת גן",תובל 21,6109-347-68,משרד,,שמינית,34.0,443000,,,1988.0,,29.0,3021858435,1,6109347,False,,רמת גן,תובל,,6109-347-68,6109/347,13029.411764705885,32.0838519184,34.8021240457,2004
2004-10-25,2004-10-25,"ביאליק 117, רמת גן",ביאליק 117,6207-742-14,דירה בבית קומות,4.0,חמישית,87.0,753000,,,1970.0,,6.0,3022101774,1,6207742,False,,רמת גן,ביאליק,,6207-742-14,6207/742,8655.172413793103,32.088113016,34.8045861845,2004
2004-10-25,2004-10-25,"ירושלים 96, רמת גן",ירושלים 96,6186-503-17,דירה בבית קומות,4.0,שלישית,75.7,818000,,,1970.0,,8.0,3021691482,1,6186503,False,,רמת גן,ירושלים,,6186-503-17,6186/503,10805.812417437251,32.0743699756,34.8302728886,2004
2004-10-24,2004-10-24,"מקדונלד 20, רמת גן",מקדונלד 20,6205-721-84,דירה בבית קומות,5.0,שלוש עשרה,140.0,1266000,,,1970.0,,12.0,3021653956,1,6205721,False,,רמת גן,מקדונלד,,6205-721-84,6205/721,9042.857142857143,32.085547587,34.8097677798,2004
2004-10-24,2004-10-24,"האש""ל 17, רמת גן","האש""ל 17",6126-586-2,דירה בבית קומות,4.0,ראשונה,67.8,968000,,,1970.0,,4.0,3021526878,1,6126586,False,,רמת גן,האשל,,6126-586-2,6126/586,14277.286135693215,32.0824515001,34.8184681734,2004
2004-10-24,2004-10-24,"שפירא 11, רמת גן",שפירא 11,6128-861-131,דירה בבית קומות,4.0,ארבע עשרה,96.45,1782000,,,2002.0,,19.0,3021590040,1,6128861,False,,רמת גן,שפירא,,6128-861-131,6128/861,18475.89424572317,32.080566594,34.8052109604,2004
2004-10-24,2004-10-24,"חורגין 19, רמת גן",חורגין 19,6158-1378-3,דירה בבית קומות,3.0,שניה,55.02,741000,,,1960.0,,3.0,3021620200,1,61581378,True,-7% ב 3.4 שנים,רמת גן,חורגין,-2.06,6158-1378-3,6158/1378,13467.82988004362,32.0737216687,34.8210734475,2004
2004-10-21,2004-10-21,"ההגנה 18, רמת גן",ההגנה 18,6183-88-5,דירה בבית קומות,3.0,שלישית,69.61,799000,,,2004.0,,7.0,3021623361,1,618388,False,,רמת גן,ההגנה,,6183-88-5,6183/88,11478.235885648612,32.0694413057,34.8339117959,2004
2004-10-21,2004-10-21,"ההלכה 3, רמת גן",ההלכה 3,6158-505-10,דירה בבית קומות,2.0,שניה,63.0,533000,,,1950.0,,2.0,3021547207,1,6158505,False,,רמת גן,ההלכה,,6158-505-10,6158/505,8460.317460317461,32.0760118662,34.8259106723,2004
2004-10-21,2004-10-21,"חורגין 16, רמת גן",חורגין 16,6158-726-11,דירה בבית קומות,4.0,שישית,73.01,1421000,,,2003.0,,6.0,3022032348,1,6158726,False,,רמת גן,חורגין,,6158-726-11,6158/726,19463.087248322143,32.0734202639,34.8203313838,2004
2004-10-21,2004-10-21,"ארלוזורוב 71, רמת גן",ארלוזורוב 71,6128-784-18,דירה בבית קומות,4.0,שישית,92.18,970000,,,1987.0,,7.0,3021680984,1,6128784,False,,רמת גן,ארלוזורוב,,6128-784-18,6128/784,10522.88999783033,32.0814521267,34.8062709159,2004
2004-10-21,2004-10-21,"רמבה 14, רמת גן",רמבה 14,6210-298-1,קוטג' דו משפחתי,5.0,ראשונה+שניה,125.0,2554000,,,1971.0,,1.0,3021776655,1,6210298,False,,רמת גן,רמבה,,6210-298-1,6210/298,20432.0,32.0930352238,34.8100640282,2004
2004-10-20,2004-10-20,"גרנדוס 17, רמת גן",גרנדוס 17,6157-158-5,דירה בבית קומות,2.0,,70.0,534000,,,1950.0,,1.0,3022315417,1,6157158,False,,רמת גן,גרנדוס,,6157-158-5,6157/158,7628.571428571428,32.0701271197,34.8198850078,2004
2004-10-20,2004-10-20,"ראש פינה 11, רמת גן",ראש פינה 11,6182-344-6,דירה בבית קומות,3.0,ראשונה,41.04,540000,,,1960.0,,4.0,3022128309,1,6182344,False,32% ב 4.1 שנים,רמת גן,ראש פנה,7.8,6182-344-6,6182/344,13157.894736842103,32.0649062847,34.8300825197,2004
2004-10-20,2004-10-20,"ביאליק 77, רמת גן",ביאליק 77,6127-891-69,דירה בבית קומות,3.0,רביעית,71.0,601000,,,1970.0,,12.0,3022277862,1,6127891,False,,רמת גן,ביאליק,,6127-891-69,6127/891,8464.788732394367,32.0852140675,34.8108384264,2004
2004-10-20,2004-10-20,"חצור 15, רמת גן",חצור 15,6158-889-75,דירה בבית קומות,2.0,שניה,50.0,476000,,,2021.0,,9.0,3021616633,1,6158889,False,,רמת גן,חצור,,6158-889-75,6158/889,9520.0,,,2004
2004-10-20,2004-10-20,"סוקולוב 35, רמת גן",סוקולוב 35,6204-340-1,דירה בבית קומות,2.0,עמודים,33.0,424000,,,1960.0,,2.0,3021560866,1,6204340,False,,רמת גן,סוקולוב,,6204-340-1,6204/340,12848.484848484848,32.0935348957,34.8187034935,2004
2004-10-20,2004-10-20,"תלפיות 13, רמת גן",תלפיות 13,6205-172-8,דירה בבית קומות,3.0,קומה ‎2‏,65.91,703000,,,1957.0,,6.0,3021840513,1,6205172,False,,רמת גן,תלפיות,,6205-172-8,6205/172,10666.059778485816,,,2004
2004-10-19,2004-10-19,"אריה בן-אליעזר 38, רמת גן",אריה בן-אליעזר 38,6181-578-2,דירה בבית קומות,4.0,ראשונה,110.0,826000,,,1992.0,,,3021768332,1,6181578,False,,רמת גן,בן אליעזר אריה,,6181-578-2,6181/578,7509.090909090909,32.0628067462,34.8323076041,2004
2004-10-18,2004-10-18,"יוחנן באדר 4, רמת גן",יוחנן באדר 4,6186-668-56,דירה בבית קומות,5.0,ארבע עשרה,125.64,1530000,,,1999.0,,18.0,3021448433,1,6186668,False,,רמת גן,באדר יוחנן,,6186-668-56,6186/668,12177.650429799429,32.0728098208,34.8312425182,2004
2004-10-18,2004-10-18,"שמעון פרוג 5, רמת גן",שמעון פרוג 5,6127-818-1,דירה בבית קומות,3.0,קרקע,60.0,724000,,,2024.0,,2.0,3021410588,1,6127818,False,,רמת גן,פרוג שמעון,,6127-818-1,6127/818,12066.666666666666,32.0801588248,34.8119942355,2004
2004-10-18,2004-10-18,"השר משה 1, רמת גן",השר משה 1,6145-524-4,דירה בבית קומות,3.0,שניה,58.86,784000,,,1969.0,,3.0,3021460845,1,6145524,False,,רמת גן,השר משה,,6145-524-4,6145/524,13319.741760108733,32.0649817361,34.8211702457,2004
2004-10-17,2004-10-17,"יצחק רבין 8, רמת גן",יצחק רבין 8,6144-600-3,דירה בבית קומות,2.0,ראשונה,70.0,334000,,,1962.0,,3.0,3021450550,1,6144600,False,,רמת גן,יצחק רבין,,6144-600-3,6144/600,4771.428571428572,32.0617177483,34.8208966807,2004
2004-10-17,2004-10-17,"משה שרת 2, רמת גן",משה שרת 2,6125-578-11,דירה בבית קומות,3.0,שניה,73.7,602000,,,1960.0,,5.0,3021464702,1,6125578,False,,רמת גן,שרת משה,,6125-578-11,6125/578,8168.249660786974,32.0840793126,34.8173045714,2004
2004-10-17,2004-10-17,"הרי הגלעד 5, רמת גן",הרי הגלעד 5,6109-396-3,דירה בבית קומות,4.0,ראשונה,104.3,1330000,,,1994.0,,16.0,3021648910,1,6109396,False,,רמת גן,הרי הגלעד,,6109-396-3,6109/396,12751.677852348994,32.0854052924,34.8056248237,2004
2004-10-17,2004-10-17,"לוחמי סיני 21, רמת גן",לוחמי סיני 21,6158-866-4,דירה בבית קומות,2.0,קרקע,41.0,375000,,,1960.0,,2.0,3021821402,1,6158866,False,,רמת גן,לוחמי סיני,,6158-866-4,6158/866,9146.341463414634,32.0768421385,34.8245533565,2004
2004-10-15,2004-10-15,"רות 7, רמת גן",רות 7,6207-43-2,דירה בבית קומות,3.0,ראשונה,56.0,848000,,,1960.0,,3.0,3022443191,1,620743,False,,רמת גן,רות,,6207-43-2,6207/43,15142.857142857143,32.0899120132,34.8056067017,2004
2004-10-15,2004-10-15,"אצ""ל 9, רמת גן","אצ""ל 9",6182-431-13,דירה בבית קומות,4.0,שלישית,73.15,826000,,,1974.0,,7.0,3021361114,1,6182431,False,,רמת גן,"אצ""ל",,6182-431-13,6182/431,11291.866028708131,32.0665206786,34.8307728449,2004
2004-10-14,2004-10-14,"החי""ל 25, רמת גן","החי""ל 25",6145-769-1,קוטג' דו משפחתי,,,552.0,1339000,,,1980.0,,1.0,3021383328,1,6145769,False,,רמת גן,"החי""ל",,6145-769-1,6145/769,2425.7246376811595,32.0673390137,34.8246998696,2004
2004-10-14,2004-10-14,"תלפיות 11, רמת גן",תלפיות 11,6205-629-2,דירה בבית קומות,3.0,ראשונה,58.0,848000,,,1960.0,,3.0,3021386721,1,6205629,False,,רמת גן,תלפיות,,6205-629-2,6205/629,14620.689655172411,32.0876550714,34.8087418284,2004
2004-10-14,2004-10-14,"אבני החושן 2, רמת גן",אבני החושן 2,6187-520-205,דירה בבית קומות,3.5,שלוש עשרה,80.0,1099000,,,2003.0,,20.0,3021693628,1,6187520,False,,רמת גן,אבני החושן,,6187-520-205,6187/520,13737.5,32.0713092575,34.8333551388,2004
2004-10-14,2004-10-14,"חד נס 42, רמת גן",חד נס 42,6145-1428-4,דירה בבית קומות,3.0,שניה,65.0,768000,,,1968.0,,3.0,3021398350,1,61451428,False,,רמת גן,חד נס,,6145-1428-4,6145/1428,11815.384615384615,32.0654945894,34.8266331211,2004
2004-10-14,2004-10-14,"יוסף הגלילי 6, רמת גן",יוסף הגלילי 6,6125-665-5,דירה בבית קומות,3.0,שלישית,63.57,558000,,,1965.0,,3.0,3021406296,1,6125665,False,,רמת גן,יוסף הגלילי,,6125-665-5,6125/665,8777.72534214252,32.0875098007,34.8198244223,2004
2004-10-14,2004-10-14,"הרא""ה 120, רמת גן","הרא""ה 120",6158-855-2,דירה בבית קומות,1.0,קרקע,,252000,,,1950.0,,2.0,3021666861,1,6158855,False,,רמת גן,"הרא""ה",,6158-855-2,6158/855,,32.077693686,34.8249807331,2004
2004-10-13,2004-10-13,"בר כוכבא 2, רמת גן",בר כוכבא 2,6145-1006-20,דירה בבית קומות,3.0,שישית וגג,83.5,1204000,,,2000.0,,6.0,3021627827,1,61451006,False,,רמת גן,בר כוכבא,,6145-1006-20,6145/1006,14419.161676646709,32.0708763676,34.8229056361,2004
2004-10-13,2004-10-13,"ההלכה 6, רמת גן",ההלכה 6,6158-1184-71,דירה בבית קומות,2.0,ראשונה,53.0,515000,,,1954.0,,5.0,3022253908,1,61581184,False,,רמת גן,ההלכה,,6158-1184-71,6158/1184,9716.981132075472,,,2004
2004-10-13,2004-10-13,"קריניצי 48, רמת גן",קריניצי 48,6126-544-1,דירה בבית קומות,3.0,קרקע,75.0,689000,,,1960.0,,3.0,3021517076,1,6126544,False,,רמת גן,קריניצי,,6126-544-1,6126/544,9186.666666666666,32.0815466524,34.8191043339,2004
2004-10-13,2004-10-13,"מטולה 15, רמת גן",מטולה 15,6182-515-8,דירה בבית קומות,2.0,שניה,51.0,562000,,,2020.0,,3.0,3021664686,1,6182515,False,,רמת גן,מטולה,,6182-515-8,6182/515,11019.607843137255,32.0642203946,34.8293662289,2004
2004-10-13,2004-10-13,"אסף 17, רמת גן",אסף 17,6206-56-21,דירה בבית קומות,3.0,שלישית,57.0,767000,,,1960.0,,4.0,3021445040,1,620656,False,,רמת גן,אסף,,6206-56-21,6206/56,13456.140350877193,32.0896776267,34.8078900673,2004
2004-10-13,2004-10-13,"הרא""ה 269, רמת גן","הרא""ה 269",6145-1200-2,דירה בבית קומות,2.0,ראשונה,39.53,480000,,,1970.0,,3.0,3021384285,1,61451200,False,,רמת גן,"הרא""ה",,6145-1200-2,6145/1200,12142.67644826714,32.0643690441,34.8238358356,2004
2004-10-11,2004-11-10,"הכבאים 27, רמת גן",הכבאים 27,6181-543-2,דירה בבית קומות,4.0,שביעית,100.0,905000,,,2002.0,,1.0,3022468740,1,6181543,False,,רמת גן,הכבאים,,6181-543-2,6181/543,9050.0,32.0619083394,34.8355412795,2004
2004-10-10,2004-10-10,"קריניצי 83, רמת גן",קריניצי 83,6125-707-3,דירה בבית קומות,4.0,ראשונה,80.0,5073000,,,1950.0,,2.0,3021530271,1,6125707,False,,רמת גן,קריניצי,,6125-707-3,6125/707,63412.5,32.086384153,34.8197051403,2004
2004-10-10,2004-10-10,"תלפיות 33, רמת גן",תלפיות 33,6205-128-8,דירה בבית קומות,2.0,שניה,50.0,527000,,,1950.0,,4.0,3021363028,1,6205128,False,,רמת גן,תלפיות,,6205-128-8,6205/128,10540.0,32.0865280929,34.8111816496,2004
2004-10-09,2004-09-10,"אבישי 8, רמת גן",אבישי 8,6145-242-4,דירה בבית קומות,4.0,שניה,68.1,834000,,,1985.0,,3.0,3021000528,1,6145242,False,,רמת גן,אבישי,,6145-242-4,6145/242,12246.696035242292,32.0714567056,34.8235796352,2004
2004-10-08,2004-08-10,"רוחמה 44, רמת גן",רוחמה 44,6157-765-19,דירה בבית קומות,3.0,רביעית,63.0,904000,,,2004.0,,6.0,3020491433,1,6157765,False,,רמת גן,רוחמה,,6157-765-19,6157/765,14349.20634920635,32.071704357,34.8222904049,2004
2004-10-08,2004-08-10,"בועז 20, רמת גן",בועז 20,6128-304-7,דירה בבית קומות,2.0,ראשונה,43.0,533000,,,1950.0,,3.0,3020356670,1,6128304,False,0% ב 2.1 שנים,רמת גן,בועז,0.0,6128-304-7,6128/304,12395.348837209302,32.0800692642,34.8089070367,2004
2004-10-08,2004-08-10,"אלימלך 14, רמת גן",אלימלך 14,6125-685-18,דירה בבית קומות,4.0,שישית,78.91,1067000,,,1970.0,,6.0,3020532758,1,6125685,False,,רמת גן,אלימלך,,6125-685-18,6125/685,13521.73362058041,32.0863761181,34.8168499389,2004
2004-10-08,2004-08-10,"פרוג שמעון 8, רמת גן",פרוג שמעון 8,6127-799-10,דירה בבית קומות,2.0,ראשונה,42.0,729000,,,1960.0,,3.0,3020546649,1,6127799,True,-4% ב 5.7 שנים,רמת גן,פרוג שמעון,-0.7,6127-799-10,6127/799,17357.14285714286,32.0799712167,34.8113068137,2004
2004-10-08,2004-08-10,"הרא""ה 27, רמת גן","הרא""ה 27",6125-152-6,דירה בבית קומות,1.0,ראשונה,34.0,28573000,,,1950.0,,4.0,3020421311,1,6125152,False,,רמת גן,"הרא""ה",,6125-152-6,6125/152,840382.3529411765,32.0843352259,34.8187445072,2004
2004-10-07,2004-07-10,"תובל 21, רמת גן",תובל 21,6109-347-62,משרד,,שמינית,34.0,448000,,,1988.0,,29.0,3020366994,1,6109347,False,,רמת גן,תובל,,6109-347-62,6109/347,13176.470588235294,32.0838519184,34.8021240457,2004
2004-10-06,2004-06-10,"לאן 7, רמת גן",לאן 7,6128-814-6,דירה בבית קומות,4.0,שלישית,92.29,1103000,,,1970.0,,6.0,3019496559,1,6128814,False,,רמת גן,לאן,,6128-814-6,6128/814,11951.457362661176,32.0831434884,34.8084628838,2004
2004-10-06,2004-06-10,"חירות 14, רמת גן",חירות 14,6205-496-3,דירה בבית קומות,2.0,קרקע,53.0,610000,,,1950.0,,2.0,3019498009,1,6205496,False,38% ב 6 שנים,רמת גן,חרות,6.33,6205-496-3,6205/496,11509.433962264153,32.0896524848,34.8114069229,2004
2004-10-06,2004-06-10,"חרות 36, רמת גן",חרות 36,6205-321-4,דירה בבית קומות,1.0,קרקע,23.61,316000,,,1950.0,,2.0,3019337204,1,6205321,False,,רמת גן,חרות,,6205-321-4,6205/321,13384.159254553157,32.0905242618,34.8142574927,2004
2004-10-06,2004-06-10,"ארלוזורוב 70, רמת גן",ארלוזורוב 70,6128-829-12,דירה בבית קומות,4.0,שלישית,92.0,1040000,,,1970.0,,4.0,3019156128,1,6128829,False,,רמת גן,ארלוזורוב,,6128-829-12,6128/829,11304.347826086956,32.0816152585,34.8076485959,2004
2004-10-06,2004-06-10,"סן מרטין 5, רמת גן",סן מרטין 5,6143-751-3,דירה בבית קומות,2.0,ראשונה,41.73,655000,,,1950.0,,2.0,3019274825,1,6143751,False,,רמת גן,סן מרטין,,6143-751-3,6143/751,15696.141864366164,32.0527731721,34.8213834765,2004
2004-10-05,2004-05-10,"דוד בן-גוריון 116, רמת גן",דוד בן-גוריון 116,6126-519-6,דירה בבית קומות,2.0,שניה,59.0,527000,,,1960.0,,3.0,3018680296,1,6126519,False,,רמת גן,בן גוריון דוד,,6126-519-6,6126/519,8932.203389830509,32.0830768083,34.8208480756,2004
2004-10-05,2004-05-10,"יוחנן באדר 8, רמת גן",יוחנן באדר 8,6186-669-82,דירה בבית קומות,3.5,שלישית,91.3,1109000,,,2000.0,,,3018875292,1,6186669,False,,רמת גן,באדר יוחנן,,6186-669-82,6186/669,12146.768893756846,32.0722478257,34.8319408174,2004
2004-10-05,2004-05-10,"יוחנן באדר 8, רמת גן",יוחנן באדר 8,6186-669-94,דירה בבית קומות,3.5,שישית,106.4,1135000,,,2004.0,,,3018904379,1,6186669,False,,רמת גן,באדר יוחנן,,6186-669-94,6186/669,10667.293233082706,32.0722478257,34.8319408174,2004
2004-10-05,2004-05-10,"תובל 21, רמת גן",תובל 21,6109-347-60,מחסנים,,,,236000,,,1988.0,,29.0,3019061820,1,6109347,False,,רמת גן,תובל,,6109-347-60,6109/347,,32.0838519184,34.8021240457,2004
2004-10-05,2004-05-10,"משה שרת 7, רמת גן",משה שרת 7,6125-653-5,דירה בבית קומות,3.0,שניה,68.8,784000,,,1960.0,,3.0,3018587670,1,6125653,False,,רמת גן,שרת משה,,6125-653-5,6125/653,11395.348837209303,32.0847216809,34.8166500799,2004
2004-10-03,2004-03-10,"הרא""ה 92, רמת גן","הרא""ה 92",6159-443-7,דירה בבית קומות,2.0,שניה,70.0,674000,,,1950.0,,15.0,3017773292,1,6159443,False,,רמת גן,"הרא""ה",,6159-443-7,6159/443,9628.57142857143,32.0805847651,34.8252696917,2004
2004-10-03,2004-03-10,"הרכסים 42, רמת גן",הרכסים 42,6158-820-5,דירה בבית קומות,2.0,שניה,50.0,462000,,,1950.0,,3.0,3017514148,1,6158820,False,,רמת גן,הרכסים,,6158-820-5,6158/820,9240.0,32.0728320525,34.823469546,2004
2004-10-03,2004-03-10,"קריניצי 77, רמת גן",קריניצי 77,6125-252-9,דירה בבית קומות,3.0,שניה,73.0,567000,,,1955.0,,2.0,3017765636,1,6125252,False,,רמת גן,קריניצי,,6125-252-9,6125/252,7767.123287671233,32.085842341,34.8196271905,2004
2004-10-03,2004-03-10,"הרצל 21, רמת גן",הרצל 21,6126-256-3,דירה בבית קומות,4.0,שניה,97.34,890000,,,1965.0,,3.0,3017602424,1,6126256,False,,רמת גן,הרצל,,6126-256-3,6126/256,9143.209369221286,32.0813087355,34.817518193,2004
2004-10-02,2004-02-10,"הצנחנים 29, רמת גן",הצנחנים 29,6145-844-6,דירה בבית קומות,2.0,שניה,48.0,603000,,,1950.0,,1.0,3016983535,1,6145844,False,,רמת גן,הצנחנים,,6145-844-6,6145/844,12562.5,32.0679137848,34.8259819521,2004
2004-10-02,2004-02-10,"הלפיד 6, רמת גן",הלפיד 6,6204-344-4,דירה בבית קומות,4.0,שניה,73.7,751000,,,1980.0,,3.0,3016935192,1,6204344,False,,רמת גן,הלפיד,,6204-344-4,6204/344,10189.959294436903,32.091502491,34.8219560429,2004
2004-10-02,2004-02-10,"הררי 16, רמת גן",הררי 16,6180-332-10,דירה בבית קומות,3.0,שניה,53.28,505000,,,1965.0,,4.0,3017900805,1,6180332,False,,רמת גן,הררי,,6180-332-10,6180/332,9478.228228228229,32.0581617335,34.8316823979,2004
2004-09-29,2004-09-29,"גרנדוס 5, רמת גן",גרנדוס 5,6157-152-2,דירה בבית קומות,2.0,,27.0,555000,,,1950.0,,2.0,3021630031,1,6157152,False,,רמת גן,גרנדוס,,6157-152-2,6157/152,20555.555555555555,32.0703919263,34.8183917953,2004
2004-09-28,2004-09-28,"יוחנן באדר 8, רמת גן",יוחנן באדר 8,6186-669-125,דירה בבית קומות,5.0,ארבע עשרה,123.6,1668000,,,2004.0,,,3021569943,1,6186669,False,,רמת גן,באדר יוחנן,,6186-669-125,6186/669,13495.145631067962,32.0722478257,34.8319408174,2004
2004-09-28,2004-09-28,"השוטרת 3, רמת גן",השוטרת 3,6127-506-6,דירה בבית קומות,3.0,שניה,58.2,807000,,,2004.0,,5.0,3021345048,1,6127506,False,,רמת גן,השוטרת,,6127-506-6,6127/506,13865.979381443298,32.0807578085,34.8145038921,2004
2004-09-28,2004-09-28,"קריניצי 44, רמת גן",קריניצי 44,6126-427-23,דירה בבית קומות,3.0,שישית,54.06,805000,,,2004.0,,7.0,3021387388,1,6126427,False,0% ב 2.2 שנים,רמת גן,קריניצי,0.0,6126-427-23,6126/427,14890.86200517943,32.0812029303,34.8189762465,2004
2004-09-28,2004-09-28,"אלימלך רימלט 14, רמת גן",אלימלך רימלט 14,6186-678-86,דירה בבית קומות,5.0,עשרים ושתים,200.7,2485000,,,2003.0,,22.0,3021702009,1,6186678,False,99% ב 0.5 שנים,רמת גן,רימלט אלימלך,198.0,6186-678-86,6186/678,12381.66417538615,32.0711024216,34.8315883404,2004
2004-09-28,2004-09-28,"שלם 7, רמת גן",שלם 7,6142-342-44,דירה בבית קומות,6.0,שישית+שביעית,119.78,1232000,,,1992.0,,8.0,3021711144,1,6142342,False,,רמת גן,שלם,,6142-342-44,6142/342,10285.523459676073,32.0526239791,34.8145580883,2004
2004-09-28,2004-09-28,"כרמלי 5, רמת גן",כרמלי 5,6143-338-1,קוטג' דו משפחתי,4.0,,128.0,2234000,,,1960.0,,,3021374483,1,6143338,False,,רמת גן,כרמלי,,6143-338-1,6143/338,17453.125,32.0569142939,34.8139463008,2004
2004-09-27,2004-09-27,"הצופים 31, רמת גן",הצופים 31,6127-826-15,דירה בבית קומות,2.0,שניה,60.5,762000,,,1960.0,,3.0,3021213475,1,6127826,False,0% ב 5 שנים,רמת גן,הצופים,0.0,6127-826-15,6127/826,12595.04132231405,32.0840965516,34.8112507945,2004
2004-09-27,2004-09-27,"תובל 26, רמת גן",תובל 26,6207-314-14,תעשיה,,שניה,86.5,213000,,,1960.0,,5.0,3021521136,1,6207314,False,,רמת גן,תובל,,6207-314-14,6207/314,2462.42774566474,32.0868868348,34.8030060783,2004
2004-09-27,2004-09-27,"נווה יעקב 9, רמת גן",נווה יעקב 9,6145-1178-6,דירה בבית קומות,3.0,שלישית,59.04,731000,,,1970.0,,3.0,3021394290,1,61451178,False,,רמת גן,נוה יעקב,,6145-1178-6,6145/1178,12381.436314363144,32.0657277204,34.8227535913,2004
2004-09-27,2004-09-27,"בניהו 39, רמת גן",בניהו 39,6142-138-8,דירה בבית קומות,2.0,ראשונה,38.7,426000,,,1960.0,,1.0,3021375672,1,6142138,False,,רמת גן,בניהו,,6142-138-8,6142/138,11007.751937984496,32.0481019863,34.815910377,2004
2004-09-27,2004-09-27,"ארלוזורוב 20, רמת גן",ארלוזורוב 20,6127-477-9,דירה בבית קומות,2.0,שלישית,52.85,457000,,,1950.0,,3.0,3021365116,1,6127477,False,,רמת גן,ארלוזורוב,,6127-477-9,6127/477,8647.114474929043,32.0800588167,34.8131682456,2004
2004-09-26,2004-09-26,"צל הגבעה 23, רמת גן",צל הגבעה 23,6158-765-5,דירה בבית קומות,3.0,חמישית,70.0,923000,,,1992.0,,2.0,3021122821,1,6158765,False,,רמת גן,צל הגבעה,,6158-765-5,6158/765,13185.714285714286,32.0780454036,34.8226563751,2004
2004-09-23,2004-09-23,"הירדן 83, רמת גן",הירדן 83,6181-387-2,חנות,,"מרתף, ביניים וראשונה",376.19,1614000,,,1970.0,,8.0,3021832364,1,6181387,False,,רמת גן,הירדן,,6181-387-2,6181/387,4290.385177702757,32.0612268024,34.8287290499,2004
2004-09-22,2004-09-22,"יהושפט 11, רמת גן",יהושפט 11,6142-173-8,דירה בבית קומות,2.0,שניה,38.0,358000,,,1954.0,,2.0,3021346237,1,6142173,False,,רמת גן,יהושפט,,6142-173-8,6142/173,9421.052631578948,32.0497174111,34.8197694988,2004
2004-09-21,2004-09-21,"אריה בן-אליעזר 33, רמת גן",אריה בן-אליעזר 33,6181-667-149,דירה בבית קומות,4.0,תשע עשרה-עשרים,115.8,1477000,,,2006.0,,29.0,3021116093,1,6181667,False,,רמת גן,בן אליעזר אריה,,6181-667-149,6181/667,12754.749568221072,32.0639633937,34.8332410095,2004
2004-09-21,2004-09-21,"אנה פרנק 2, רמת גן",אנה פרנק 2,6207-546-28,דירה בבית קומות,3.0,שלישית,65.98,985000,,,1970.0,,8.0,3021146688,1,6207546,False,,רמת גן,אנה פרנק,,6207-546-28,6207/546,14928.766292816004,32.0919421731,34.8021342857,2004
2004-09-21,2004-09-21,"ארלוזורוב 29, רמת גן",ארלוזורוב 29,6127-870-51,דירה בבית קומות,3.0,ראשונה,71.54,718000,,,1960.0,,3.0,3021128563,1,6127870,False,,רמת גן,ארלוזורוב,,6127-870-51,6127/870,10036.343304445065,32.0806630632,34.811341188,2004
2004-09-21,2004-09-21,"יוחנן באדר 8, רמת גן",יוחנן באדר 8,6186-669-123,דירה בבית קומות,4.0,שלוש עשרה,102.7,1350000,,,2004.0,,,3021569218,1,6186669,False,,רמת גן,באדר יוחנן,,6186-669-123,6186/669,13145.08276533593,32.0722478257,34.8319408174,2004
2004-09-20,2004-09-20,"הרא""ה 47, רמת גן","הרא""ה 47",6159-632-3,דירה בבית קומות,3.0,שניה,61.9,727000,,,1970.0,,9.0,3021795621,1,6159632,False,,רמת גן,"הרא""ה",,6159-632-3,6159/632,11744.74959612278,32.0838781677,34.8218742789,2004
2004-09-20,2004-09-20,"לביא 15, רמת גן",לביא 15,6158-374-5,דירה בבית קומות,4.0,שלישית רביעית חמישית,82.9,1388000,,,1999.0,,3.0,3021709694,1,6158374,False,,רמת גן,לביא,,6158-374-5,6158/374,16743.06393244873,32.0784995813,34.8208288209,2004
2004-09-20,2004-09-20,"מלכי צדק 1, רמת גן",מלכי צדק 1,6142-154-9,דירה בבית קומות,4.0,ראשונה,74.0,671000,,,1960.0,,2.0,3021226641,1,6142154,False,20% ב 6 שנים,רמת גן,מלכי צדק,3.33,6142-154-9,6142/154,9067.567567567568,32.0493008964,34.8164000359,2004
2004-09-20,2004-09-20,"יונה 26, רמת גן",יונה 26,6158-1125-11,דירה בבית קומות,3.0,שלישית,62.0,767000,,,1960.0,,3.0,3021181140,1,61581125,False,,רמת גן,יונה,,6158-1125-11,6158/1125,12370.967741935485,32.0786479585,34.8264101983,2004
2004-09-20,2004-09-20,"הזיתים 10, רמת גן",הזיתים 10,6126-331-3,דירה בבית קומות,2.0,ראשונה,50.0,4573000,,,1950.0,,2.0,3021064879,1,6126331,False,,רמת גן,הזיתים,,6126-331-3,6126/331,91460.0,32.0826674094,34.8196882133,2004
2004-09-19,2004-09-19,"אבטליון 5, רמת גן",אבטליון 5,6125-592-20,דירה בבית קומות,2.0,קרקע,36.6,375000,,,1960.0,,2.0,3021082308,1,6125592,False,,רמת גן,אבטליון,,6125-592-20,6125/592,10245.901639344262,32.0860341509,34.8164665578,2004
2004-09-19,2004-09-19,"יוחנן באדר 8, רמת גן",יוחנן באדר 8,6186-669-141,דירה בבית קומות,5.0,שמונה עשרה,137.9,1678000,,,2004.0,,,3021465891,1,6186669,False,,רמת גן,באדר יוחנן,,6186-669-141,6186/669,12168.23785351704,32.0722478257,34.8319408174,2004
2004-09-19,2004-09-19,"הרא""ה 129, רמת גן","הרא""ה 129",6158-1119-3,דירה בבית קומות,2.0,שלישית,54.0,515000,,,1960.0,,4.0,3021104319,1,61581119,False,,רמת גן,"הרא""ה",,6158-1119-3,6158/1119,9537.037037037036,32.0785932745,34.8256695301,2004
2004-09-15,2004-09-15,"הדודאים 1, רמת גן",הדודאים 1,6176-580-6,דירה בבית קומות,4.0,שניה,96.0,1142000,,,1970.0,,3.0,3021080423,1,6176580,False,,רמת גן,הדודאים,,6176-580-6,6176/580,11895.833333333334,32.044979245,34.8368500994,2004
2004-09-15,2004-09-15,"שאר ישוב 5, רמת גן",שאר ישוב 5,6181-429-5,דירה בבית קומות,4.0,שלישית + גג,114.95,1110000,,,1970.0,,5.0,3020993568,1,6181429,False,,רמת גן,שאר ישוב,,6181-429-5,6181/429,9656.372335798173,32.0626345138,34.83055419,2004
2004-09-14,2004-09-14,"הרא""ה 222, רמת גן","הרא""ה 222",6145-1216-1,חנות,,קומה ‎0‏,52.81,313000,,,1973.0,,4.0,3021196945,1,61451216,False,,רמת גן,"הרא""ה",,6145-1216-1,6145/1216,5926.907782616929,32.0657190284,34.8236205275,2004
2004-09-14,2004-09-14,"ז'בוטינסקי 35, רמת גן",ז'בוטינסקי 35,6109-327-89,משרד,,תשיעית,49.11,423000,,,1994.0,,16.0,3021421608,1,6109327,False,,רמת גן,ז'בוטינסקי,,6109-327-89,6109/327,8613.317043372022,32.0839977342,34.806704565,2004
2004-09-13,2004-09-13,"הביל""ויים 46, רמת גן","הביל""ויים 46",6180-439-20,דירה בבית קומות,3.0,שניה,72.5,725000,,,1970.0,,5.0,3020989276,1,6180439,False,,רמת גן,הבילויים,,6180-439-20,6180/439,10000.0,32.0598072589,34.8262415655,2004
2004-09-13,2004-09-13,"יוחנן באדר 8, רמת גן",יוחנן באדר 8,6186-669-127,דירה בבית קומות,4.0,ארבע עשרה,102.7,1333000,,,2004.0,,,3021494079,1,6186669,False,,רמת גן,באדר יוחנן,,6186-669-127,6186/669,12979.552093476144,32.0722478257,34.8319408174,2004
2004-09-13,2004-09-13,"תרפ""ב 16, רמת גן","תרפ""ב 16",6128-831-13,דירה בבית קומות,5.0,שש עשרה,125.0,1810000,,,1987.0,,4.0,3021002703,1,6128831,False,,רמת גן,"תרפ""ב",,6128-831-13,6128/831,14480.0,32.0801347603,34.8043262282,2004
2004-09-13,2004-09-13,"מל""ל 14, רמת גן","מל""ל 14",6159-146-8,דירה בבית קומות,3.0,רביעית,63.4,1128000,,,2006.0,,6.0,3021327590,1,6159146,False,,רמת גן,"מל""ל",,6159-146-8,6159/146,17791.79810725552,32.0796588293,34.8213910285,2004
2004-09-13,2004-09-13,"אמנון ותמר 28, רמת גן",אמנון ותמר 28,6145-413-5,דירה בבית קומות,4.0,שלישית,78.0,786000,,,1970.0,,3.0,3021310596,1,6145413,False,,רמת גן,אמנון ותמר,,6145-413-5,6145/413,10076.923076923076,32.0709966217,34.8266877715,2004
2004-09-13,2004-09-13,"הרב לוין 3, רמת גן",הרב לוין 3,6183-64-25,דירה בבית קומות,3.0,שלישית,45.0,609000,,,1975.0,,1.0,3021156055,1,618364,False,,רמת גן,הרב לוין,,6183-64-25,6183/64,13533.333333333334,,,2004
2004-09-12,2004-12-09,"שלם 30, רמת גן",שלם 30,6142-98-14,דירה בבית קומות,2.0,ראשונה,38.7,347000,,,1960.0,,2.0,3022579317,1,614298,False,,רמת גן,שלם,,6142-98-14,6142/98,8966.408268733849,32.047752999,34.8145258409,2004
2004-09-12,2004-12-09,"רודין 8, רמת גן",רודין 8,6183-409-1,דירה בבית קומות,4.0,ראשונה,82.5,608000,,,2004.0,,4.0,3022468508,1,6183409,False,,רמת גן,רודין,,6183-409-1,6183/409,7369.69696969697,32.065652673,34.8358927709,2004
2004-09-12,2004-12-09,"יוחנן באדר 8, רמת גן",יוחנן באדר 8,6186-669-110,דירה בבית קומות,4.0,עשירית,99.5,1288000,,,2004.0,,,3045036975,1,6186669,False,,רמת גן,באדר יוחנן,,6186-669-110,6186/669,12944.723618090453,32.0722478257,34.8319408174,2004
2004-09-11,2004-11-09,"זבוטינסקי 78, רמת גן",זבוטינסקי 78,6127-745-12,דירה בבית קומות,2.0,החנויות,54.0,389000,,,1965.0,,4.0,3021885260,1,6127745,False,,רמת גן,ז'בוטינסקי,,6127-745-12,6127/745,7203.703703703704,32.0873627577,34.8134824581,2004
2004-09-11,2004-11-09,"רוקח 82, רמת גן",רוקח 82,6210-25-1,דירה בבית קומות,4.0,ראשונה,106.76,996000,,,1980.0,,5.0,3021839295,1,621025,False,,רמת גן,רוקח,,6210-25-1,6210/25,9329.33683027351,32.0947201754,34.8095236892,2004
2004-09-11,2004-11-09,"ההגנה 26, רמת גן",ההגנה 26,6183-86-3,דירה בבית קומות,3.0,שלישית,75.0,770000,,,2003.0,,4.0,3022019936,1,618386,False,,רמת גן,ההגנה,,6183-86-3,6183/86,10266.666666666666,32.0692622207,34.8344878966,2004
2004-09-09,2004-09-09,"בית אל 9, רמת גן",בית אל 9,6128-192-4,דירה בבית קומות,2.0,שלישית,65.0,608985,,,1950.0,,3.0,3020944065,1,6128192,False,,רמת גן,בית אל,,6128-192-4,6128/192,9369.0,32.081704393,34.8091105495,2004
2004-09-08,2004-08-09,"דוד בן-גוריון 102, רמת גן",דוד בן-גוריון 102,6125-493-5,דירה בבית קומות,2.0,קרקע,56.6,489000,,,1950.0,,2.0,3020441872,1,6125493,False,,רמת גן,בן גוריון דוד,,6125-493-5,6125/493,8639.575971731449,32.084423041,34.8215395945,2004
2004-09-08,2004-08-09,"אפרים 9, רמת גן",אפרים 9,6145-1560-6,דירה בבית קומות,4.0,שלישית,81.23,930000,,,2004.0,,4.0,3020766759,1,61451560,False,,רמת גן,אפרים,,6145-1560-6,6145/1560,11448.972054659607,32.0661680783,34.8252194745,2004
2004-09-08,2004-08-09,"עמינדב 3, רמת גן",עמינדב 3,6145-671-13,דירה בבית קומות,4.0,שניה,84.0,625000,,,1960.0,,3.0,3020489490,1,6145671,False,,רמת גן,עמינדב,,6145-671-13,6145/671,7440.476190476191,32.0691144163,34.8231047517,2004
2004-09-08,2004-08-09,"מבצע עין 10, רמת גן",מבצע עין 10,6183-213-2,דירה בבית קומות,3.0,ראשונה,60.0,521000,,,1950.0,,2.0,3020560250,1,6183213,False,,רמת גן,מבצע עין,,6183-213-2,6183/213,8683.333333333334,32.0651420443,34.8336682269,2004
2004-09-08,2004-08-09,"הכלניות 1, רמת גן",הכלניות 1,6203-112-6,דירה בבית קומות,2.0,ראשונה,60.0,647000,,,1970.0,,1.0,3020689764,1,6203112,False,,רמת גן,הכלניות,,6203-112-6,6203/112,10783.333333333334,32.0938561603,34.817217688,2004
2004-09-07,2004-07-09,"הרי הגלעד 5, רמת גן",הרי הגלעד 5,6109-396-68,דירה בבית קומות,3.0,שלישית,89.1,1188000,,,1994.0,,16.0,3019866251,1,6109396,False,,רמת גן,הרי הגלעד,,6109-396-68,6109/396,13333.333333333334,32.0854052924,34.8056248237,2004
2004-09-07,2004-07-09,"נוה יהושע 12, רמת גן",נוה יהושע 12,6180-159-6,דירה בבית קומות,3.0,שלישית,70.0,766000,,,2001.0,,5.0,3019973609,1,6180159,False,8% ב 2.9 שנים,רמת גן,נוה יהושע,2.76,6180-159-6,6180/159,10942.857142857143,32.059748395,34.8295356628,2004
2004-09-06,2004-06-09,"יוחנן באדר 8, רמת גן",יוחנן באדר 8,6186-669-144,דירה בבית קומות,5.0,שמונה עשרה,144.3,1709000,,,2008.0,,,3019485307,1,6186669,False,,רמת גן,באדר יוחנן,,6186-669-144,6186/669,11843.381843381843,32.0722478257,34.8319408174,2004
2004-09-06,2004-06-09,"מנחם בגין 3, רמת גן",מנחם בגין 3,6207-877-200,דירה בבית קומות,2.0,קומה ‎29‏,50.85,892000,,,2000.0,,24.0,3019844472,1,6207877,False,,רמת גן,בגין מנחם,,6207-877-200,6207/877,17541.789577187807,32.0844858541,34.7994713944,2004
2004-09-06,2004-06-09,"אריה בן-אליעזר 33, רמת גן",אריה בן-אליעזר 33,6181-667-133,דירה בבית קומות,4.0,שלוש עשרה,110.0,1133000,,,2006.0,,29.0,3019175007,1,6181667,False,,רמת גן,בן אליעזר אריה,,6181-667-133,6181/667,10300.0,32.0639633937,34.8332410095,2004
2004-09-06,2004-06-09,"שילה 14, רמת גן",שילה 14,6126-68-7,דירה בבית קומות,2.0,ראשונה,50.0,470496,,,1948.0,,4.0,3020068642,1,612668,False,,רמת גן,שילה,,6126-68-7,6126/68,9409.92,32.0816559351,34.8153194595,2004
2004-09-06,2004-06-09,"בועז 19, רמת גן",בועז 19,6128-302-2,דירה בבית קומות,3.0,ראשונה,75.0,606000,,,1965.0,,4.0,3019160188,1,6128302,False,,רמת גן,בועז,,6128-302-2,6128/302,8080.0,32.0803661215,34.8090057285,2004
2004-09-06,2004-06-09,"אירנה סנדלר 3, רמת גן",אירנה סנדלר 3,6157-332-5,דירה בבית קומות,2.0,שניה,36.0,384000,,,1959.0,,3.0,3019097490,1,6157332,False,,רמת גן,אילון,,6157-332-5,6157/332,10666.666666666666,32.0677581187,34.8173942329,2004
2004-09-05,2004-05-09,"המתמיד 38, רמת גן",המתמיד 38,6128-519-20,דירה בבית קומות,2.0,-,44.0,623000,,,1954.0,,1.0,3018551826,1,6128519,False,,רמת גן,המתמיד,,6128-519-20,6128/519,14159.09090909091,32.0800709488,34.8058670698,2004
2004-09-05,2004-05-09,"ארלוזורוב 44, רמת גן",ארלוזורוב 44,6127-898-12,דירה בבית קומות,2.0,שלישית,51.0,647000,,,1971.0,,6.0,3018606839,1,6127898,False,,רמת גן,ארלוזורוב,,6127-898-12,6127/898,12686.27450980392,32.0811978297,34.8105280904,2004
2004-09-05,2004-05-09,"תלפיות 20, רמת גן",תלפיות 20,6205-181-0,קוטג' דו משפחתי,,,766.0,2660000,,,2007.0,,5.0,3019435572,1,6205181,False,,רמת גן,תלפיות,,6205-181-0,6205/181,3472.584856396867,32.087217658,34.8089066513,2004
2004-09-03,2004-03-09,"סוקולוב 8, רמת גן",סוקולוב 8,6204-221-33,דירה בבית קומות,2.0,שלישית,56.0,584000,,,1950.0,,3.0,3017456960,1,6204221,False,,רמת גן,סוקולוב,,6204-221-33,6204/221,10428.57142857143,32.0914567741,34.8205427877,2004
2004-09-03,2004-03-09,"תרפ""ב 16, רמת גן","תרפ""ב 16",6128-831-6,דירה בבית קומות,4.0,שניה,72.85,956000,,,1987.0,,4.0,3017452639,1,6128831,False,,רמת גן,"תרפ""ב",,6128-831-6,6128/831,13122.855181880575,32.0801347603,34.8043262282,2004
2004-09-02,2004-02-09,"ירושלים 33, רמת גן",ירושלים 33,6158-1278-14,דירה בבית קומות,3.0,שניה,58.0,558000,,,1960.0,,3.0,3017061487,1,61581278,False,,רמת גן,ירושלים,,6158-1278-14,6158/1278,9620.689655172411,32.074935653,34.8225364222,2004
2004-09-01,2004-01-09,"ז'בוטינסקי 153, רמת גן",ז'בוטינסקי 153,6204-388-9,דירה בבית קומות,2.0,שניה,36.0,350000,,,1950.0,,4.0,3016505209,1,6204388,False,,רמת גן,ז'בוטינסקי,,6204-388-9,6204/388,9722.222222222224,32.0909509709,34.8219486449,2004
2004-08-31,2004-08-31,"שפירא 11, רמת גן",שפירא 11,6128-861-140,דירה בבית קומות,4.0,שבע עשרה,96.45,1642000,,,2002.0,,19.0,3021118964,1,6128861,False,,רמת גן,שפירא,,6128-861-140,6128/861,17024.364955935718,32.080566594,34.8052109604,2004
2004-08-31,2004-08-31,"יוחנן באדר 8, רמת גן",יוחנן באדר 8,6186-669-113,דירה בבית קומות,5.0,אחת עשרה,123.6,1575000,,,2004.0,,,3021306565,1,6186669,False,,רמת גן,באדר יוחנן,,6186-669-113,6186/669,12742.718446601944,32.0722478257,34.8319408174,2004
2004-08-31,2004-08-31,"יוספי 14, רמת גן",יוספי 14,6125-758-44,דירה בבית קומות,4.0,שניה,86.59,1087000,,,1991.0,,9.0,3020747184,1,6125758,False,,רמת גן,יוספי,,6125-758-44,6125/758,12553.412634253378,32.0886164449,34.8179442537,2004
2004-08-31,2004-08-31,"רוחמה 44, רמת גן",רוחמה 44,6157-765-8,דירה בבית קומות,3.0,רביעית,63.0,882000,,,2004.0,,6.0,3020854310,1,6157765,False,,רמת גן,רוחמה,,6157-765-8,6157/765,14000.0,32.071704357,34.8222904049,2004
2004-08-31,2004-08-31,"התמרים 7, רמת גן",התמרים 7,6125-516-5,דירה בבית קומות,2.0,שניה,48.0,618000,,,1950.0,,4.0,3021439066,1,6125516,False,,רמת גן,התמרים,,6125-516-5,6125/516,12875.0,32.0895261817,34.8218637338,2004
2004-08-31,2004-08-31,"ביאליק 73, רמת גן",ביאליק 73,6127-439-9,דירה בבית קומות,2.0,ראשונה,47.6,543000,,,1950.0,,4.0,3020709107,1,6127439,False,,רמת גן,ביאליק,,6127-439-9,6127/439,11407.563025210084,32.0851196548,34.8113403861,2004
2004-08-31,2004-08-31,"הרא""ה 73, רמת גן","הרא""ה 73",6159-359-26,דירה בבית קומות,2.0,שלישית,57.69,455000,,,1960.0,,3.0,3020800051,1,6159359,False,9% ב 0.2 שנים,רמת גן,"הרא""ה",45.0,6159-359-26,6159/359,7886.982145952505,32.0834313005,34.8246161788,2004
2004-08-31,2004-08-31,"בניהו 39, רמת גן",בניהו 39,6142-138-7,דירה בבית קומות,2.0,ראשונה,38.7,452000,,,1960.0,,1.0,3020946472,1,6142138,False,,רמת גן,בניהו,,6142-138-7,6142/138,11679.586563307492,32.0481019863,34.815910377,2004
2004-08-30,2004-08-30,"ביאליק 57, רמת גן",ביאליק 57,6127-212-43,דירה בבית קומות,2.0,שלישית,59.0,453000,,,1950.0,,3.0,3021080887,1,6127212,False,,רמת גן,ביאליק,,6127-212-43,6127/212,7677.966101694915,32.0842316661,34.812910084,2004
2004-08-30,2004-08-30,"הכבאים 19, רמת גן",הכבאים 19,6181-655-3,דירה בבית קומות,5.0,ראשונה,117.43,1019000,,,1993.0,,12.0,3020760553,1,6181655,False,,רמת גן,הכבאים,,6181-655-3,6181/655,8677.510005960998,32.063386873,34.8357852629,2004
2004-08-30,2004-08-30,"דוד 7, רמת גן",דוד 7,6126-92-5,דירה בבית קומות,4.0,שניה,63.0,770000,,,1960.0,,3.0,3020837838,1,612692,False,28% ב 3.4 שנים,רמת גן,דוד,8.24,6126-92-5,6126/92,12222.222222222224,32.0829235093,34.817124613,2004
2004-08-30,2004-08-30,"הרצל 78, רמת גן",הרצל 78,6125-273-4,דירה בבית קומות,2.0,שלישית,50.0,521000,,,1950.0,,4.0,3020732075,1,6125273,False,,רמת גן,הרצל,,6125-273-4,6125/273,10420.0,32.0867115889,34.8152130022,2004
2004-08-30,2004-08-30,"יונה איתן 3, רמת גן",יונה איתן 3,6236-184-1,קוטג' דו משפחתי,9.0,,354.0,4033000,,,1990.0,,,3020920633,1,6236184,False,,רמת גן,איתן יונה,,6236-184-1,6236/184,11392.65536723164,32.0547482739,34.8509301409,2004
2004-08-26,2004-08-26,"לאן 20, רמת גן",לאן 20,6128-734-8,דירה בבית קומות,4.0,שלישית,74.79,817000,,,1970.0,,7.0,3020642320,1,6128734,False,,רמת גן,לאן,,6128-734-8,6128/734,10923.920310201898,32.0815638768,34.8080291505,2004
2004-08-26,2004-08-26,"עציון 23, רמת גן",עציון 23,6158-1323-6,דירה בבית קומות,3.0,שלישית,61.65,748000,,,1965.0,,3.0,3020655776,1,61581323,False,,רמת גן,עציון,,6158-1323-6,6158/1323,12133.008921330087,32.0750524667,34.8196614311,2004
2004-08-26,2004-08-26,"פרופס 9, רמת גן",פרופס 9,6182-529-11,דירה בבית קומות,4.0,שלישית,95.4,1006000,,,1990.0,,8.0,3020777344,1,6182529,False,,רמת גן,פרופס,,6182-529-11,6182/529,10545.073375262054,32.0670102848,34.8307079482,2004
2004-08-25,2004-08-25,"נידוני קהיר 2, רמת גן",נידוני קהיר 2,6157-214-3,דירה בבית קומות,2.0,שניה,45.0,680000,,,1950.0,,2.0,3020845001,1,6157214,False,,רמת גן,נדוני קהיר,,6157-214-3,6157/214,15111.111111111111,32.0695114416,34.8212280545,2004
2004-08-25,2004-08-25,"הכבאים 27, רמת גן",הכבאים 27,6181-543-3,דירה בבית קומות,4.0,שניה,100.0,917000,,,2002.0,,1.0,3021182590,1,6181543,False,,רמת גן,הכבאים,,6181-543-3,6181/543,9170.0,32.0619083394,34.8355412795,2004
2004-08-25,2004-08-25,"דונש 4, רמת גן",דונש 4,6186-106-20,דירה בבית קומות,5.0,חמישית,99.2,1698000,,,2004.0,,5.0,3020768731,1,6186106,False,,רמת גן,דונש,,6186-106-20,6186/106,17116.935483870966,32.0688721424,34.8317498056,2004
2004-08-24,2004-08-24,"דונש 4, רמת גן",דונש 4,6186-106-8,דירה בבית קומות,4.0,שניה,79.0,1064000,,,2004.0,,5.0,3020666796,1,6186106,False,,רמת גן,דונש,,6186-106-8,6186/106,13468.354430379746,32.0688721424,34.8317498056,2004
2004-08-23,2004-08-23,"ז'בוטינסקי 1, רמת גן",ז'בוטינסקי 1,6207-769-36,משרד,,חמש עשרה,22.0,212000,,,1976.0,,23.0,3020636868,1,6207769,False,,רמת גן,ז'בוטינסקי,,6207-769-36,6207/769,9636.363636363636,32.0833649685,34.8003412005,2004
2004-08-23,2004-08-23,"אבטליון 22, רמת גן",אבטליון 22,6125-483-4,דירה בבית קומות,4.0,ראשונה,81.0,1178000,,,1960.0,,3.0,3020558365,1,6125483,False,23% ב 3.4 שנים,רמת גן,אבטליון,6.76,6125-483-4,6125/483,14543.20987654321,32.0843877488,34.8161555946,2004
2004-08-23,2004-08-23,"חיבת ציון 25, רמת גן",חיבת ציון 25,6159-544-3,דירה בבית קומות,4.0,ראשונה,62.0,814000,,,1963.0,,3.0,3020597892,1,6159544,False,,רמת גן,חיבת ציון,,6159-544-3,6159/544,13129.032258064515,32.0795175693,34.8230167194,2004
2004-08-23,2004-08-23,"נגבה 16, רמת גן",נגבה 16,6145-911-26,דירה בבית קומות,2.0,שלישית,45.5,416000,,,1950.0,,3.0,3020625616,1,6145911,False,,רמת גן,נגבה,,6145-911-26,6145/911,9142.857142857143,32.0700962878,34.8244938215,2004
2004-08-23,2004-08-23,"ז'בוטינסקי 1, רמת גן",ז'בוטינסקי 1,6207-769-35,מחסנים,,,,67000,,,1976.0,,23.0,3020637100,1,6207769,False,,רמת גן,ז'בוטינסקי,,6207-769-35,6207/769,,32.0833649685,34.8003412005,2004
2004-08-23,2004-08-23,"טרומן 3, רמת גן",טרומן 3,6145-1033-1,דירה בבית קומות,3.0,ראשונה,59.5,726000,,,1968.0,,3.0,3020548824,1,61451033,False,,רמת גן,טרומן,,6145-1033-1,6145/1033,12201.680672268909,32.0686508717,34.8227671849,2004
2004-08-23,2004-08-23,"המעפיל 2, רמת גן",המעפיל 2,6205-372-4,דירה בבית קומות,2.0,שלישית,60.0,543000,,,1950.0,,3.0,3020641856,1,6205372,False,,רמת גן,המעפיל,,6205-372-4,6205/372,9050.0,32.0894983006,34.8149838938,2004
2004-08-22,2004-08-22,"תלפיות 33, רמת גן",תלפיות 33,6205-128-7,דירה בבית קומות,2.0,רביעית,40.0,466000,,,1950.0,,4.0,3020731843,1,6205128,False,,רמת גן,תלפיות,,6205-128-7,6205/128,11650.0,32.0865280929,34.8111816496,2004
2004-08-22,2004-08-22,"מנחם בגין 11, רמת גן",מנחם בגין 11,6207-931-1,משרד,,שישית,410.0,4130000,,,2007.0,,9.0,3021040026,1,6207931,False,,רמת גן,בגין מנחם,,6207-931-1,6207/931,10073.170731707318,32.0862139998,34.8001898755,2004
2004-08-22,2004-08-22,"הרא""ה 92, רמת גן","הרא""ה 92",6159-443-9,דירה בבית קומות,3.0,שלישית,75.0,566000,,,1950.0,,15.0,3020771834,1,6159443,False,,רמת גן,"הרא""ה",,6159-443-9,6159/443,7546.666666666667,32.0805847651,34.8252696917,2004
2004-08-19,2004-08-19,"דוד בן-גוריון 253, רמת גן",דוד בן-גוריון 253,6157-321-9,דירה בבית קומות,4.0,שלישית,73.0,999000,,,2004.0,,6.0,3020752694,1,6157321,False,,רמת גן,בן גוריון דוד,,6157-321-9,6157/321,13684.931506849314,32.0670531478,34.8167495756,2004
2004-08-19,2004-08-19,"אבטליון 13, רמת גן",אבטליון 13,6125-572-23,דירה בבית קומות,2.0,שלישית,50.0,485000,,,1950.0,,3.0,3020738803,1,6125572,False,,רמת גן,אבטליון,,6125-572-23,6125/572,9700.0,32.0851884364,34.8166297841,2004
2004-08-18,2004-08-18,"יוסף הגלילי 23, רמת גן",יוסף הגלילי 23,6125-473-4,דירה בבית קומות,3.0,שניה,71.0,799000,,,1963.0,,3.0,3020763424,1,6125473,False,,רמת גן,יוסף הגלילי,,6125-473-4,6125/473,11253.521126760565,32.0891222749,34.8189991501,2004
2004-08-18,2004-08-18,"יוחנן באדר 8, רמת גן",יוחנן באדר 8,6186-669-133,דירה בבית קומות,5.0,שש עשרה,137.9,1685000,,,2004.0,,,3020970136,1,6186669,False,,רמת גן,באדר יוחנן,,6186-669-133,6186/669,12218.99927483684,32.0722478257,34.8319408174,2004
2004-08-18,2004-08-18,"נתן 2, רמת גן",נתן 2,6126-479-119,דירה בבית קומות,2.0,חמישית,48.0,476000,,,1950.0,,6.0,3020577331,1,6126479,False,,רמת גן,נתן,,6126-479-119,6126/479,9916.666666666666,32.0835630753,34.8173652774,2004
2004-08-18,2004-08-18,"הגפן 8, רמת גן",הגפן 8,6205-50-16,דירה בבית קומות,2.0,שלישית,37.0,530000,,,1954.0,,2.0,3020491897,1,620550,False,,רמת גן,הגפן,,6205-50-16,6205/50,14324.324324324323,32.088838134,34.8113143041,2004
2004-08-18,2004-08-18,"אפרים 9, רמת גן",אפרים 9,6145-1560-1,דירה בבית קומות,2.0,קרקע,32.31,540000,,,2004.0,,4.0,3020878264,1,61451560,False,,רמת גן,אפרים,,6145-1560-1,6145/1560,16713.09192200557,32.0661680783,34.8252194745,2004
2004-08-18,2004-08-18,"השר משה 67, רמת גן",השר משה 67,6145-1566-1,דירה בבית קומות,2.0,קרקע,33.74,540000,,,2002.0,,4.0,3020880149,1,61451566,False,,רמת גן,השר משה,,6145-1566-1,6145/1566,16004.742145820985,32.0659788676,34.8267772671,2004
2004-08-18,2004-08-18,"יעקב רוזן 4, רמת גן",יעקב רוזן 4,6207-701-5,משרד,,שניה,117.68,849000,,,1988.0,,4.0,3020704815,1,6207701,False,,רמת גן,הבונים,,6207-701-5,6207/701,7214.479945615228,32.0879951225,34.80326865,2004
2004-08-17,2004-08-17,"בועז 4, רמת גן",בועז 4,6128-482-3,דירה בבית קומות,2.0,קומה ‎1‏,66.0,535000,,,1950.0,,9.0,3021003921,1,6128482,False,,רמת גן,בועז,,6128-482-3,6128/482,8106.060606060606,32.0799721326,34.8066534951,2004
2004-08-17,2004-08-17,"ירושלים 32, רמת גן",ירושלים 32,6158-1416-2,חנות,,קרקע,,204000,,,1960.0,,3.0,3020515068,1,61581416,False,,רמת גן,ירושלים,,6158-1416-2,6158/1416,,32.0744574466,34.8222009439,2004
2004-08-17,2004-08-17,"יבנה 8, רמת גן",יבנה 8,6159-403-2,קוטג' דו משפחתי,9.0,,275.0,4990000,,,1995.0,,,3020604823,1,6159403,False,,רמת גן,יבנה,,6159-403-2,6159/403,18145.454545454544,32.0815283938,34.8235686829,2004
2004-08-17,2004-08-17,"חיים לנדאו 7, רמת גן",חיים לנדאו 7,6186-658-26,דירה בבית קומות,5.0,שביעית,120.78,1338000,,,1999.0,,25.0,3020561700,1,6186658,False,,רמת גן,לנדאו חיים,,6186-658-26,6186/658,11077.99304520616,32.0715560105,34.8282376172,2004
2004-08-16,2004-08-16,"הירדן 66, רמת גן",הירדן 66,6182-115-3,דירה בבית קומות,3.0,ראשונה,60.0,589000,,,1960.0,,3.0,3020447382,1,6182115,False,,רמת גן,הירדן,,6182-115-3,6182/115,9816.666666666666,32.0639313197,34.8281464762,2004
2004-08-16,2004-08-16,"קריניצי 44, רמת גן",קריניצי 44,6126-427-13,דירה בבית קומות,3.0,שלישית,50.25,748000,,,2004.0,,7.0,3021350790,1,6126427,False,,רמת גן,קריניצי,,6126-427-13,6126/427,14885.572139303482,32.0812029303,34.8189762465,2004
2004-08-15,2004-08-15,"אבן עזרא 4, רמת גן",אבן עזרא 4,6186-107-15,דירה בבית קומות,4.0,שלישית,89.7,1086000,,,1999.0,,6.0,3020490012,1,6186107,False,,רמת גן,אבן עזרא,,6186-107-15,6186/107,12107.023411371238,32.0690694782,34.8315368869,2004
2004-08-15,2004-08-15,"בעל שם-טוב 10, רמת גן",בעל שם-טוב 10,6145-363-3,דירה בבית קומות,4.0,שניה,82.55,931000,,,1985.0,,3.0,3020429199,1,6145363,False,,רמת גן,בעל שם טוב,,6145-363-3,6145/363,11278.01332525742,32.0646342057,34.8218362792,2004
2004-08-15,2004-08-15,"חיבת ציון 28, רמת גן",חיבת ציון 28,6158-902-7,דירה בבית קומות,2.0,שלישית,52.0,704000,,,1960.0,,3.0,3020862981,1,6158902,False,7% ב 5.7 שנים,רמת גן,חיבת ציון,1.23,6158-902-7,6158/902,13538.46153846154,32.0790537075,34.8229137708,2004
2004-08-15,2004-08-15,"ביאליק 73, רמת גן",ביאליק 73,6127-439-24,דירה בבית קומות,2.0,רביעית,54.0,361000,,,1950.0,,4.0,3020490244,1,6127439,False,,רמת גן,ביאליק,,6127-439-24,6127/439,6685.185185185185,32.0851196548,34.8113403861,2004
2004-08-15,2004-08-15,"תובל 21, רמת גן",תובל 21,6109-347-66,חנות,,ראשונה,22.0,326000,,,1988.0,,29.0,3020829689,1,6109347,False,,רמת גן,תובל,,6109-347-66,6109/347,14818.181818181818,32.0838519184,34.8021240457,2004
2004-08-15,2004-08-15,"קריניצי 104, רמת גן",קריניצי 104,6125-286-61,דירה בבית קומות,4.0,ראשונה,87.0,704475,,,1950.0,,4.0,3020539718,1,6125286,False,,רמת גן,קריניצי,,6125-286-61,6125/286,8097.413793103448,,,2004
2004-08-13,2004-08-13,"ביאליק 120, רמת גן",ביאליק 120,6207-531-6,דירה בבית קומות,3.0,שלישית,61.75,659000,,,1970.0,,5.0,3021346034,1,6207531,False,,רמת גן,ביאליק,,6207-531-6,6207/531,10672.064777327936,32.0880570718,34.8058510546,2004
2004-08-12,2004-12-08,"אסף 18, רמת גן",אסף 18,6206-41-2,דירה בבית קומות,2.0,ראשונה,58.0,664000,,,1955.0,,2.0,3022528103,1,620641,False,9% ב 5.7 שנים,רמת גן,אסף,1.58,6206-41-2,6206/41,11448.275862068966,32.0891732024,34.8077850051,2004
2004-08-12,2004-12-08,"הראובני 12, רמת גן",הראובני 12,6145-667-5,דירה בבית קומות,4.0,שלישית,64.35,737000,,,1970.0,,4.0,3022788639,1,6145667,False,,רמת גן,הראובני,,6145-667-5,6145/667,11452.991452991451,32.0650021532,34.8258625332,2004
2004-08-12,2004-12-08,"ביאליק 19, רמת גן",ביאליק 19,6127-507-5,דירה בבית קומות,4.0,ראשונה,74.33,958000,,,1970.0,,3.0,3022554638,1,6127507,False,,רמת גן,ביאליק,,6127-507-5,6127/507,12888.4703349926,32.0807552122,34.8146943323,2004
2004-08-12,2004-12-08,"הראשונים 25, רמת גן",הראשונים 25,6128-124-6,דירה בבית קומות,3.0,שלישית,68.96,893000,,,1998.0,,5.0,3045439872,1,6128124,False,,רמת גן,הראשונים,,6128-124-6,6128/124,12949.535962877031,32.0792099599,34.8041218775,2004
2004-08-11,2004-11-08,"המתמיד 32, רמת גן",המתמיד 32,6128-375-7,דירה בבית קומות,2.0,רביעית,50.0,535000,,,1950.0,,3.0,3022502757,1,6128375,False,,רמת גן,המתמיד,,6128-375-7,6128/375,10700.0,32.0806578909,34.8058013014,2004
2004-08-11,2004-11-08,"ביאליק 14, רמת גן",ביאליק 14,6126-504-13,דירה בבית קומות,3.0,ראשונה,71.0,663000,,,1961.0,,3.0,3021888131,1,6126504,False,,רמת גן,ביאליק,,6126-504-13,6126/504,9338.028169014084,32.0799897985,34.815149788,2004
2004-08-10,2004-10-08,"הרב לנדרס 16, רמת גן",הרב לנדרס 16,6187-380-24,דירה בבית קומות,4.0,שישית,89.4,580000,,,1970.0,,7.0,3022326379,1,6187380,False,7% ב 1.4 שנים,רמת גן,הרב לנדרס,5.0,6187-380-24,6187/380,6487.695749440715,32.0704625466,34.8371882744,2004
2004-08-09,2004-09-08,"חצור 15, רמת גן",חצור 15,6158-889-76,דירה בבית קומות,2.0,ראשונה,50.0,315000,,,2021.0,,9.0,3021053627,1,6158889,False,,רמת גן,חצור,,6158-889-76,6158/889,6300.0,,,2004
2004-08-09,2004-09-08,"רודין 8, רמת גן",רודין 8,6183-409-2,דירה בבית קומות,4.0,ראשונה,82.65,675000,,,2004.0,,4.0,3020902885,1,6183409,False,,רמת גן,רודין,,6183-409-2,6183/409,8166.969147005444,32.065652673,34.8358927709,2004
2004-08-09,2004-09-08,"עזריאל 22, רמת גן",עזריאל 22,6142-234-7,דירה בבית קומות,3.0,שניה,52.0,450000,1.0,עזריאל 22,1970.0,,3.0,3020906220,1,6142234,False,9% ב 4.2 שנים,רמת גן,עזריאל,2.14,6142-234-7,6142/234,8653.846153846154,32.0511911446,34.8198548594,2004
2004-08-09,2004-09-08,"הירדן 3, רמת גן",הירדן 3,6186-334-18,דירה בבית קומות,2.0,שלישית,48.0,450000,,,1960.0,,3.0,3021164610,1,6186334,False,,רמת גן,הירדן,,6186-334-18,6186/334,9375.0,32.0696885683,34.8289822628,2004
2004-08-09,2004-09-08,"ההגנה 18, רמת גן",ההגנה 18,6183-88-2,דירה בבית קומות,3.0,ראשונה,69.61,698000,,,2004.0,,7.0,3020903349,1,618388,False,,רמת גן,ההגנה,,6183-88-2,6183/88,10027.294928889529,32.0694413057,34.8339117959,2004
2004-08-09,2004-09-08,"יוחנן 8, רמת גן",יוחנן 8,6127-656-9,דירה בבית קומות,2.0,ראשונה,55.0,779000,,,1960.0,,3.0,3020897665,1,6127656,False,20% ב 2.7 שנים,רמת גן,יוחנן,7.41,6127-656-9,6127/656,14163.636363636364,32.0800346431,34.8110297949,2004
2004-08-09,2004-09-08,"המתמיד 30, רמת גן",המתמיד 30,6128-68-67,דירה בבית קומות,2.0,שניה,51.0,581000,,,1950.0,,3.0,3021167017,1,612868,False,9% ב 6.2 שנים,רמת גן,המתמיד,1.45,6128-68-67,6128/68,11392.156862745098,32.0809945245,34.8056448588,2004
2004-08-08,2004-08-08,"דוד בן-גוריון 195, רמת גן",דוד בן-גוריון 195,6158-732-2,דירה בבית קומות,2.0,ראשונה,35.0,387000,,,1950.0,,3.0,3020340169,1,6158732,False,,רמת גן,בן גוריון דוד,,6158-732-2,6158/732,11057.142857142857,32.0736537944,34.8186033918,2004
2004-08-08,2004-08-08,"חירות 46, רמת גן",חירות 46,6205-326-9,דירה בבית קומות,2.0,שניה,57.06,583000,,,1965.0,,3.0,3020264769,1,6205326,False,,רמת גן,חרות,,6205-326-9,6205/326,10217.315106905013,32.0910656598,34.8151248223,2004
2004-08-07,2004-07-08,"הראשונים 19, רמת גן",הראשונים 19,6128-169-9,דירה בבית קומות,3.0,חמישית,60.05,964000,,,2004.0,,6.0,3019906677,1,6128169,False,,רמת גן,הראשונים,,6128-169-9,6128/169,16053.288925895087,32.0798953648,34.8039694775,2004
2004-08-07,2004-07-08,"התפוצות 18, רמת גן",התפוצות 18,6181-303-3,דירה בבית קומות,2.0,שניה,43.4,540000,,,1960.0,,2.0,3020620106,1,6181303,False,,רמת גן,התפוצות,,6181-303-3,6181/303,12442.396313364055,32.0644217412,34.8354048295,2004
2004-08-07,2004-07-08,"חירות 42, רמת גן",חירות 42,6205-324-6,דירה בבית קומות,2.0,ראשונה,52.0,403000,,,1950.0,,2.0,3019915493,1,6205324,False,,רמת גן,חרות,,6205-324-6,6205/324,7750.0,32.0908497231,34.8147878578,2004
2004-08-06,2004-06-08,"מתניה 6, רמת גן",מתניה 6,6141-101-1,דירה בבית קומות,4.0,ראשונה,100.0,704000,,,1950.0,,2.0,5205113200,1,6141101,False,,רמת גן,מתניה,,6141-101-1,6141/101,7040.0,32.0482614901,34.8190740206,2004
2004-08-06,2004-06-08,"תפארת ישראל 9, רמת גן",תפארת ישראל 9,6186-43-6,דירה בבית קומות,2.0,שניה,47.5,582000,,,1965.0,,3.0,3019639413,1,618643,True,-5% ב 3.5 שנים,רמת גן,תפארת ישראל,-1.43,6186-43-6,6186/43,12252.631578947368,32.067742894,34.8295836191,2004
2004-08-06,2004-06-08,"המתמיד 16, רמת גן",המתמיד 16,6128-552-10,דירה בבית קומות,2.0,שלישית,49.0,589000,,,1950.0,,3.0,3019264008,1,6128552,False,,רמת גן,המתמיד,,6128-552-10,6128/552,12020.408163265309,32.0827329571,34.8061273299,2004
2004-08-06,2004-06-08,"הרצל 80, רמת גן",הרצל 80,6125-720-7,דירה בבית קומות,4.0,שלישית,104.3,916000,,,1970.0,,5.0,3019087195,1,6125720,False,,רמת גן,הרצל,,6125-720-7,6125/720,8782.358581016299,32.0870079407,34.8155143273,2004
2004-08-06,2004-06-08,"אבני החושן 2, רמת גן",אבני החושן 2,6187-520-129,דירה בבית קומות,3.5,שלוש עשרה,80.0,970000,,,2006.0,,20.0,3019162334,1,6187520,False,,רמת גן,אבני החושן,,6187-520-129,6187/520,12125.0,32.0713092575,34.8333551388,2004
2004-08-06,2004-06-08,"אריה 7, רמת גן",אריה 7,6126-202-5,דירה בבית קומות,4.0,שלישית,100.9,1084000,,,1999.0,,4.0,3019249653,1,6126202,False,,רמת גן,אריה,,6126-202-5,6126/202,10743.310208126855,32.0801823635,34.8190058593,2004
2004-08-06,2004-06-08,"ז'בוטינסקי 1, רמת גן",ז'בוטינסקי 1,6207-769-244,משרד,,שבע עשרה,36.0,546000,,,1976.0,,23.0,3019213548,1,6207769,False,,רמת גן,ז'בוטינסקי,,6207-769-244,6207/769,15166.666666666666,32.0833649685,34.8003412005,2004
2004-08-04,2004-04-08,"ז'בוטינסקי 3, רמת גן",ז'בוטינסקי 3,6109-275-17,משרד,,תשיעית,,194000,,,1966.0,,20.0,3018511632,1,6109275,False,,רמת גן,ז'בוטינסקי,,6109-275-17,6109/275,,32.0834052795,34.8014749201,2004
2004-08-04,2004-04-08,"ז'בוטינסקי 65, רמת גן",ז'בוטינסקי 65,6205-129-6,דירה בבית קומות,2.0,שלישית,50.0,352000,,,1950.0,,4.0,3018238133,1,6205129,False,,רמת גן,ז'בוטינסקי,,6205-129-6,6205/129,7040.0,32.0866407741,34.8113644307,2004
2004-08-03,2004-03-08,"הרא""ה 56, רמת גן","הרא""ה 56",6159-367-10,דירה בבית קומות,2.0,ראשונה,50.0,563000,,,1950.0,,2.0,3017677621,1,6159367,False,,רמת גן,"הרא""ה",,6159-367-10,6159/367,11260.0,32.0831979178,34.8240985256,2004
2004-08-03,2004-03-08,"זבוטינסקי 5, רמת גן",זבוטינסקי 5,6109-348-63,משרד,,שלוש עשרה,69.8,675000,,,1983.0,,18.0,3018109924,1,6109348,False,,רמת גן,ז'בוטינסקי,,6109-348-63,6109/348,9670.487106017192,32.0833998099,34.8025067333,2004
2004-08-03,2004-03-08,"העם הצרפתי 12, רמת גן",העם הצרפתי 12,6210-110-8,דירה בבית קומות,2.0,שלישית,47.0,529000,,,1950.0,,3.0,3017566812,1,6210110,False,,רמת גן,העם הצרפתי,,6210-110-8,6210/110,11255.31914893617,32.0910022264,34.8116628139,2004
2004-08-03,2004-03-08,"הירדן 27, רמת גן",הירדן 27,6182-372-6,דירה בבית קומות,4.0,שניה,96.0,855000,,,1960.0,,13.0,3017506289,1,6182372,False,,רמת גן,הירדן,,6182-372-6,6182/372,8906.25,32.0666708,34.8288011332,2004
2004-08-02,2004-02-08,"דוד בן-גוריון 103, רמת גן",דוד בן-גוריון 103,6159-634-4,דירה בבית קומות,3.0,שניה,66.5,674000,,,1967.0,,3.0,3017060791,1,6159634,False,,רמת גן,בן גוריון דוד,,6159-634-4,6159/634,10135.338345864662,32.0826427455,34.8211268743,2004
2004-08-02,2004-02-08,"שאר ישוב 12, רמת גן",שאר ישוב 12,6181-406-4,דירה בבית קומות,5.0,שניה,123.47,1172000,,,1994.0,,5.0,3016910774,1,6181406,False,,רמת גן,שאר ישוב,,6181-406-4,6181/406,9492.18433627602,32.06248738,34.8300197299,2004
2004-08-01,2004-01-08,"הגלגל 69, רמת גן",הגלגל 69,6159-542-4,דירה בבית קומות,2.0,ראשונה,44.0,615000,,,1950.0,,2.0,3016262827,1,6159542,False,,רמת גן,הגלגל,,6159-542-4,6159/542,13977.272727272728,32.0797957144,34.8232192512,2004
2004-08-01,2004-01-08,"הכבאים 17, רמת גן",הכבאים 17,6181-654-11,דירה בבית קומות,3.0,שלישית,66.67,672000,,,2005.0,,9.0,3016677237,1,6181654,False,,רמת גן,הכבאים,,6181-654-11,6181/654,10079.49602519874,32.0638951311,34.8362601323,2004
2004-08-01,2004-01-08,"עלומים 18, רמת גן",עלומים 18,6144-537-7,דירה בבית קומות,4.0,רביעית,91.15,1362000,,,1995.0,,4.0,3016201405,1,6144537,False,,רמת גן,עלומים,,6144-537-7,6144/537,14942.40263302249,32.0638519628,34.8214210125,2004
2004-08-01,2004-01-08,"תרצה 8, רמת גן",תרצה 8,6186-265-2,דירה בבית קומות,2.0,ראשונה,40.0,527000,,,1954.0,,11.0,3016394690,1,6186265,False,,רמת גן,תרצה,,6186-265-2,6186/265,13175.0,,,2004
2004-08-01,2004-01-08,"עוזיאל 27, רמת גן",עוזיאל 27,6158-1348-8,דירה בבית קומות,2.0,שניה,51.8,559000,,,1960.0,,4.0,3017159623,1,61581348,False,,רמת גן,עוזיאל,,6158-1348-8,6158/1348,10791.505791505791,32.0763550153,34.8234521288,2004
2004-07-29,2004-07-29,"מתתיהו מנדל 5, רמת גן",מתתיהו מנדל 5,6183-454-71,דירה בבית קומות,4.0,שניה,93.0,1023000,,,1994.0,,16.0,3020204101,1,6183454,False,,רמת גן,מנדל מתתיהו,,6183-454-71,6183/454,11000.0,32.0690980026,34.833430912,2004
2004-07-29,2004-07-29,"הראשונים 19, רמת גן",הראשונים 19,6128-169-7,דירה בבית קומות,3.0,רביעית,60.05,905000,,,2004.0,,6.0,3020281096,1,6128169,False,,רמת גן,הראשונים,,6128-169-7,6128/169,15070.774354704414,32.0798953648,34.8039694775,2004
2004-07-29,2004-07-29,"ביאליק 76, רמת גן",ביאליק 76,6127-957-36,דירה בבית קומות,5.0,אחת עשרה,125.6,1384000,,,2000.0,,20.0,3020203144,1,6127957,False,,רמת גן,ביאליק,,6127-957-36,6127/957,11019.108280254775,32.0857359453,34.811599417,2004
2004-07-29,2004-07-29,"רוקח 112, רמת גן",רוקח 112,6203-209-33,דירה בבית קומות,4.0,שמינית,94.7,1616000,,,1980.0,,13.0,3020185860,1,6203209,False,,רמת גן,רוקח,,6203-209-33,6203/209,17064.413938753958,32.095286412,34.8143129153,2004
2004-07-29,2004-07-29,"הירדן 82, רמת גן",הירדן 82,6181-345-7,דירה בבית קומות,4.0,שלישית+גג,96.9,769000,,,1960.0,,4.0,3020912716,1,6181345,False,,רמת גן,הירדן,,6181-345-7,6181/345,7936.016511867904,32.0624697405,34.8281226746,2004
2004-07-29,2004-07-29,"אבטליון 18, רמת גן",אבטליון 18,6125-745-5,דירה בבית קומות,2.0,קרקע,49.1,593000,,,1960.0,,2.0,3020167474,1,6125745,False,23% ב 3.2 שנים,רמת גן,אבטליון,7.19,6125-745-5,6125/745,12077.393075356416,32.0848136644,34.8161858543,2004
2004-07-29,2004-07-29,"יוחנן באדר 8, רמת גן",יוחנן באדר 8,6186-669-157,דירה בבית קומות,5.0,עשרים ושתים,179.3,2750000,,,2004.0,,,3020520346,1,6186669,False,,רמת גן,באדר יוחנן,,6186-669-157,6186/669,15337.423312883437,32.0722478257,34.8319408174,2004
