DEALDATE,DEALDATETIME,FULLADRESS,DISPLAYADRESS,GUSH,DEALNATUREDESCRIPTION,ASSETROOMNUM,FLOORNO,DEALNATURE,DEALAMOUNT,NEWPROJECTTEXT,PROJECTNAME,BUILDINGYEAR,YEARBUILT,BUILDINGFLOORS,KEYVALUE,TYPE,POLYGON_ID,TREND_IS_NEGATIVE,TREND_FORMAT,city_name,street,presentage per year,GUSH - Copy,Gush_Helka,Price per sqm,lat,lon,Year
2010-12-31,2010-12-31,"יהודה הלוי 110, תל אביב -יפו",יהודה הלוי 110,7099-6-4,דירה בבית קומות,2.0,שניה,60.0,488000,,,1950.0,,2.0,5550988300,1,70996,False,,תל אביב -יפו,יהודה הלוי,,7099-6-4,7099/6,8133.333333333333,32.0705516518,34.7818234058,2010
2010-12-31,2010-12-31,"יהודה הנשיא 10, תל אביב -יפו",יהודה הנשיא 10,7223-15-4,דירה בבית קומות,3.0,ראשונה,70.4,1865000,,,1970.0,,4.0,5550092750,1,722315,False,118% ב 7.4 שנים,תל אביב -יפו,יהודה הנשיא,15.95,7223-15-4,7223/15,26491.477272727272,32.1160337927,34.7951188181,2010
2010-12-31,2010-12-31,"יגאל אלון 159, תל אביב -יפו",יגאל אלון 159,7110-328-38,משרד,,שניה,37.0,370000,,,1993.0,,6.0,5551830600,1,7110328,False,,תל אביב -יפו,אלון יגאל,,7110-328-38,7110/328,10000.0,32.0788317184,34.7975548749,2010
2010-12-31,2010-12-31,"לינקולן 15, תל אביב -יפו",לינקולן 15,7104-232-3,משרד,,ראשונה,386.0,9700000,,,1980.0,,5.0,5552509150,1,7104232,False,,תל אביב -יפו,לינקולן,,7104-232-3,7104/232,25129.53367875648,32.0666872001,34.7826685091,2010
2010-12-31,2010-12-31,"דוד ילין 20, תל אביב -יפו",דוד ילין 20,6213-391-1,דירה בבית קומות,2.0,קומה ‎0‏,48.0,1430000,,,2019.0,,8.0,5550052300,1,6213391,False,,תל אביב -יפו,ילין דוד,,6213-391-1,6213/391,29791.666666666668,32.0880556859,34.7855263371,2010
2010-12-31,2010-12-31,"מרים החשמונאית 18, תל אביב -יפו",מרים החשמונאית 18,6212-987-40,דירה בבית קומות,4.0,שלישית,70.6,1400000,,,2022.0,,3.0,5550275000,1,6212987,False,,תל אביב -יפו,מרים החשמונאית,,6212-987-40,6212/987,19830.0283286119,32.0924963749,34.784194241,2010
2010-12-31,2010-12-31,"קרליבך 4, תל אביב -יפו",קרליבך 4,7104-289-1736,דירה בבית קומות,3.0,אחת עשרה,100.0,2096000,,,2018.0,,47.0,5550904950,1,7104289,False,,תל אביב -יפו,קרליבך,,7104-289-1736,7104/289,20960.0,32.068224082,34.7847225756,2010
2010-12-31,2010-12-31,"אנטוקולסקי 9, תל אביב -יפו",אנטוקולסקי 9,6217-447-11,דירה בבית קומות,2.0,שניה,47.45,790000,,,1950.0,,3.0,5550029600,1,6217447,False,,תל אביב -יפו,אנטוקולסקי,,6217-447-11,6217/447,16649.104320337196,32.0844780773,34.7827709265,2010
2010-12-31,2010-12-31,"מלצ'ט 36, תל אביב -יפו",מלצ'ט 36,7437-10-3,דירה בבית קומות,5.0,קרקע,128.0,950000,,,1940.0,,5.0,5551337650,1,743710,False,,תל אביב -יפו,מלצ'ט,,7437-10-3,7437/10,7421.875,32.0697527301,34.7762803163,2010
2010-12-30,2010-12-30,"ביל""ו 70, תל אביב -יפו","ביל""ו 70",7085-35-4,דירה בבית קומות,3.0,ראשונה,75.0,2700000,,,1970.0,,3.0,5550027150,1,708535,False,,תל אביב -יפו,"ביל""ו",,7085-35-4,7085/35,36000.0,32.0726854069,34.7813063968,2010
2010-12-30,2010-12-30,"חברה חדשה 4, תל אביב -יפו",חברה חדשה 4,6213-608-10,דירה בבית קומות,3.0,שלישית,68.0,2500000,,,1960.0,,4.0,5551303400,1,6213608,False,61% ב 5.3 שנים,תל אביב -יפו,חברה חדשה,11.51,6213-608-10,6213/608,36764.705882352944,32.0845319863,34.7911174429,2010
2010-12-30,2010-12-30,"נחל הבשור 28, תל אביב -יפו",נחל הבשור 28,7074-70-21,דירה בבית קומות,2.5,שלישית,43.0,250000,,,1970.0,,4.0,5551110800,1,707470,False,,תל אביב -יפו,נחל הבשור,,7074-70-21,7074/70,5813.953488372093,32.038320698,34.7586103467,2010
2010-12-30,2010-12-30,"השל""ה 6, תל אביב -יפו","השל""ה 6",6957-193-5,דירה בבית קומות,2.0,,52.0,1150000,,,1940.0,,2.0,5551124850,1,6957193,False,,תל אביב -יפו,"השל""ה",,6957-193-5,6957/193,22115.384615384617,32.0912734829,34.7795938664,2010
2010-12-30,2010-12-30,"משמר הגבול 13, תל אביב -יפו",משמר הגבול 13,6628-826-23,דירה בבית קומות,3.0,שישית,85.0,2260000,,,1970.0,,9.0,5550057600,1,6628826,False,,תל אביב -יפו,משמר הגבול,,6628-826-23,6628/826,26588.235294117647,32.1235888684,34.8040650093,2010
2010-12-30,2010-12-30,"הילדסהיימר 14, תל אביב -יפו",הילדסהיימר 14,6212-895-3,קוטג' טורי,5.0,,100.0,8850000,,,1950.0,,2.0,5551326100,1,6212895,False,,תל אביב -יפו,הילדסהיימר,,6212-895-3,6212/895,88500.0,32.0934794558,34.7920032092,2010
2010-12-30,2010-12-30,"שלמה בן-יוסף 24, תל אביב -יפו",שלמה בן-יוסף 24,6631-215-107,דירה בבית קומות,4.0,שלישית,124.0,2930000,,,1985.0,,8.0,5550237500,1,6631215,False,75% ב 6.9 שנים,תל אביב -יפו,בן יוסף שלמה,10.87,6631-215-107,6631/215,23629.032258064515,32.1267703565,34.7987910509,2010
2010-12-30,2010-12-30,"מאנה 26, תל אביב -יפו",מאנה 26,6111-638-23,דירה בבית קומות,2.0,ראשונה,42.0,1400000,,,1950.0,,5.0,5550055550,1,6111638,False,71% ב 11.5 שנים,תל אביב -יפו,מאנה,6.17,6111-638-23,6111/638,33333.333333333336,32.0780104892,34.7828505128,2010
2010-12-30,2010-12-30,"סוטין 29, תל אביב -יפו",סוטין 29,6217-646-34,דירה בבית קומות,6.0,שתים עשרה,244.84,8080000,,,2010.0,,23.0,5551238300,1,6217646,False,,תל אביב -יפו,סוטין,,6217-646-34,6217/646,33001.143603986275,32.0821030211,34.7867977673,2010
2010-12-30,2010-12-30,"ביל""ו 70, תל אביב -יפו","ביל""ו 70",7085-35-7,דירה בבית קומות,4.0,שלישית,89.0,3410000,,,1970.0,,3.0,5550054350,1,708535,False,,תל אביב -יפו,"ביל""ו",,7085-35-7,7085/35,38314.60674157304,32.0726854069,34.7813063968,2010
2010-12-30,2010-12-30,"יעקב מרידור 3, תל אביב -יפו",יעקב מרידור 3,7193-21-20,דירה בבית קומות,5.0,שניה,106.45,2600000,,,1999.0,,6.0,5551815750,1,719321,False,26% ב 3.5 שנים,תל אביב -יפו,מרידור יעקב,7.43,7193-21-20,7193/21,24424.612494128694,32.1235375935,34.8185817427,2010
2010-12-30,2010-12-30,"דוד המלך 11, תל אביב -יפו",דוד המלך 11,6111-181-5,דירה בבית קומות,3.0,ראשונה,85.0,2600000,,,1956.0,,3.0,5550097700,1,6111181,False,,תל אביב -יפו,דוד המלך,,6111-181-5,6111/181,30588.235294117647,32.0804524688,34.782763985,2010
2010-12-30,2010-12-30,"יוסף האפרתי 5, תל אביב -יפו",יוסף האפרתי 5,6636-388-1,דירה בבית קומות,3.5,ראשונה,46.82,2700000,,,1950.0,,2.0,5550625300,1,6636388,False,,תל אביב -יפו,יוסף האפרתי,,6636-388-1,6636/388,57667.663391712944,32.1075130355,34.8175695472,2010
2010-12-30,2010-12-30,"פלורנטין 2, תל אביב -יפו",פלורנטין 2,7051-103-38,דירה בבית קומות,2.0,רביעית,35.0,1115264,1.0,פינת פלורנטין,2006.0,,9.0,5550865750,1,7051103,False,,תל אביב -יפו,פלורנטין,,7051-103-38,7051/103,31864.685714285715,32.0560684839,34.7673410025,2010
2010-12-30,2010-12-30,"הלסינקי 10, תל אביב -יפו",הלסינקי 10,6108-83-2,דירה בבית קומות,1.5,קרקע,44.0,1475000,,,1960.0,,4.0,5550494500,1,610883,False,96% ב 0.8 שנים,תל אביב -יפו,הלסינקי,120.0,6108-83-2,6108/83,33522.72727272727,32.0840694001,34.7923050399,2010
2010-12-30,2010-12-30,"אמיר גלבוע 15, תל אביב -יפו",אמיר גלבוע 15,6883-23-31,דירה בבית קומות,4.0,,110.0,2925000,,,2010.0,,7.0,5551074950,1,688323,False,,תל אביב -יפו,גלבוע אמיר,,6883-23-31,6883/23,26590.90909090909,32.1156339159,34.788921552,2010
2010-12-30,2010-12-30,"חזקיהו המלך 46, תל אביב -יפו",חזקיהו המלך 46,6972-87-4,דירה בבית קומות,4.0,ראשונה,83.35,1180000,,,1940.0,,2.0,5550028400,1,697287,False,155% ב 3.8 שנים,תל אביב -יפו,חזקיהו המלך,40.79,6972-87-4,6972/87,14157.168566286744,32.0535109351,34.7767510332,2010
2010-12-30,2010-12-30,"דגניה 12, תל אביב -יפו",דגניה 12,6926-48-5,דירה בבית קומות,4.0,שלישית+רביעית,124.94,5500000,,,1997.0,,2.0,5550040400,1,692648,False,,תל אביב -יפו,דגניה,,6926-48-5,6926/48,44021.130142468384,32.0629639488,34.7651495643,2010
2010-12-30,2010-12-30,"מרדכי מאייר 8, תל אביב -יפו",מרדכי מאייר 8,6626-222-58,דירה בבית קומות,5.0,שניה,107.3,3200000,,,1999.0,,4.0,5550641850,1,6626222,False,,תל אביב -יפו,מאייר מרדכי,,6626-222-58,6626/222,29822.926374650517,32.1231672155,34.8153082387,2010
2010-12-30,2010-12-30,"משה הס 8, תל אביב -יפו",משה הס 8,6913-25-0,אופציה,,,397.0,1833000,,,1950.0,,4.0,5550233850,1,691325,False,189% ב 0.2 שנים,תל אביב -יפו,הס משה,945.0,6913-25-0,6913/25,4617.128463476071,32.0721765324,34.7699109384,2010
2010-12-30,2010-12-30,"קלונימוס 15, תל אביב -יפו",קלונימוס 15,6214-561-2,דירה בבית קומות,3.0,קרקע,42.19,1700000,,,1952.0,,3.0,5550100100,1,6214561,False,,תל אביב -יפו,קלונימוס,,6214-561-2,6214/561,40293.90850912539,32.0876449909,34.7805373319,2010
2010-12-30,2010-12-30,"שלמה אבן גבירול 77, תל אביב -יפו",שלמה אבן גבירול 77,6217-606-6,דירה בבית קומות,2.0,ראשונה,48.0,1510000,,,1960.0,,4.0,5550497000,1,6217606,False,,תל אביב -יפו,אבן גבירול,,6217-606-6,6217/606,31458.33333333333,32.0836742417,34.7812684632,2010
2010-12-30,2010-12-30,"דיזנגוף 112, תל אביב -יפו",דיזנגוף 112,7113-95-7,דירה בבית קומות,2.0,ראשונה,33.58,900000,,,1950.0,,5.0,5551607000,1,711395,False,,תל אביב -יפו,דיזנגוף,,7113-95-7,7113/95,26801.667659321025,32.0803855059,34.774053101,2010
2010-12-30,2010-12-30,"שאול המלך 2, תל אביב -יפו",שאול המלך 2,6111-744-77,חנות,,ראשונה + שניה,1548.93,9250000,,,1970.0,,18.0,5550585300,1,6111744,False,,תל אביב -יפו,שאול המלך,,6111-744-77,6111/744,5971.864448361126,32.0750459394,34.7824366614,2010
2010-12-30,2010-12-30,"בן זבארה 4, תל אביב -יפו",בן זבארה 4,6636-418-6,דירה בבית קומות,4.0,ראשונה,91.0,2120000,,,1999.0,,5.0,5551409850,1,6636418,False,,תל אביב -יפו,בן זבארה,,6636-418-6,6636/418,23296.703296703297,32.1086513658,34.8190833117,2010
2010-12-30,2010-12-30,"משה סנה 11, תל אביב -יפו",משה סנה 11,6624-471-2,דירה בבית קומות,4.0,ראשונה,99.5,2697000,,,1978.0,,3.0,5550174850,1,6624471,False,51% ב 2.9 שנים,תל אביב -יפו,סנה משה,17.59,6624-471-2,6624/471,27105.527638190957,32.1199330092,34.8249471679,2010
2010-12-30,2010-12-30,"שרגא פרידמן 3, תל אביב -יפו",שרגא פרידמן 3,6630-807-21,דירה בבית קומות,5.0,רביעית,125.0,2700000,,,2002.0,,7.0,5550432600,1,6630807,False,,תל אביב -יפו,פרידמן שרגא,,6630-807-21,6630/807,21600.0,32.118335848,34.7914426931,2010
2010-12-30,2010-12-30,"חיסין 6, תל אביב -יפו",חיסין 6,6904-36-5,דירה בבית קומות,3.0,,70.0,1790000,,,1940.0,,2.0,5550521750,1,690436,False,,תל אביב -יפו,חיסין,,6904-36-5,6904/36,25571.42857142857,32.0740251569,34.7765020775,2010
2010-12-30,2010-12-30,"בבלי 7, תל אביב -יפו",בבלי 7,6107-416-12,דירה בבית קומות,4.0,שלישית,85.0,2350000,,,1970.0,,7.0,5550519250,1,6107416,False,,תל אביב -יפו,בבלי,,6107-416-12,6107/416,27647.058823529413,32.0932964353,34.7987012052,2010
2010-12-30,2010-12-30,"שיק 18, תל אביב -יפו",שיק 18,6993-57-19,דירה בבית קומות,3.0,שניה,55.88,840000,,,1970.0,,5.0,5550057250,1,699357,False,96% ב 5.9 שנים,תל אביב -יפו,שיק,16.27,6993-57-19,6993/57,15032.211882605585,32.0412760781,34.764474807,2010
2010-12-30,2010-12-30,"ניסים אלוני 6, תל אביב -יפו",ניסים אלוני 6,6108-730-37,דירה בבית קומות,5.0,קומה ‎11‏,119.5,4215000,,,2010.0,,42.0,5551647950,1,6108730,False,,תל אביב -יפו,אלוני ניסים,,6108-730-37,6108/730,35271.96652719665,32.0877966165,34.7971995527,2010
2010-12-30,2010-12-30,"יוסף זריצקי 1, תל אביב -יפו",יוסף זריצקי 1,6886-15-5,דירה בבית קומות,4.5,שניה,110.0,2200000,,,1998.0,,6.0,5551076550,1,688615,False,,תל אביב -יפו,זריצקי יוסף,,6886-15-5,6886/15,20000.0,32.1150426043,34.7908266924,2010
2010-12-30,2010-12-30,"מסילת ישרים 71, תל אביב -יפו",מסילת ישרים 71,6972-36-1,דירה בבית קומות,8.0,,180.0,2600000,,,1960.0,,,5550645100,1,697236,False,,תל אביב -יפו,מסילת ישרים,,6972-36-1,6972/36,14444.444444444443,32.0526804773,34.7770194688,2010
2010-12-29,2010-12-29,"מעון 1, תל אביב -יפו",מעון 1,7051-155-521,דירה בבית קומות,3.0,שביעית,67.0,1345000,,,2010.0,,9.0,5550622450,1,7051155,False,,תל אביב -יפו,מעון,,7051-155-521,7051/155,20074.62686567164,32.0553778604,34.7663865613,2010
2010-12-29,2010-12-29,"וייס רפאל 5, תל אביב -יפו",וייס רפאל 5,6902-137-10,דירה בבית קומות,3.0,רביעית,74.88,2225000,,,1940.0,,6.0,5550021800,1,6902137,False,,תל אביב -יפו,וייס אייזיק הירש,,6902-137-10,6902/137,29714.2094017094,32.0853876659,34.7735648052,2010
2010-12-29,2010-12-29,"גלוסקין 5, תל אביב -יפו",גלוסקין 5,6108-411-8,דירה בבית קומות,5.5,רביעית,95.0,4700000,,,1960.0,,4.0,5550025950,1,6108411,False,123% ב 7 שנים,תל אביב -יפו,גלוסקין,17.57,6108-411-8,6108/411,49473.68421052631,32.0870144215,34.7935088098,2010
2010-12-29,2010-12-29,"רופין 45, תל אביב -יפו",רופין 45,6968-68-4,דירה בבית קומות,2.0,ראשונה,46.0,1550000,,,1939.0,,3.0,5553144950,1,696868,False,,תל אביב -יפו,רופין,,6968-68-4,6968/68,33695.65217391304,32.0843309955,34.7711242611,2010
2010-12-29,2010-12-29,"גייגר 12, תל אביב -יפו",גייגר 12,6630-404-39,דירה בבית קומות,4.0,שניה,87.78,2200000,,,1970.0,,8.0,5512997950,1,6630404,False,,תל אביב -יפו,גייגר,,6630-404-39,6630/404,25062.65664160401,32.1186034023,34.8009106014,2010
2010-12-29,2010-12-29,"נורדאו 81, תל אביב -יפו",נורדאו 81,6957-57-4,דירה בבית קומות,3.0,ראשונה,63.0,1800000,,,1960.0,,4.0,5550113350,1,695757,False,,תל אביב -יפו,נורדאו,,6957-57-4,6957/57,28571.42857142857,32.0922681244,34.7805014351,2010
2010-12-29,2010-12-29,"אלנבי 32, תל אביב -יפו",אלנבי 32,6915-3-4,חנות,,ראשונה,106.0,1324324,,,1970.0,2010.0,5.0,5550008100,1,69153,False,,תל אביב -יפו,אלנבי,,6915-3-4,6915/3,12493.622641509432,32.0726052395,34.7681366567,2010
2010-12-29,2010-12-29,"יפת 99, תל אביב -יפו",יפת 99,7047-4-3,דירה בבית קומות,3.0,שניה,96.0,750000,,,1990.0,,2.0,5551268750,1,70474,False,,תל אביב -יפו,יפת,,7047-4-3,7047/4,7812.5,32.0419265323,34.7519212851,2010
2010-12-29,2010-12-29,"צ'לנוב 29, תל אביב -יפו",צ'לנוב 29,9029-28-6,דירה בבית קומות,3.0,ראשונה,68.4,980000,,,1948.0,,3.0,5513008550,1,902928,False,,תל אביב -יפו,צ'לנוב,,9029-28-6,9029/28,14327.485380116956,32.0569282735,34.7749329148,2010
2010-12-29,2010-12-29,"יוסף פומרוק 8, תל אביב -יפו",יוסף פומרוק 8,6624-360-5,דירה בבית קומות,6.0,מרתף+קרקע+ראשונה,183.66,4500000,,,1999.0,,,5550074150,1,6624360,False,,תל אביב -יפו,פומרוק יוסף,,6624-360-5,6624/360,24501.79679843189,32.120112366,34.82704219,2010
2010-12-29,2010-12-29,"יצחק לויטן 8, תל אביב -יפו",יצחק לויטן 8,6630-294-344,דירה בבית קומות,3.0,תשיעית,74.0,2140000,,,1960.0,,12.0,5512999550,1,6630294,False,,תל אביב -יפו,לויטן יצחק,,6630-294-344,6630/294,28918.91891891892,32.11831951,34.7967880913,2010
2010-12-29,2010-12-29,"מוצקין 19, תל אביב -יפו",מוצקין 19,6960-102-2,דירה בבית קומות,4.0,ראשונה,85.0,3150000,,,1973.0,,4.0,5550043650,1,6960102,False,,תל אביב -יפו,מוצקין,,6960-102-2,6960/102,37058.82352941176,32.0911861411,34.7748846085,2010
2010-12-29,2010-12-29,"ולטר מוזס 8, תל אביב -יפו",ולטר מוזס 8,7095-62-6,דירה,5.0,אחת עשרה,126.0,2470000,1.0,סנטרל פארק,2011.0,,27.0,11181290287,1,709562,False,,תל אביב -יפו,מוזס ולטר,,7095-62-6,7095/62,19603.174603174604,32.0688017683,34.795691598,2010
2010-12-29,2010-12-29,"רש""י 9, תל אביב -יפו","רש""י 9",7226-53-3,דירה בבית קומות,2.0,ראשונה,55.0,1450000,,,1970.0,,5.0,5550494100,1,722653,False,,תל אביב -יפו,"רש""י",,7226-53-3,7226/53,26363.636363636364,32.0721756997,34.7721921078,2010
2010-12-29,2010-12-29,"ישעיהו 20, תל אביב -יפו",ישעיהו 20,6957-8-4,דירה בבית קומות,2.5,ראשונה,57.0,1600000,,,1960.0,,5.0,5550495800,1,69578,False,,תל אביב -יפו,ישעיהו,,6957-8-4,6957/8,28070.17543859649,32.093835765,34.7792078134,2010
2010-12-29,2010-12-29,"יהושע טהון 1, תל אביב -יפו",יהושע טהון 1,6960-98-1,חלוקה/יחוד דירות,,,,10416000,,,1935.0,,3.0,5551842200,1,696098,False,,תל אביב -יפו,טהון יהושע,,6960-98-1,6960/98,,32.0915572995,34.7752879288,2010
2010-12-29,2010-12-29,"שלמה אבן גבירול 71, תל אביב -יפו",שלמה אבן גבירול 71,6953-91-131,חנות,,,320.0,9794000,,,1988.0,,23.0,5551258850,1,695391,False,,תל אביב -יפו,אבן גבירול,,6953-91-131,6953/91,30606.25,32.082493208,34.7805085662,2010
2010-12-29,2010-12-29,"בני משה 14, תל אביב -יפו",בני משה 14,6107-448-8,דירה בבית קומות,4.0,שניה,85.5,2350000,,,1970.0,,9.0,5550089000,1,6107448,False,,תל אביב -יפו,בני משה,,6107-448-8,6107/448,27485.380116959062,32.0920165921,34.7935926567,2010
2010-12-29,2010-12-29,"קרליבך 4, תל אביב -יפו",קרליבך 4,7104-289-1738,דירה בבית קומות,6.0,ארבע עשרה,175.0,6300000,,,2018.0,,47.0,5550463100,1,7104289,False,,תל אביב -יפו,קרליבך,,7104-289-1738,7104/289,36000.0,32.068224082,34.7847225756,2010
2010-12-29,2010-12-29,"לוין קיפניס 1, תל אביב -יפו",לוין קיפניס 1,6615-299-70,דירה בבית קומות,4.0,שניה,89.0,2200000,,,1999.0,,17.0,5550084050,1,6615299,False,88% ב 7.3 שנים,תל אביב -יפו,לוין קיפניס,12.05,6615-299-70,6615/299,24719.101123595505,32.1266895647,34.8309444315,2010
2010-12-29,2010-12-29,"בן יהודה 32, תל אביב -יפו",בן יהודה 32,6907-54-85,משרד,,שישית,71.7,679000,,,1960.0,,14.0,5550704900,1,690754,False,35% ב 11 שנים,תל אביב -יפו,בן יהודה,3.18,6907-54-85,6907/54,9470.013947001396,32.076432565,34.7685963015,2010
2010-12-29,2010-12-29,"דוש 1, תל אביב -יפו",דוש 1,6108-725-167,דירה בבית קומות,4.0,ארבע עשרה,,5290000,,,2010.0,,24.0,5550962300,1,6108725,False,,תל אביב -יפו,דוש,,6108-725-167,6108/725,,32.0897079403,34.7973806673,2010
2010-12-29,2010-12-29,"סמדר 1, תל אביב -יפו",סמדר 1,6135-51-22,דירה בבית קומות,5.0,,92.0,1080000,,,1950.0,,2.0,5550077050,1,613551,False,,תל אביב -יפו,סמדר,,6135-51-22,6135/51,11739.130434782608,32.0494270929,34.7908026769,2010
2010-12-29,2010-12-29,"דולצ'ין אריה 15, תל אביב -יפו",דולצ'ין אריה 15,6630-766-4,דירה בבית קומות,4.0,שניה,102.9,2440000,,,1998.0,,5.0,5513014800,1,6630766,False,,תל אביב -יפו,דולצ'ין אריה,,6630-766-4,6630/766,23712.342079689017,32.1203174241,34.7921614486,2010
2010-12-29,2010-12-29,"ביירון 10, תל אביב -יפו",ביירון 10,7078-43-4,דירה בבית קומות,3.0,ראשונה,46.0,1925000,,,1960.0,,3.0,5551123550,1,707843,False,,תל אביב -יפו,ביירון,,7078-43-4,7078/43,41847.82608695652,32.0834997172,34.7727168916,2010
2010-12-29,2010-12-29,"יפתח 1, תל אביב -יפו",יפתח 1,6133-740-1,דירה בבית קומות,2.0,ראשונה,45.7,1240000,,,1955.0,,3.0,5550079100,1,6133740,False,12% ב 0.4 שנים,תל אביב -יפו,יפתח,30.0,6133-740-1,6133/740,27133.479212253827,32.0580295891,34.7991819384,2010
2010-12-29,2010-12-29,"מרגולין 31, תל אביב -יפו",מרגולין 31,7098-23-5,דירה בבית קומות,3.0,שניה,95.0,450000,,,1948.0,,3.0,5551946150,1,709823,False,,תל אביב -יפו,מרגולין,,7098-23-5,7098/23,4736.8421052631575,32.0588206639,34.7939117485,2010
2010-12-29,2010-12-29,"פאול צלאן 3, תל אביב -יפו",פאול צלאן 3,6988-32-106,תעשיה,,,454.0,2000000,,,1980.0,,5.0,5551178900,1,698832,False,,תל אביב -יפו,צלאן פאול,,6988-32-106,6988/32,4405.286343612334,32.0411275051,34.7718475521,2010
2010-12-29,2010-12-29,"יגאל אלון 1, תל אביב -יפו",יגאל אלון 1,6978-3-39,דירה בבית קומות,5.0,,120.0,1800000,,,1950.0,,3.0,5513006500,1,69783,False,,תל אביב -יפו,אלון יגאל,,6978-3-39,6978/3,15000.0,32.0548086495,34.791150712,2010
2010-12-29,2010-12-29,"מח""ל 7, תל אביב -יפו","מח""ל 7",6131-65-98,דירה בבית קומות,3.0,ראשונה,61.0,920000,,,1970.0,,8.0,5551910200,1,613165,False,69% ב 3 שנים,תל אביב -יפו,"מח""ל",23.0,6131-65-98,6131/65,15081.967213114754,32.0502423571,34.8003438962,2010
2010-12-28,2010-12-28,"יוחנן הורקנוס 26, תל אביב -יפו",יוחנן הורקנוס 26,6212-416-1,משרד,,מרתף,25.0,250000,,,1959.0,,3.0,5550436400,1,6212416,False,,תל אביב -יפו,יוחנן הורקנוס,,6212-416-1,6212/416,10000.0,32.0939000493,34.7829741985,2010
2010-12-28,2010-12-28,"מעון 1, תל אביב -יפו",מעון 1,7051-155-171,דירה,3.0,שביעית,68.0,1345000,1.0,רביעיית פלורנטין,2010.0,,9.0,11181289278,1,7051155,False,,תל אביב -יפו,מעון,,7051-155-171,7051/155,19779.41176470588,32.0553778604,34.7663865613,2010
2010-12-28,2010-12-28,"אלחריזי 15, תל אביב -יפו",אלחריזי 15,6215-272-6,דירה בבית קומות,3.0,שלישית,,1605000,,,1940.0,,3.0,5550026350,1,6215272,False,,תל אביב -יפו,אלחריזי,,6215-272-6,6215/272,,32.0849620002,34.7809728783,2010
2010-12-28,2010-12-28,"מעון 1, תל אביב -יפו",מעון 1,7051-155-170,דירה,3.0,שביעית,67.0,1050000,1.0,רביעיית פלורנטין,2010.0,,9.0,11181289277,1,7051155,False,,תל אביב -יפו,מעון,,7051-155-170,7051/155,15671.641791044776,32.0553778604,34.7663865613,2010
2010-12-28,2010-12-28,"איילת השחר 2, תל אביב -יפו",איילת השחר 2,6977-68-7,דירה בבית קומות,2.0,,60.0,800000,,,1950.0,,2.0,5550162850,1,697768,False,,תל אביב -יפו,איילת השחר,,6977-68-7,6977/68,13333.333333333334,32.0580707101,34.7828735535,2010
2010-12-28,2010-12-28,"לילינבלום 18, תל אביב -יפו",לילינבלום 18,6923-9-9,דירה בבית קומות,3.0,שלישית,70.25,2250000,,,1901.0,,3.0,5512966500,1,69239,False,84% ב 3.3 שנים,תל אביב -יפו,לילינבלום,25.45,6923-9-9,6923/9,32028.46975088968,32.0618682736,34.7692651954,2010
2010-12-28,2010-12-28,"מעון 1, תל אביב -יפו",מעון 1,7051-155-169,דירה,2.0,שביעית,51.0,965000,1.0,רביעיית פלורנטין,2010.0,,9.0,11181289275,1,7051155,False,,תל אביב -יפו,מעון,,7051-155-169,7051/155,18921.56862745098,32.0553778604,34.7663865613,2010
2010-12-28,2010-12-28,"הרצל 122, תל אביב -יפו",הרצל 122,7082-32-1,דירה בבית קומות,2.0,שניה,52.0,905000,,,1950.0,,,5550100500,1,708232,False,,תל אביב -יפו,הרצל,,7082-32-1,7082/32,17403.846153846152,32.0537477606,34.7706589393,2010
2010-12-28,2010-12-28,"מעון 1, תל אביב -יפו",מעון 1,7051-155-523,דירה בבית קומות,2.0,,50.0,904000,,,2010.0,,9.0,5550620750,1,7051155,False,,תל אביב -יפו,מעון,,7051-155-523,7051/155,18080.0,32.0553778604,34.7663865613,2010
2010-12-28,2010-12-28,"אחד העם 128, תל אביב -יפו",אחד העם 128,7085-160-13,דירה בבית קומות,2.5,קומה ‎3‏,63.0,1700000,,,1940.0,,5.0,5550292800,1,7085160,False,,תל אביב -יפו,אחד העם,,7085-160-13,7085/160,26984.126984126982,32.0709644596,34.778252195,2010
2010-12-28,2010-12-28,"בני אפרים 210, תל אביב -יפו",בני אפרים 210,6636-784-15,דירה בבית קומות,3.0,שלישית,77.0,1500000,,,1960.0,,3.0,5551526600,1,6636784,False,,תל אביב -יפו,בני אפרים,,6636-784-15,6636/784,19480.51948051948,32.1123884036,34.8175740371,2010
2010-12-28,2010-12-28,"יעקב סלע 9, תל אביב -יפו",יעקב סלע 9,6146-320-52,דירה בבית קומות,4.0,רביעית,72.0,1250000,,,1998.0,,9.0,5550316700,1,6146320,False,,תל אביב -יפו,סלע יעקב,,6146-320-52,6146/320,17361.11111111111,32.0487555179,34.8116326093,2010
2010-12-28,2010-12-28,"יעקב שב""י מאור 6, תל אביב -יפו","יעקב שב""י מאור 6",6132-280-1,דירה בבית קומות,5.0,שניה,177.0,2100000,,,1975.0,,,5550347650,1,6132280,False,,תל אביב -יפו,"ש""בי יעקב מאור",,6132-280-1,6132/280,11864.406779661016,32.0467472047,34.8041121609,2010
2010-12-28,2010-12-28,"חנוך 60, תל אביב -יפו",חנוך 60,6135-51-67,חנות,,,,75000,,,1950.0,,2.0,5512948450,1,613551,False,,תל אביב -יפו,חנוך,,6135-51-67,6135/51,,32.0494270929,34.7908026769,2010
2010-12-28,2010-12-28,"חכמי אתונה 73, תל אביב -יפו",חכמי אתונה 73,6974-114-5,דירה בבית קומות,2.5,שניה,75.0,870000,,,1960.0,,1.0,5550024650,1,6974114,False,,תל אביב -יפו,חכמי אתונה,,6974-114-5,6974/114,11600.0,32.049785168,34.7794596846,2010
2010-12-28,2010-12-28,"אלברט קיוסו 9, תל אביב -יפו",אלברט קיוסו 9,7023-133-12,דירה בבית קומות,4.5,רביעית,92.6,1030000,,,1950.0,,4.0,5512972700,1,7023133,False,,תל אביב -יפו,קיוסו אלברט,,7023-133-12,7023/133,11123.110151187906,32.0489686067,34.7547131448,2010
2010-12-28,2010-12-28,"סמולנסקין 14, תל אביב -יפו",סמולנסקין 14,7113-30-17,דירה בבית קומות,2.5,שלישית,53.92,1950000,,,1936.0,,4.0,5550487100,1,711330,False,69% ב 1.5 שנים,תל אביב -יפו,סמולנסקין,46.0,7113-30-17,7113/30,36164.688427299705,32.0810920047,34.7719031758,2010
2010-12-28,2010-12-28,"ישעיהו ברלין 1, תל אביב -יפו",ישעיהו ברלין 1,6970-103-94,דירה בבית קומות,4.0,שניה,82.0,1450000,,,2022.0,,10.0,5551296900,1,6970103,False,,תל אביב -יפו,ברלין ישעיהו,,6970-103-94,6970/103,17682.926829268294,32.046303635,34.776796282,2010
2010-12-28,2010-12-28,"מאיר יערי 18, תל אביב -יפו",מאיר יערי 18,7186-16-58,דירה בבית קומות,5.0,שישית,125.0,2985000,,,2011.0,,9.0,5512958650,1,718616,False,,תל אביב -יפו,יערי מאיר,,7186-16-58,7186/16,23880.0,32.0993419195,34.7868916284,2010
2010-12-28,2010-12-28,"המלך ג'ורג' 10, תל אביב -יפו",המלך ג'ורג' 10,6933-1-12,דירה בבית קומות,3.0,שניה,59.4,1550000,,,2003.0,,4.0,5551248200,1,69331,False,,תל אביב -יפו,המלך ג'ורג',,6933-1-12,6933/1,26094.27609427609,32.0706911515,34.7720596282,2010
2010-12-28,2010-12-28,"ארלוזורוב 62, תל אביב -יפו",ארלוזורוב 62,6954-193-86,חנות,,,23.0,275000,,,1990.0,,7.0,5512979750,1,6954193,False,,תל אביב -יפו,ארלוזורוב,,6954-193-86,6954/193,11956.521739130434,32.0858489187,34.7774168428,2010
2010-12-28,2010-12-28,"לבנון חיים 95, תל אביב -יפו",לבנון חיים 95,6630-403-5,דירה בבית קומות,4.5,ראשונה,95.43,2520000,,,1970.0,,9.0,5512964900,1,6630403,False,68% ב 5 שנים,תל אביב -יפו,לבנון חיים,13.6,6630-403-5,6630/403,26406.79031751021,32.1205418824,34.801703149,2010
2010-12-28,2010-12-28,"בן-ציון 32, תל אביב -יפו",בן-ציון 32,6904-170-5,דירה בבית קומות,3.0,שניה,90.4,1701000,,,1930.0,,3.0,5550805050,1,6904170,False,,תל אביב -יפו,בן ציון,,6904-170-5,6904/170,18816.371681415927,32.0723262615,34.7780007257,2010
2010-12-28,2010-12-28,"רמברנדט 17, תל אביב -יפו",רמברנדט 17,6217-621-8,דירה בבית קומות,3.0,רביעית,67.0,1789000,,,1960.0,,4.0,5550132400,1,6217621,False,,תל אביב -יפו,רמברנדט,,6217-621-8,6217/621,26701.492537313432,32.0837958365,34.7838962833,2010
2010-12-27,2010-12-27,"בצלאל 11, תל אביב -יפו",בצלאל 11,6217-69-2,דירה בבית קומות,3.0,ראשונה,76.0,2750000,,,1960.0,,4.0,5550024250,1,621769,False,,תל אביב -יפו,בצלאל,,6217-69-2,6217/69,36184.21052631579,32.0817565867,34.7835684334,2010
2010-12-27,2010-12-27,"ניצנה 11, תל אביב -יפו",ניצנה 11,7016-25-14,דירה בבית קומות,3.0,ראשונה,66.9,1950000,,,1940.0,,7.0,5551078600,1,701625,False,193% ב 5.7 שנים,תל אביב -יפו,ניצנה,33.86,7016-25-14,7016/25,29147.982062780266,32.0563495654,34.7617706132,2010
2010-12-27,2010-12-27,"אחימאיר אבא 7, תל אביב -יפו",אחימאיר אבא 7,6631-128-39,דירה בבית קומות,4.0,רביעית,68.0,1950000,,,2029.0,,7.0,5550085750,1,6631128,False,,תל אביב -יפו,אחימאיר אבא,,6631-128-39,6631/128,28676.470588235294,32.1253612309,34.7997086277,2010
2010-12-27,2010-12-27,"דיזנגוף 37, תל אביב -יפו",דיזנגוף 37,6904-8-1,דירה בבית קומות,3.0,קרקע,75.46,487000,,,1940.0,,3.0,5552456800,1,69048,False,47% ב 2 שנים,תל אביב -יפו,דיזנגוף,23.5,6904-8-1,6904/8,6453.750331301352,32.0744401346,34.7768013848,2010
2010-12-27,2010-12-27,"דיזנגוף 37, תל אביב -יפו",דיזנגוף 37,6904-8-6,דירה בבית קומות,3.0,שניה,75.46,368000,,,1940.0,,3.0,5552465000,1,69048,False,47% ב 2 שנים,תל אביב -יפו,דיזנגוף,23.5,6904-8-6,6904/8,4876.755897164061,32.0744401346,34.7768013848,2010
2010-12-27,2010-12-27,"שלמה המלך 11, תל אביב -יפו",שלמה המלך 11,7092-46-1,דירה בבית קומות,3.0,שניה,70.0,1705250,,,1930.0,,2.0,5512916600,1,709246,False,,תל אביב -יפו,שלמה המלך,,7092-46-1,7092/46,24360.714285714286,32.0769341838,34.7763299291,2010
2010-12-27,2010-12-27,"מאיר יערי 18, תל אביב -יפו",מאיר יערי 18,7186-16-12,דירה,5.0,שישית,112.0,2985000,1.0,כוכב הצפון,2011.0,,9.0,11181293682,1,718616,False,,תל אביב -יפו,יערי מאיר,,7186-16-12,7186/16,26651.785714285717,32.0993419195,34.7868916284,2010
2010-12-27,2010-12-27,"אלנבי 73, תל אביב -יפו",אלנבי 73,6933-120-11,דירה בבית קומות,2.0,שניה,42.1,1270000,,,1998.0,,6.0,5550201200,1,6933120,False,115% ב 12.5 שנים,תל אביב -יפו,אלנבי,9.2,6933-120-11,6933/120,30166.27078384798,32.0675070928,34.7714990635,2010
2010-12-27,2010-12-27,"דיזנגוף 37, תל אביב -יפו",דיזנגוף 37,6904-8-4,דירה בבית קומות,4.0,ראשונה,82.02,442000,,,1940.0,,3.0,5552464600,1,69048,False,47% ב 2 שנים,תל אביב -יפו,דיזנגוף,23.5,6904-8-4,6904/8,5388.929529383077,32.0744401346,34.7768013848,2010
2010-12-27,2010-12-27,"מטלון 17, תל אביב -יפו",מטלון 17,6930-33-1,חנות,,מרתף,39.78,1700000,,,1950.0,,4.0,5550212750,1,693033,False,,תל אביב -יפו,מטלון,,6930-33-1,6930/33,42735.042735042734,32.058896235,34.7701654593,2010
2010-12-27,2010-12-27,"מיטב 6, תל אביב -יפו",מיטב 6,7096-62-6,משרד,,,210.0,3010000,,,1998.0,,2.0,5551496500,1,709662,False,,תל אביב -יפו,מיטב,,7096-62-6,7096/62,14333.333333333334,32.0656649412,34.7952974317,2010
2010-12-27,2010-12-27,"מעון 1, תל אביב -יפו",מעון 1,7051-155-168,דירה,2.0,שלישית,50.0,904000,1.0,רביעיית פלורנטין,2010.0,,9.0,11181289274,1,7051155,False,,תל אביב -יפו,מעון,,7051-155-168,7051/155,18080.0,32.0553778604,34.7663865613,2010
2010-12-27,2010-12-27,"בארי 20, תל אביב -יפו",בארי 20,6217-338-6,דירה בבית קומות,3.0,ראשונה,73.0,1800000,,,1958.0,,4.0,5550051000,1,6217338,False,,תל אביב -יפו,בארי,,6217-338-6,6217/338,24657.534246575346,32.0829969107,34.7874235496,2010
2010-12-27,2010-12-27,"שלמה המלך 11, תל אביב -יפו",שלמה המלך 11,7092-46-1,דירה בבית קומות,3.0,שניה,70.0,1705250,,,1930.0,,2.0,5512916600,1,709246,False,,תל אביב -יפו,שלמה,,7092-46-1,7092/46,24360.714285714286,32.0769341838,34.7763299291,2010
2010-12-27,2010-12-27,"מארק שאגאל 1, תל אביב -יפו",מארק שאגאל 1,6896-212-33,מחסנים,,,,58000,,,2004.0,,7.0,5512839050,1,6896212,False,,תל אביב -יפו,שגאל מרק,,6896-212-33,6896/212,,32.1182826164,34.788433294,2010
2010-12-27,2010-12-27,"הרב חיים הלר 24, תל אביב -יפו",הרב חיים הלר 24,7048-16-291,דירה בבית קומות,4.0,שניה,83.8,970000,,,1970.0,,5.0,5550349750,1,704816,False,,תל אביב -יפו,הרב הלר חיים,,7048-16-291,7048/16,11575.178997613366,32.0356762655,34.7567586022,2010
2010-12-27,2010-12-27,"הירקון 168, תל אביב -יפו",הירקון 168,6966-37-3,דירה בבית קומות,2.0,קרקע,34.0,1400000,,,1960.0,,3.0,5512903400,1,696637,False,,תל אביב -יפו,הירקון,,6966-37-3,6966/37,41176.470588235294,32.0850946583,34.7700876111,2010
2010-12-27,2010-12-27,"דיזנגוף 37, תל אביב -יפו",דיזנגוף 37,6904-8-3,חנות,,קרקע,,103000,,,1940.0,,3.0,5552464200,1,69048,False,47% ב 2 שנים,תל אביב -יפו,דיזנגוף,23.5,6904-8-3,6904/8,,32.0744401346,34.7768013848,2010
2010-12-27,2010-12-27,"אשר ברש 5, תל אביב -יפו",אשר ברש 5,6768-7-87,דירה בבית קומות,2.5,שלישית,42.9,1550000,,,1959.0,,4.0,5550027500,1,67687,False,,תל אביב -יפו,ברש אשר,,6768-7-87,6768/7,36130.53613053613,32.1100159002,34.7946021158,2010
2010-12-27,2010-12-27,"אהרון דוד גורדון 5, תל אביב -יפו",אהרון דוד גורדון 5,6902-258-4,דירה בבית קומות,7.0,,187.0,7187000,,,2010.0,,3.0,5550335700,1,6902258,False,,תל אביב -יפו,אהרון דוד גורדון,,6902-258-4,6902/258,38433.1550802139,32.0863373946,34.7710909987,2010
2010-12-26,2010-12-26,"הרבי מבכרך 42, תל אביב -יפו",הרבי מבכרך 42,7016-180-4,דירה בבית קומות,7.0,"ראשונה, שניה",258.0,7868000,,,2010.0,,2.0,5550280450,1,7016180,False,,תל אביב -יפו,הרבי מבכרך,,7016-180-4,7016/180,30496.124031007752,32.055980852,34.7621152417,2010
2010-12-26,2010-12-26,"קרית ספר 15, תל אביב -יפו",קרית ספר 15,7099-117-11,דירה בבית קומות,3.5,רביעית,71.0,2250000,,,1970.0,,4.0,5512743450,1,7099117,False,,תל אביב -יפו,קרית ספר,,7099-117-11,7099/117,31690.140845070426,32.0700751845,34.7818870147,2010
2010-12-26,2010-12-26,"הירקון 234, תל אביב -יפו",הירקון 234,6960-16-2,דירה בבית קומות,3.5,ראשונה,70.0,3000000,,,1964.0,,5.0,5550032950,1,696016,False,,תל אביב -יפו,הירקון,,6960-16-2,6960/16,42857.142857142855,32.0906910693,34.7729057046,2010
2010-12-26,2010-12-26,"הרבי מבכרך 42, תל אביב -יפו",הרבי מבכרך 42,7016-180-11,דירה בבית קומות,4.0,"ראשונה, שניה",123.9,4177000,,,2010.0,,2.0,5550279550,1,7016180,False,,תל אביב -יפו,הרבי מבכרך,,7016-180-11,7016/180,33712.671509281674,32.055980852,34.7621152417,2010
2010-12-26,2010-12-26,"מעון 1, תל אביב -יפו",מעון 1,7051-155-524,דירה בבית קומות,2.0,רביעית,51.0,1170000,,,2010.0,,9.0,5550624000,1,7051155,False,,תל אביב -יפו,מעון,,7051-155-524,7051/155,22941.176470588234,32.0553778604,34.7663865613,2010
2010-12-26,2010-12-26,"מעפילי אגוז 25, תל אביב -יפו",מעפילי אגוז 25,7241-18-33,דירה בבית קומות,4.0,ראשונה,76.5,1000000,,,2022.0,,4.0,5512954500,1,724118,False,30% ב 2 שנים,תל אביב -יפו,מעפילי אגוז,15.0,7241-18-33,7241/18,13071.8954248366,32.0515993294,34.8110201539,2010
2010-12-26,2010-12-26,"ניסים אלוני 17, תל אביב -יפו",ניסים אלוני 17,6108-719-93,דירה בבית קומות,4.0,שש עשרה,98.05,2900000,,,2009.0,,39.0,5550287850,1,6108719,False,,תל אביב -יפו,אלוני ניסים,,6108-719-93,6108/719,29576.74655787864,32.0900035343,34.7962427787,2010
2010-12-26,2010-12-26,"אבן גבירול 125, תל אביב -יפו",אבן גבירול 125,6214-485-4,דירה בבית קומות,2.0,קרקע,20.76,925000,,,1950.0,,4.0,5551119900,1,6214485,False,122% ב 5.8 שנים,תל אביב -יפו,אבן גבירול,21.03,6214-485-4,6214/485,44556.84007707129,32.0883580363,34.7820790648,2010
2010-12-26,2010-12-26,"אח""י דקר 9, תל אביב -יפו","אח""י דקר 9",6337-116-5,דירה בבית קומות,2.0,שניה,40.0,800000,,,1960.0,,2.0,5512712850,1,6337116,False,,תל אביב -יפו,"אח""י דקר",,6337-116-5,6337/116,20000.0,32.1184553232,34.8384285996,2010
2010-12-26,2010-12-26,"חובבי ציון 55, תל אביב -יפו",חובבי ציון 55,6906-46-14,דירה בבית קומות,4.0,,101.0,2500000,,,1950.0,,3.0,5551499450,1,690646,False,,תל אביב -יפו,חובבי ציון,,6906-46-14,6906/46,24752.47524752475,32.0782057115,34.7711852964,2010
2010-12-26,2010-12-26,"עמינדב 22, תל אביב -יפו",עמינדב 22,7096-48-22,דירה בבית קומות,2.5,שלישית,51.48,1000000,,,1950.0,,3.0,5550132750,1,709648,False,90% ב 6.6 שנים,תל אביב -יפו,עמינדב,13.64,7096-48-22,7096/48,19425.019425019425,32.0643451896,34.7954511268,2010
2010-12-26,2010-12-26,"הרצל רוזנבלום 12, תל אביב -יפו",הרצל רוזנבלום 12,6621-10-116,דירת נופש,2.0,שישית,50.0,2694000,,,2009.0,,10.0,5512838250,1,662110,False,,תל אביב -יפו,רוזנבלום הרצל,,6621-10-116,6621/10,53880.0,32.1393095532,34.7911385186,2010
2010-12-25,2010-12-25,"מעון 1, תל אביב -יפו",מעון 1,7051-155-167,דירה,2.0,רביעית,51.0,1250000,1.0,רביעיית פלורנטין,2010.0,,9.0,11181289273,1,7051155,False,,תל אביב -יפו,מעון,,7051-155-167,7051/155,24509.803921568626,32.0553778604,34.7663865613,2010
2010-12-25,2010-12-25,"מעון 1, תל אביב -יפו",מעון 1,7051-155-166,דירה,2.0,שניה,51.0,1170207,1.0,רביעיית פלורנטין,2010.0,,9.0,11181289272,1,7051155,False,,תל אביב -יפו,מעון,,7051-155-166,7051/155,22945.235294117647,32.0553778604,34.7663865613,2010
2010-12-25,2010-12-25,"מעון 1, תל אביב -יפו",מעון 1,7051-155-165,דירה,2.0,שניה,50.0,1027714,1.0,רביעיית פלורנטין,2010.0,,9.0,11181289271,1,7051155,False,,תל אביב -יפו,מעון,,7051-155-165,7051/155,20554.28,32.0553778604,34.7663865613,2010
2010-12-24,2010-12-24,"משמר הגבול 17, תל אביב -יפו",משמר הגבול 17,6628-827-6,דירה בבית קומות,5.0,שניה,102.17,2400000,,,1970.0,,8.0,5550168200,1,6628827,False,,תל אביב -יפו,משמר הגבול,,6628-827-6,6628/827,23490.261329157285,32.1240207444,34.80429547,2010
2010-12-24,2010-12-24,"בארט 9, תל אביב -יפו",בארט 9,6649-235-52,דירה בבית קומות,2.5,ראשונה,46.0,1675000,,,2024.0,,6.0,5550545300,1,6649235,False,,תל אביב -יפו,בארט,,6649-235-52,6649/235,36413.04347826087,32.1145975445,34.7985833767,2010
2010-12-24,2010-12-24,"הרב שלמה גורן 2, תל אביב -יפו",הרב שלמה גורן 2,6108-717-157,מחסנים,,ראשונה,,71000,,,2008.0,,28.0,5550242950,1,6108717,False,,תל אביב -יפו,הרב גורן שלמה,,6108-717-157,6108/717,,32.090639897,34.7960318578,2010
2010-12-23,2010-12-23,"ארלוזורוב 7, תל אביב -יפו",ארלוזורוב 7,6901-62-5,דירה בבית קומות,2.0,ראשונה,47.32,1560000,,,1960.0,,3.0,5550346000,1,690162,False,,תל אביב -יפו,ארלוזורוב,,6901-62-5,6901/62,32967.03296703297,32.0877077484,34.7724650942,2010
2010-12-23,2010-12-23,"מעון 1, תל אביב -יפו",מעון 1,7051-155-527,דירה בבית קומות,2.0,חמישית,51.0,1100000,,,2010.0,,9.0,5550621550,1,7051155,False,,תל אביב -יפו,מעון,,7051-155-527,7051/155,21568.62745098039,32.0553778604,34.7663865613,2010
2010-12-23,2010-12-23,"קליי 19, תל אביב -יפו",קליי 19,6108-431-12,דירה בבית קומות,2.0,רביעית,59.0,1350000,,,1960.0,,4.0,5550554700,1,6108431,False,,תל אביב -יפו,קליי,,6108-431-12,6108/431,22881.35593220339,32.0856454686,34.7944381695,2010
2010-12-23,2010-12-23,"שולמית 13, תל אביב -יפו",שולמית 13,6903-96-7,דירה בבית קומות,5.0,שלישית,149.4,7800000,,,1935.0,,3.0,5551031600,1,690396,False,,תל אביב -יפו,שולמית,,6903-96-7,6903/96,52208.83534136546,32.0787900117,34.7754537007,2010
2010-12-23,2010-12-23,"קליי 3, תל אביב -יפו",קליי 3,6108-389-9,דירה בבית קומות,3.0,שניה,74.0,2065000,,,1960.0,,3.0,5512791650,1,6108389,False,,תל אביב -יפו,קליי,,6108-389-9,6108/389,27905.405405405407,32.0838237331,34.7940483628,2010
2010-12-23,2010-12-23,"בוגרשוב 68, תל אביב -יפו",בוגרשוב 68,6911-20-8,דירה בבית קומות,2.0,ראשונה,47.77,1400000,,,1972.0,,3.0,5550556800,1,691120,False,,תל אביב -יפו,בוגרשוב,,6911-20-8,6911/20,29307.09650408206,32.0752416704,34.7725808379,2010
2010-12-23,2010-12-23,"שז""ר זלמן 26, תל אביב -יפו","שז""ר זלמן 26",6993-98-40,דירה בבית קומות,3.0,שביעית,63.2,500000,,,1970.0,,8.0,5512803100,1,699398,False,,תל אביב -יפו,"שז""ר זלמן",,6993-98-40,6993/98,7911.39240506329,32.039639462,34.765133345,2010
2010-12-23,2010-12-23,"שולמית 11, תל אביב -יפו",שולמית 11,6903-97-5,דירה בבית קומות,4.0,ראשונה,81.0,2079000,,,1950.0,,4.0,5551928400,1,690397,False,,תל אביב -יפו,שולמית,,6903-97-5,6903/97,25666.666666666668,32.0786583594,34.7754188589,2010
2010-12-23,2010-12-23,"אבן גבירול 152, תל אביב -יפו",אבן גבירול 152,6213-61-14,דירה בבית קומות,1.0,שניה,23.0,944000,,,1950.0,,3.0,5512430300,1,621361,False,,תל אביב -יפו,אבן גבירול,,6213-61-14,6213/61,41043.47826086957,32.0895960061,34.7828864465,2010
2010-12-23,2010-12-23,"דיזנגוף 118, תל אביב -יפו",דיזנגוף 118,7113-88-9,דירה בבית קומות,2.0,שלישית,65.0,1250000,,,1940.0,,2.0,5512917000,1,711388,False,,תל אביב -יפו,דיזנגוף,,7113-88-9,7113/88,19230.76923076923,32.0807956046,34.7740419284,2010
2010-12-23,2010-12-23,"אלנבי 120, תל אביב -יפו",אלנבי 120,7462-7-0,משרד,,,611.0,22300000,,,1940.0,,27.0,5551561250,1,74627,False,,תל אביב -יפו,אלנבי,,7462-7-0,7462/7,36497.5450081833,32.0630148706,34.7728801807,2010
2010-12-23,2010-12-23,"רענן 10, תל אביב -יפו",רענן 10,7424-17-1,חנות,,,190.0,2544000,,,1960.0,,1.0,5551189200,1,742417,False,,תל אביב -יפו,רענן,,7424-17-1,7424/17,13389.473684210529,32.0598083065,34.7687350256,2010
2010-12-23,2010-12-23,"אהרון בקר 9, תל אביב -יפו",אהרון בקר 9,6626-224-88,דירה בבית קומות,3.0,חמישית,78.2,2135000,,,2001.0,,8.0,5550822850,1,6626224,False,112% ב 9.3 שנים,תל אביב -יפו,בקר אהרון,12.04,6626-224-88,6626/224,27301.79028132992,32.1230169066,34.8173722089,2010
2010-12-23,2010-12-23,"יהודה הנשיא 36, תל אביב -יפו",יהודה הנשיא 36,6630-322-30,דירה בבית קומות,3.0,אחת עשרה,,2650000,1.0,,1960.0,,13.0,5512997100,1,6630322,False,,תל אביב -יפו,יהודה הנשיא,,6630-322-30,6630/322,,32.1199270188,34.7961031526,2010
2010-12-23,2010-12-23,"אשתורי הפרחי 2, תל אביב -יפו",אשתורי הפרחי 2,6214-545-6,דירה בבית קומות,2.0,שניה,64.0,1720000,,,1948.0,,1.0,5512804400,1,6214545,False,,תל אביב -יפו,אשתורי הפרחי,,6214-545-6,6214/545,26875.0,32.0887448329,34.7799534516,2010
2010-12-23,2010-12-23,"יוסף הנשיא 6, תל אביב -יפו",יוסף הנשיא 6,7430-23-6,דירה בבית קומות,2.0,ראשונה,49.23,1870000,,,2001.0,,5.0,5512999150,1,743023,False,100% ב 7.5 שנים,תל אביב -יפו,יוסף הנשיא,13.33,7430-23-6,7430/23,37984.96851513305,32.0684403245,34.7739972117,2010
2010-12-23,2010-12-23,"בני משה 33, תל אביב -יפו",בני משה 33,6107-389-3,דירה בבית קומות,2.5,ראשונה,53.0,1400000,,,1970.0,,4.0,5512877850,1,6107389,False,,תל אביב -יפו,בני משה,,6107-389-3,6107/389,26415.094339622643,32.0925981266,34.7946173742,2010
2010-12-23,2010-12-23,"חפר 24, תל אביב -יפו",חפר 24,6979-10-358,דירה בבית קומות,1.0,ראשונה,30.0,340000,,,1950.0,,4.0,5512947200,1,697910,False,,תל אביב -יפו,חפר,,6979-10-358,6979/10,11333.333333333334,32.0529239552,34.7892835444,2010
2010-12-23,2010-12-23,"אהרון בקר 5, תל אביב -יפו",אהרון בקר 5,6626-221-35,דירה בבית קומות,5.0,שלישית,118.0,2600000,,,2002.0,,7.0,5512714950,1,6626221,False,,תל אביב -יפו,בקר אהרון,,6626-221-35,6626/221,22033.898305084746,32.1237030431,34.8163882007,2010
2010-12-23,2010-12-23,"עוזר 1, תל אביב -יפו",עוזר 1,6135-89-57,חנות,,,,130000,,,1950.0,,3.0,5550106350,1,613589,False,,תל אביב -יפו,עוזר,,6135-89-57,6135/89,,32.0518231737,34.7908247346,2010
2010-12-23,2010-12-23,"תפוח 12, תל אביב -יפו",תפוח 12,9013-33-3,דירה בבית קומות,3.0,ראשונה,65.02,144000,,,1960.0,,2.0,5551081100,1,901333,False,,תל אביב -יפו,תפוח,,9013-33-3,9013/33,2214.7031682559214,32.0464462651,34.7510504866,2010
2010-12-23,2010-12-23,"הרב שלמה גורן 2, תל אביב -יפו",הרב שלמה גורן 2,6108-717-158,מחסנים,,,,66000,,,2008.0,,28.0,5550178100,1,6108717,False,,תל אביב -יפו,הרב גורן שלמה,,6108-717-158,6108/717,,32.090639897,34.7960318578,2010
2010-12-22,2010-12-22,"כיסופים 9, תל אביב -יפו",כיסופים 9,6623-251-3,דירה בבית קומות,4.0,שניה,92.0,2750000,,,1976.0,,2.0,5512880350,1,6623251,False,,תל אביב -יפו,כיסופים,,6623-251-3,6623/251,29891.304347826088,32.1168122772,34.8309082004,2010
2010-12-22,2010-12-22,"אבן גבירול 125, תל אביב -יפו",אבן גבירול 125,6214-485-1,דירה בבית קומות,2.0,קרקע,50.0,925000,,,1950.0,,4.0,5551118600,1,6214485,False,,תל אביב -יפו,אבן גבירול,,6214-485-1,6214/485,18500.0,32.0883580363,34.7820790648,2010
2010-12-22,2010-12-22,"מעון 1, תל אביב -יפו",מעון 1,7051-155-164,דירה,2.0,שניה,50.0,1150000,1.0,רביעיית פלורנטין,2010.0,,9.0,11181289270,1,7051155,False,,תל אביב -יפו,מעון,,7051-155-164,7051/155,23000.0,32.0553778604,34.7663865613,2010
2010-12-22,2010-12-22,"אורי צבי גרינברג 11, תל אביב -יפו",אורי צבי גרינברג 11,6620-18-6,דירה בבית קומות,4.0,שניה,112.8,2075000,,,1990.0,,12.0,5513005700,1,662018,False,,תל אביב -יפו,אורי צבי גרינברג,,6620-18-6,6620/18,18395.390070921985,32.1305171783,34.7947640888,2010
2010-12-22,2010-12-22,"טרומפלדור 24, תל אביב -יפו",טרומפלדור 24,6910-29-7,דירה בבית קומות,2.0,ראשונה,24.0,900000,,,1935.0,,4.0,5550167450,1,691029,False,161% ב 5 שנים,תל אביב -יפו,טרומפלדור,32.2,6910-29-7,6910/29,37500.0,32.0751008695,34.7692041891,2010
2010-12-22,2010-12-22,"מעון 1, תל אביב -יפו",מעון 1,7051-155-163,דירה,2.0,חמישית,51.0,1100000,1.0,רביעיית פלורנטין,2010.0,,9.0,11181289269,1,7051155,False,,תל אביב -יפו,מעון,,7051-155-163,7051/155,21568.62745098039,32.0553778604,34.7663865613,2010
2010-12-22,2010-12-22,"מאיר יערי 8, תל אביב -יפו",מאיר יערי 8,6798-7-9,דירה בבית קומות,4.0,שלישית,99.14,2700000,,,2000.0,,8.0,5550422700,1,67987,False,,תל אביב -יפו,יערי מאיר,,6798-7-9,6798/7,27234.214242485374,32.0992564974,34.7851558539,2010
2010-12-22,2010-12-22,"נתן 29, תל אביב -יפו",נתן 29,6135-69-175,דירה בבית קומות,2.0,,34.0,758333000,,,1950.0,,3.0,5512974400,1,613569,False,,תל אביב -יפו,נתן,,6135-69-175,6135/69,22303911.76470588,32.0492782548,34.790115711,2010
2010-12-22,2010-12-22,"בגין 112, תל אביב -יפו",בגין 112,7109-50-6,משרד,,רביעית + חמישית,120.15,950000,,,1935.0,,4.0,5550181000,1,710950,False,,תל אביב -יפו,בגין,,7109-50-6,7109/50,7906.783187682064,32.0706166479,34.7893979193,2010
2010-12-22,2010-12-22,"יואל הנביא 2, תל אביב -יפו",יואל הנביא 2,6959-24-1,חלוקה/יחוד דירות,,ראשונה,50.0,56500,,,1960.0,,5.0,5600865700,1,695924,False,,תל אביב -יפו,יואל הנביא,,6959-24-1,6959/24,1130.0,32.0943237973,34.778088634,2010
2010-12-22,2010-12-22,"חוני המעגל 9, תל אביב -יפו",חוני המעגל 9,6212-619-6,דירה בבית קומות,3.0,ראשונה,78.7,2125000,,,1950.0,,3.0,5512632000,1,6212619,False,,תל אביב -יפו,חוני המעגל,,6212-619-6,6212/619,27001.27064803049,32.0918144189,34.7849333237,2010
2010-12-22,2010-12-22,"קבוץ גלויות 45, תל אביב -יפו",קבוץ גלויות 45,7052-144-59,משרד,,שלישית,103.88,631000,,,1970.0,,5.0,5513030050,1,7052144,False,,תל אביב -יפו,קבוץ גלויות,,7052-144-59,7052/144,6074.316519060455,32.0523403373,34.76795096,2010
2010-12-22,2010-12-22,"חכמי אתונה 41, תל אביב -יפו",חכמי אתונה 41,6971-4-194,דירה בבית קומות,2.0,,42.0,635000,,,1950.0,,4.0,5512577150,1,69714,False,,תל אביב -יפו,חכמי אתונה,,6971-4-194,6971/4,15119.047619047618,32.0497710263,34.7763128389,2010
2010-12-22,2010-12-22,"קרן קיימת לישראל 110, תל אביב -יפו",קרן קיימת לישראל 110,6625-605-7,קוטג' טורי,6.0,שניה,206.0,3600000,,,1950.0,,1.0,5512617500,1,6625605,False,,תל אביב -יפו,קרן קיימת לישראל,,6625-605-7,6625/605,17475.728155339806,32.1186166043,34.8140672429,2010
2010-12-22,2010-12-22,"סומקן 7, תל אביב -יפו",סומקן 7,6997-173-20,דירה בבית קומות,3.5,שניה,48.98,690000,,,1960.0,,4.0,5551379750,1,6997173,False,,תל אביב -יפו,סומקן,,6997-173-20,6997/173,14087.382605144958,32.0337939131,34.7580093951,2010
2010-12-21,2010-12-21,"רענן 11, תל אביב -יפו",רענן 11,7424-20-2,חנות,,,65.0,2257000,,,1950.0,,2.0,5551571550,1,742420,False,,תל אביב -יפו,רענן,,7424-20-2,7424/20,34723.07692307692,32.0597562996,34.7690211414,2010
2010-12-21,2010-12-21,"ברכה פולד 1, תל אביב -יפו",ברכה פולד 1,7085-31-14,דירה בבית קומות,3.0,,90.0,2375000,,,1950.0,,2.0,5550096050,1,708531,False,,תל אביב -יפו,פולד ברכה,,7085-31-14,7085/31,26388.88888888889,32.0720266541,34.7811514309,2010
2010-12-21,2010-12-21,"איינשטיין 26, תל אביב -יפו",איינשטיין 26,7221-46-30,דירה בבית קומות,5.0,רביעית וחמישית,151.5,3704000,,,1970.0,,5.0,5551497400,1,722146,False,,תל אביב -יפו,אינשטיין,,7221-46-30,7221/46,24448.844884488448,32.1118422196,34.7909402328,2010
2010-12-21,2010-12-21,"אברבנאל 56, תל אביב -יפו",אברבנאל 56,7051-90-11,משרד,,,70.0,350000,,,1950.0,,2.0,5512823400,1,705190,False,,תל אביב -יפו,אברבנאל,,7051-90-11,7051/90,5000.0,32.056555906,34.7665760363,2010
2010-12-21,2010-12-21,"בן-יהודה 114, תל אביב -יפו",בן-יהודה 114,7078-9-4,דירה בבית קומות,2.5,ראשונה,46.54,1540000,,,2009.0,,7.0,5550829900,1,70789,False,,תל אביב -יפו,בן יהודה,,7078-9-4,7078/9,33089.81521272024,32.0832897087,34.7719074488,2010
2010-12-21,2010-12-21,"בגין 112, תל אביב -יפו",בגין 112,7109-50-5,משרד,,שלישית,38.05,270000,,,1935.0,,4.0,5550180600,1,710950,False,,תל אביב -יפו,בגין,,7109-50-5,7109/50,7095.926412614981,32.0706166479,34.7893979193,2010
2010-12-21,2010-12-21,"ויסוצקי 10, תל אביב -יפו",ויסוצקי 10,6108-561-13,דירה בבית קומות,4.0,שלישית,104.5,2820000,,,1970.0,2009.0,7.0,5513021450,1,6108561,False,,תל אביב -יפו,ויסוצקי,,6108-561-13,6108/561,26985.645933014355,32.0885005811,34.7950643945,2010
2010-12-21,2010-12-21,"פיכמן 5, תל אביב -יפו",פיכמן 5,6768-17-42,דירה בבית קומות,3.5,שלישית,42.9,1930000,,,1960.0,,3.0,5550054750,1,676817,False,78% ב 4.9 שנים,תל אביב -יפו,פיכמן,15.92,6768-17-42,6768/17,44988.34498834499,32.108833729,34.7937979643,2010
2010-12-21,2010-12-21,"לואי ליפסקי 14, תל אביב -יפו",לואי ליפסקי 14,6213-1256-1,משרד,,מרתף,31.3,780000,,,1960.0,,4.0,5550485900,1,62131256,False,,תל אביב -יפו,ליפסקי לואי,,6213-1256-1,6213/1256,24920.127795527154,32.0893403025,34.7882750395,2010
2010-12-21,2010-12-21,"עמק ברכה 29, תל אביב -יפו",עמק ברכה 29,7110-359-53,דירה בבית קומות,5.0,"שלוש עשרה, ארבע עשרה",146.82,4378000,,,2010.0,,15.0,5550703600,1,7110359,False,,תל אביב -יפו,עמק ברכה,,7110-359-53,7110/359,29818.825773055443,32.0764428675,34.7996953283,2010
2010-12-21,2010-12-21,"גרונימן 22, תל אביב -יפו",גרונימן 22,6772-7-18,דירה בבית קומות,4.0,שניה,,3460000,,,1950.0,,2.0,5512568000,1,67727,False,127% ב 10.1 שנים,תל אביב -יפו,גרונימן,12.57,6772-7-18,6772/7,,32.1051363345,34.7985466958,2010
2010-12-21,2010-12-21,"בן יהודה 32, תל אביב -יפו",בן יהודה 32,6907-54-19,מחסנים,,קרקע,44.6,815000,,,1960.0,,14.0,5550205350,1,690754,False,94% ב 0.6 שנים,תל אביב -יפו,בן יהודה,156.67,6907-54-19,6907/54,18273.54260089686,32.076432565,34.7685963015,2010
2010-12-21,2010-12-21,"התיבונים 1, תל אביב -יפו",התיבונים 1,6971-2-1,דירה בבית קומות,4.0,,118.0,1499000,,,1997.0,,,5550065050,1,69712,False,,תל אביב -יפו,התיבונים,,6971-2-1,6971/2,12703.389830508477,32.0504459936,34.7792960116,2010
2010-12-21,2010-12-21,"גוש חלב 8, תל אביב -יפו",גוש חלב 8,6954-61-4,קרקע למגורים,,גג,69.0,3100000,,,1970.0,,4.0,5551003050,1,695461,True,-34% ב 1 שנים,תל אביב -יפו,גוש חלב,-34.0,6954-61-4,6954/61,44927.536231884056,32.0850681262,34.7754243185,2010
2010-12-21,2010-12-21,"רש""י 61, תל אביב -יפו","רש""י 61",7436-31-1,דירה בבית קומות,3.0,שניה,70.0,1500000,,,1935.0,,1.0,5550731350,1,743631,False,,תל אביב -יפו,"רש""י",,7436-31-1,7436/31,21428.571428571428,32.0705321281,34.7772630457,2010
2010-12-21,2010-12-21,"בית אורן 1, תל אביב -יפו",בית אורן 1,6133-381-5,דירה בבית קומות,4.0,שלישית,68.54,1270000,,,1950.0,,4.0,5512563950,1,6133381,False,132% ב 6 שנים,תל אביב -יפו,בית אורן,22.0,6133-381-5,6133/381,18529.325941056315,32.0584902035,34.7948680702,2010
2010-12-21,2010-12-21,"ויצמן 56, תל אביב -יפו",ויצמן 56,6213-1127-14,דירה בבית קומות,5.5,שמינית,124.5,4400000,,,1965.0,,8.0,5512577500,1,62131127,False,,תל אביב -יפו,ויצמן,,6213-1127-14,6213/1127,35341.36546184739,32.0895298594,34.7906737301,2010
2010-12-20,2010-12-20,"אמיל זולא 1, תל אביב -יפו",אמיל זולא 1,7078-218-6,דירה בבית קומות,5.0,חמישית+שישית,152.85,8000000,,,2004.0,,5.0,5512652200,1,7078218,False,61% ב 4.5 שנים,תל אביב -יפו,אמיל זולה,13.56,7078-218-6,7078/218,52338.89434085705,32.0826512807,34.7730535664,2010
2010-12-20,2010-12-20,"נחמיה 15, תל אביב -יפו",נחמיה 15,7229-24-8,דירה בבית קומות,2.0,ראשונה,58.0,863000,,,1947.0,,3.0,5513019750,1,722924,False,,תל אביב -יפו,נחמיה,,7229-24-8,7229/24,14879.310344827589,32.0692997059,34.7651707349,2010
2010-12-20,2010-12-20,"דיזנגוף 121, תל אביב -יפו",דיזנגוף 121,7113-60-6,חנות,,ראשונה,29.87,1600000,,,1960.0,,6.0,5550239600,1,711360,False,29% ב 0.5 שנים,תל אביב -יפו,דיזנגוף,58.0,7113-60-6,7113/60,53565.45028456645,32.0810519466,34.7735449551,2010
2010-12-20,2010-12-20,"נהרדעא 5, תל אביב -יפו",נהרדעא 5,6217-676-111,דירה בבית קומות,5.0,עשרים ותשע,230.0,16333000,,,2003.0,,24.0,5512601900,1,6217676,False,,תל אביב -יפו,נהרדעא,,6217-676-111,6217/676,71013.04347826086,32.0830461668,34.786571371,2010
2010-12-20,2010-12-20,"שטריקר 15, תל אביב -יפו",שטריקר 15,6212-344-1,משרד,,מרתף,,540000,,,1968.0,,4.0,5551410650,1,6212344,False,,תל אביב -יפו,שטריקר,,6212-344-1,6212/344,,32.0923149554,34.7878066451,2010
2010-12-20,2010-12-20,"ברודצקי 13, תל אביב -יפו",ברודצקי 13,6770-9-47,דירה בבית קומות,3.0,עשירית,69.84,3200000,,,1960.0,,12.0,5512610100,1,67709,False,185% ב 12.5 שנים,תל אביב -יפו,ברודצקי,14.8,6770-9-47,6770/9,45819.01489117984,32.1063606403,34.7969738822,2010
2010-12-20,2010-12-20,"לוי אשכול 13, תל אביב -יפו",לוי אשכול 13,6634-335-15,דירה בבית קומות,5.0,קומה ‎4‏,108.4,2830000,,,2010.0,,9.0,5550036250,1,6634335,False,,תל אביב -יפו,אשכול לוי,,6634-335-15,6634/335,26107.0110701107,32.101447088,34.7885881077,2010
2010-12-20,2010-12-20,"אבולעפיה 7, תל אביב -יפו",אבולעפיה 7,7082-11-13,דירה בבית קומות,2.0,ראשונה,45.5,830000,,,1950.0,,5.0,5512539600,1,708211,False,10% ב 1 שנים,תל אביב -יפו,אבולעפיה,10.0,7082-11-13,7082/11,18241.75824175824,32.0535457606,34.7696885785,2010
2010-12-19,2010-12-19,"יהודה הימית 33, תל אביב -יפו",יהודה הימית 33,7023-154-3,משרד,,קרקע,57.6,3111000,,,1911.0,,5.0,5512727700,1,7023154,False,,תל אביב -יפו,יהודה הימית,,7023-154-3,7023/154,54010.41666666666,32.0496040351,34.7561084395,2010
2010-12-19,2010-12-19,"לוחמי גליפולי 58, תל אביב -יפו",לוחמי גליפולי 58,6133-966-15,דירה בבית קומות,2.5,שלישית,48.0,1110000,,,1950.0,,3.0,5512514450,1,6133966,False,96% ב 12 שנים,תל אביב -יפו,לוחמי גליפולי,8.0,6133-966-15,6133/966,23125.0,32.0623307839,34.7951241019,2010
2010-12-19,2010-12-19,"בן-עמי 10, תל אביב -יפו",בן-עמי 10,7091-50-1,מחסנים,,מרתף שני,33.1,460000,,,1930.0,,4.0,5551252600,1,709150,False,,תל אביב -יפו,בן עמי,,7091-50-1,7091/50,13897.280966767372,32.0783648705,34.7727144291,2010
2010-12-19,2010-12-19,"רמברנדט 14, תל אביב -יפו",רמברנדט 14,6217-513-2,דירה בבית קומות,2.0,שלישית,60.0,1749000,,,1950.0,,2.0,5550869900,1,6217513,False,,תל אביב -יפו,רמברנדט,,6217-513-2,6217/513,29150.0,32.0824709549,34.7828017694,2010
2010-12-19,2010-12-19,"בן-עמי 10, תל אביב -יפו",בן-עמי 10,7091-50-4,חנות,,קרקע,,365000,,,1930.0,,4.0,5551161100,1,709150,False,,תל אביב -יפו,בן עמי,,7091-50-4,7091/50,,32.0783648705,34.7727144291,2010
2010-12-19,2010-12-19,"יגאל אלון 146, תל אביב -יפו",יגאל אלון 146,7093-487-18,דירה בבית קומות,5.0,חמישית + שישית,94.0,2200000,,,1987.0,,5.0,5512975200,1,7093487,False,,תל אביב -יפו,אלון יגאל,,7093-487-18,7093/487,23404.25531914893,32.0761896757,34.7964525844,2010
2010-12-19,2010-12-19,"מעון 1, תל אביב -יפו",מעון 1,7051-155-162,דירה בבית קומות,3.0,שביעית,67.0,1050000,,,2010.0,,9.0,5550623200,1,7051155,False,,תל אביב -יפו,מעון,,7051-155-162,7051/155,15671.641791044776,32.0553778604,34.7663865613,2010
2010-12-19,2010-12-19,"שיינקין 67, תל אביב -יפו",שיינקין 67,7441-9-17,דירה בבית קומות,5.0,רביעית וחמישית,91.0,3950000,,,1950.0,,4.0,5512515250,1,74419,False,,תל אביב -יפו,שיינקין,,7441-9-17,7441/9,43406.593406593405,32.068181925,34.7789261506,2010
2010-12-19,2010-12-19,"ה' באייר 50, תל אביב -יפו",ה' באייר 50,6213-1362-1,חנות,,מרתף,142.0,11847000,,,1970.0,,6.0,5551414800,1,62131362,False,,תל אביב -יפו,הא באייר,,6213-1362-1,6213/1362,83429.57746478873,32.0877843916,34.7909764829,2010
2010-12-19,2010-12-19,"נח 6, תל אביב -יפו",נח 6,6770-5-55,דירה בבית קומות,3.0,ראשונה,52.8,1760000,,,1960.0,,3.0,5550433900,1,67705,False,28% ב 1.5 שנים,תל אביב -יפו,נח,18.67,6770-5-55,6770/5,33333.333333333336,32.108851539,34.7963297089,2010
2010-12-19,2010-12-19,"משה ברזאני 5, תל אביב -יפו",משה ברזאני 5,6631-207-90,דירה בבית קומות,5.0,שמינית,144.4,3000000,,,1982.0,,9.0,5550890500,1,6631207,False,,תל אביב -יפו,ברזאני משה,,6631-207-90,6631/207,20775.62326869806,32.1271143565,34.7959916135,2010
2010-12-19,2010-12-19,"בזל 58, תל אביב -יפו",בזל 58,6214-578-8,דירה בבית קומות,2.0,ראשונה,50.0,1400000,,,1950.0,,3.0,5512822150,1,6214578,False,,תל אביב -יפו,בזל,,6214-578-8,6214/578,28000.0,32.0893731957,34.7823717665,2010
2010-12-19,2010-12-19,"מוהליבר 1, תל אביב -יפו",מוהליבר 1,7228-84-39,דירה,4.0,שמונה עשרה,127.0,5460400,1.0,נווה צדק על הים,2015.0,,28.0,11181294232,1,722884,False,,תל אביב -יפו,מוהליבר,,7228-84-39,7228/84,42995.27559055118,32.0650773254,34.7672422748,2010
2010-12-19,2010-12-19,"יאשה חפץ 14, תל אביב -יפו",יאשה חפץ 14,6883-21-19,דירה בבית קומות,4.0,,97.0,2700000,,,2010.0,,7.0,5512758150,1,688321,False,,תל אביב -יפו,חפץ ישה,,6883-21-19,6883/21,27835.05154639175,32.1166208504,34.7891104852,2010
2010-12-19,2010-12-19,"מוהליבר 1, תל אביב -יפו",מוהליבר 1,7228-84-36,דירה,2.0,רביעית,61.0,3143453,1.0,נווה צדק על הים,2015.0,,28.0,11181294229,1,722884,False,,תל אביב -יפו,מוהליבר,,7228-84-36,7228/84,51532.016393442624,32.0650773254,34.7672422748,2010
2010-12-19,2010-12-19,"השכל 11, תל אביב -יפו",השכל 11,6135-90-81,דירה בבית קומות,3.0,ראשונה,50.0,800000,,,1950.0,,3.0,5550715200,1,613590,False,,תל אביב -יפו,השכל,,6135-90-81,6135/90,16000.0,32.0531072259,34.7917380508,2010
2010-12-19,2010-12-19,"מוהליבר 1, תל אביב -יפו",מוהליבר 1,7228-84-37,דירה,2.0,חמישית,61.0,3221746,1.0,נווה צדק על הים,2015.0,,28.0,11181294230,1,722884,False,,תל אביב -יפו,מוהליבר,,7228-84-37,7228/84,52815.50819672131,32.0650773254,34.7672422748,2010
2010-12-19,2010-12-19,"ירושלים 205, תל אביב -יפו",ירושלים 205,7050-163-3,דירה בבית קומות,2.0,ראשונה,51.9,550000,,,1960.0,,4.0,5512970250,1,7050163,False,,תל אביב -יפו,ירושלים,,7050-163-3,7050/163,10597.302504816957,,,2010
2010-12-17,2010-12-17,"בלפור 13, תל אביב -יפו",בלפור 13,6933-140-39,דירה בבית קומות,5.0,חמישית+שישית,95.0,3000000,,,1999.0,,6.0,5551239100,1,6933140,False,,תל אביב -יפו,בלפור,,6933-140-39,6933/140,31578.947368421053,32.0683449147,34.772355173,2010
2010-12-17,2010-12-17,"מארק שאגאל 1, תל אביב -יפו",מארק שאגאל 1,6896-212-34,מחסנים,,,,116000,,,2004.0,,7.0,5550030900,1,6896212,False,,תל אביב -יפו,שגאל מרק,,6896-212-34,6896/212,,32.1182826164,34.788433294,2010
2010-12-16,2010-12-16,"שוקן 2, תל אביב -יפו",שוקן 2,7061-26-26,חנות,,,50.0,250000,,,1950.0,,5.0,5550973850,1,706126,False,,תל אביב -יפו,שוקן,,7061-26-26,7061/26,5000.0,32.0545652455,34.7719490804,2010
2010-12-16,2010-12-16,"פינסקר 14, תל אביב -יפו",פינסקר 14,6910-85-1,חנות,,מרתף,44.78,1060000,,,1951.0,,4.0,5512624150,1,691085,False,,תל אביב -יפו,פינסקר,,6910-85-1,6910/85,23671.281822242072,32.0740261797,34.769934766,2010
2010-12-16,2010-12-16,"דרויאנוב 4, תל אביב -יפו",דרויאנוב 4,7091-163-2,דירה בבית קומות,2.5,קרקע,56.0,1111100,,,1950.0,,4.0,5550879800,1,7091163,False,,תל אביב -יפו,דרויאנוב,,7091-163-2,7091/163,19841.071428571428,32.0769445029,34.7708607576,2010
2010-12-16,2010-12-16,"יהודה הנשיא 47, תל אביב -יפו",יהודה הנשיא 47,6630-589-47,דירה בבית קומות,4.0,רביעית,114.0,3000000,,,1970.0,,8.0,5550232200,1,6630589,False,,תל אביב -יפו,יהודה הנשיא,,6630-589-47,6630/589,26315.78947368421,32.121778791,34.795549074,2010
2010-12-16,2010-12-16,"גולומב 17, תל אביב -יפו",גולומב 17,6981-162-2,דירה בבית קומות,5.0,קרקע,99.3,1375000,,,1960.0,,1.0,5512516950,1,6981162,False,,תל אביב -יפו,גולומב,,6981-162-2,6981/162,13846.928499496476,32.0505700946,34.7828166885,2010
2010-12-16,2010-12-16,"חנה רובינא 5, תל אביב -יפו",חנה רובינא 5,7193-30-132,דירה בבית קומות,5.0,שישית,114.29,3050000,,,1999.0,,9.0,5512567250,1,719330,False,47% ב 10.6 שנים,תל אביב -יפו,רובינא חנה,4.43,7193-30-132,7193/30,26686.49925627789,32.1226937243,34.8185445615,2010
2010-12-16,2010-12-16,"דיזנגוף 344, תל אביב -יפו",דיזנגוף 344,6963-1-30,דירה בבית קומות,2.0,שלישית,62.36,1740000,,,1960.0,,4.0,5512820950,1,69631,False,,תל אביב -יפו,דיזנגוף,,6963-1-30,6963/1,27902.501603592045,32.0971814803,34.7762523145,2010
2010-12-16,2010-12-16,"רבי פנחס 2, תל אביב -יפו",רבי פנחס 2,7018-48-4,דירה בבית קומות,3.0,שלישית,85.0,1875000,,,1970.0,,3.0,5512505350,1,701848,False,,תל אביב -יפו,רבי פנחס,,7018-48-4,7018/48,22058.82352941177,32.0531448285,34.754114578,2010
2010-12-16,2010-12-16,"מצדה 17, תל אביב -יפו",מצדה 17,6954-69-7,דירה בבית קומות,4.0,שלישית,71.5,3301000,,,1950.0,,3.0,5513013500,1,695469,False,,תל אביב -יפו,מצדה,,6954-69-7,6954/69,46167.832167832166,32.0854616653,34.7758235037,2010
2010-12-16,2010-12-16,"פאול צלאן 3, תל אביב -יפו",פאול צלאן 3,6988-32-107,מחסנים,,,204.0,1000000,,,1980.0,,5.0,5550980000,1,698832,False,,תל אביב -יפו,צלאן פאול,,6988-32-107,6988/32,4901.9607843137255,32.0411275051,34.7718475521,2010
2010-12-16,2010-12-16,"בוגרשוב 91, תל אביב -יפו",בוגרשוב 91,7092-147-17,דירה בבית קומות,2.0,רביעית,46.5,1300000,,,1960.0,,5.0,5512467450,1,7092147,False,28% ב 2.2 שנים,תל אביב -יפו,בוגרשוב,12.73,7092-147-17,7092/147,27956.989247311827,32.0742196154,34.775320115,2010
2010-12-16,2010-12-16,"מרחביה 17, תל אביב -יפו",מרחביה 17,8985-3-0,משרד,,,209.0,5100000,,,1950.0,,5.0,5550674800,1,89853,False,,תל אביב -יפו,מרחביה,,8985-3-0,8985/3,24401.91387559809,32.0593260769,34.7720881988,2010
2010-12-16,2010-12-16,"עמישב 16, תל אביב -יפו",עמישב 16,6164-32-28,דירה בבית קומות,2.0,רביעית,48.06,750000,,,1960.0,,5.0,5550590250,1,616432,False,42% ב 4.3 שנים,תל אביב -יפו,עמישב,9.77,6164-32-28,6164/32,15605.49313358302,32.0639495176,34.8039024188,2010
2010-12-16,2010-12-16,"קדושי השואה 4, תל אביב -יפו",קדושי השואה 4,6632-524-78,דירה בבית קומות,4.0,שמינית,126.0,3150000,,,2012.0,,11.0,5551253900,1,6632524,False,,תל אביב -יפו,קדושי השואה,,6632-524-78,6632/524,25000.0,32.1240441348,34.7922213592,2010
2010-12-16,2010-12-16,"מחנה יוסף 27, תל אביב -יפו",מחנה יוסף 27,7420-16-1,דירה בבית קומות,3.0,קרקע,77.32,2800000,,,1930.0,,2.0,5512648100,1,742016,False,,תל אביב -יפו,מחנה יוסף,,7420-16-1,7420/16,36213.14019658562,32.0643724836,34.7665773511,2010
2010-12-16,2010-12-16,"ירושלים 26, תל אביב -יפו",ירושלים 26,7072-16-27,דירה בבית קומות,2.0,שלישית,41.2,750000,,,1960.0,,5.0,5550514700,1,707216,False,,תל אביב -יפו,ירושלים,,7072-16-27,7072/16,18203.88349514563,32.0531084533,34.7589614529,2010
2010-12-16,2010-12-16,"רנ""ק 3, תל אביב -יפו","רנ""ק 3",6902-127-2,דירה בבית קומות,1.0,קרקע,23.0,950000,,,1960.0,,5.0,5550164050,1,6902127,False,,תל אביב -יפו,"רנ""ק",,6902-127-2,6902/127,41304.34782608696,32.0854623549,34.7731873786,2010
2010-12-16,2010-12-16,"לילינבלום 33, תל אביב -יפו",לילינבלום 33,7245-28-1,משרד,,קרקע,218.1,5000000,,,2006.0,,4.0,5551066250,1,724528,False,,תל אביב -יפו,לילינבלום,,7245-28-1,7245/28,22925.263640531863,32.0625341291,34.7716391699,2010
2010-12-16,2010-12-16,"מאנה 1, תל אביב -יפו",מאנה 1,6952-117-9,דירה בבית קומות,3.0,שלישית,75.0,1810000,,,1950.0,,8.0,5512539200,1,6952117,False,,תל אביב -יפו,מאנה,,6952-117-9,6952/117,24133.33333333333,32.078856338,34.7791121149,2010
2010-12-16,2010-12-16,"ניצנה 11, תל אביב -יפו",ניצנה 11,7016-25-15,דירה בבית קומות,1.0,ראשונה,74.3,2094000,,,1935.0,,7.0,5512939350,1,701625,False,,תל אביב -יפו,ניצנה,,7016-25-15,7016/25,28183.041722745627,32.0563495654,34.7617706132,2010
2010-12-16,2010-12-16,"אברבנאל 19, תל אביב -יפו",אברבנאל 19,7083-62-8,דירה בבית קומות,3.0,ראשונה,70.0,1700000,,,1950.0,,1.0,5512511500,1,708362,False,,תל אביב -יפו,אברבנאל,,7083-62-8,7083/62,24285.714285714286,32.0578879888,34.767386174,2010
2010-12-16,2010-12-16,"ח""ן 5, תל אביב -יפו","ח""ן 5",7111-84-10,דירה בבית קומות,2.5,שלישית,50.66,1870000,,,1950.0,,3.0,5512514850,1,711184,False,93% ב 6.3 שנים,תל אביב -יפו,"ח""ן",14.76,7111-84-10,7111/84,36912.75167785235,32.0745276149,34.7795916699,2010
2010-12-15,2010-12-15,"יחיא קאפח 28, תל אביב -יפו",יחיא קאפח 28,7001-78-2,משרד,,,57.0,418000,,,1930.0,,1.0,5550206150,1,700178,False,,תל אביב -יפו,קפאח יחיה,,7001-78-2,7001/78,7333.333333333333,32.0690702662,34.7680948977,2010
2010-12-15,2010-12-15,"הרצל רוזנבלום 12, תל אביב -יפו",הרצל רוזנבלום 12,6621-10-117,דירת נופש,2.0,שלוש עשרה,68.0,1888000,,,2009.0,,10.0,5550214850,1,662110,False,,תל אביב -יפו,רוזנבלום הרצל,,6621-10-117,6621/10,27764.70588235294,32.1393095532,34.7911385186,2010
2010-12-15,2010-12-15,"דוד בלוך 45, תל אביב -יפו",דוד בלוך 45,6217-502-9,דירה בבית קומות,2.0,שניה,48.68,1740000,,,1950.0,,3.0,5512515650,1,6217502,False,25% ב 0.3 שנים,תל אביב -יפו,בלוך דוד,83.33,6217-502-9,6217/502,35743.63188167625,32.0840949554,34.7852389138,2010
2010-12-15,2010-12-15,"אלכסנדר ינאי 12, תל אביב -יפו",אלכסנדר ינאי 12,6212-408-9,דירה בבית קומות,2.0,שלישית,52.0,1750000,,,1946.0,,3.0,5512468200,1,6212408,False,,תל אביב -יפו,אלכסנדר ינאי,,6212-408-9,6212/408,33653.84615384616,32.0928308239,34.7826068606,2010
2010-12-15,2010-12-15,"העלייה 64, תל אביב -יפו",העלייה 64,7084-182-4,דירה בבית קומות,2.0,קרקע,57.0,850000,,,2008.0,,17.0,5512866700,1,7084182,False,9% ב 1.6 שנים,תל אביב -יפו,העליה,5.62,7084-182-4,7084/182,14912.280701754386,32.0553212213,34.7721034133,2010
2010-12-15,2010-12-15,"בן-יהודה 50, תל אביב -יפו",בן-יהודה 50,6906-150-7,דירה בבית קומות,2.0,קומה ‎1‏,48.0,2390000,,,2011.0,,6.0,5512647350,1,6906150,False,,תל אביב -יפו,בן יהודה,,6906-150-7,6906/150,49791.66666666666,32.0780099392,34.7689173168,2010
2010-12-15,2010-12-15,"זיכרון יעקב 6, תל אביב -יפו",זיכרון יעקב 6,6213-610-6,דירה בבית קומות,3.0,ראשונה,77.42,2150000,,,1950.0,,3.0,5512540000,1,6213610,False,37% ב 0.7 שנים,תל אביב -יפו,זכרון יעקב,52.86,6213-610-6,6213/610,27770.60191165073,32.0840891846,34.7900156049,2010
2010-12-15,2010-12-15,"מאיר יערי 23, תל אביב -יפו",מאיר יערי 23,7186-23-29,דירה בבית קומות,3.0,ראשונה,75.0,1800000,,,2010.0,,6.0,5512633250,1,718623,False,,תל אביב -יפו,יערי מאיר,,7186-23-29,7186/23,24000.0,32.1004294054,34.7889394609,2010
2010-12-15,2010-12-15,"יהודה הנשיא 45, תל אביב -יפו",יהודה הנשיא 45,6630-589-3,דירה בבית קומות,4.0,ראשונה,117.0,2600000,,,1970.0,,9.0,5512464050,1,6630589,False,,תל אביב -יפו,יהודה הנשיא,,6630-589-3,6630/589,22222.222222222223,32.121778791,34.795549074,2010
2010-12-15,2010-12-15,"קדושי השואה 4, תל אביב -יפו",קדושי השואה 4,6632-524-11,דירה,4.0,שמינית,127.0,3150003,1.0,ג' החדשה,2012.0,,11.0,11181281960,1,6632524,False,,תל אביב -יפו,קדושי השואה,,6632-524-11,6632/524,24803.17322834645,32.1240441348,34.7922213592,2010
2010-12-15,2010-12-15,"עזה 70, תל אביב -יפו",עזה 70,7046-7-4,מחסנים,,שניה,,424000,,,1960.0,,2.0,5551899100,1,70467,False,,תל אביב -יפו,עזה,,7046-7-4,7046/7,,32.0446339996,34.7595791951,2010
2010-12-15,2010-12-15,"לכיש 3, תל אביב -יפו",לכיש 3,6952-48-1,דירה בבית קומות,2.0,,52.0,1625000,,,1970.0,,3.0,5512447600,1,695248,False,,תל אביב -יפו,לכיש,,6952-48-1,6952/48,31250.0,32.0799188274,34.7789513533,2010
2010-12-15,2010-12-15,"גר צדק 12, תל אביב -יפו",גר צדק 12,7073-36-7,מחסנים,,ראשונה,,58000,,,1940.0,,2.0,5553741850,1,707336,False,,תל אביב -יפו,גר צדק,,7073-36-7,7073/36,,32.0415154315,34.7586177505,2010
2010-12-14,2010-12-14,"פלורנטין 2, תל אביב -יפו",פלורנטין 2,7051-103-37,דירה בבית קומות,3.0,שישית,68.0,1867340,1.0,פינת פלורנטין,2006.0,,9.0,5550039500,1,7051103,False,,תל אביב -יפו,פלורנטין,,7051-103-37,7051/103,27460.88235294117,32.0560684839,34.7673410025,2010
2010-12-14,2010-12-14,"מעפילי אגוז 102, תל אביב -יפו",מעפילי אגוז 102,7244-4-16,דירה בבית קומות,3.0,רביעית,60.0,815000,,,1970.0,,4.0,5512517700,1,72444,False,,תל אביב -יפו,מעפילי אגוז,,7244-4-16,7244/4,13583.333333333334,32.0557148598,34.8077843475,2010
2010-12-14,2010-12-14,"פרישמן 18, תל אביב -יפו",פרישמן 18,6906-22-13,דירה בבית קומות,2.0,ראשונה,53.0,1700000,,,1960.0,,6.0,5512456650,1,690622,False,123% ב 11.5 שנים,תל אביב -יפו,פרישמן,10.7,6906-22-13,6906/22,32075.471698113208,32.079725379,34.7700161479,2010
2010-12-14,2010-12-14,"העבודה 10, תל אביב -יפו",העבודה 10,6933-8-1,דירה בבית קומות,3.0,שלישית,75.0,1350000,,,1999.0,,1.0,5512573850,1,69338,False,,תל אביב -יפו,העבודה,,6933-8-1,6933/8,18000.0,32.0704702111,34.7727903914,2010
2010-12-14,2010-12-14,"שבטי ישראל 43, תל אביב -יפו",שבטי ישראל 43,7024-215-3,דירה בבית קומות,2.5,שניה,50.0,700000,,,1950.0,,3.0,5550492900,1,7024215,False,,תל אביב -יפו,שבטי ישראל,,7024-215-3,7024/215,14000.0,32.0469671928,34.7559505843,2010
2010-12-14,2010-12-14,"פנחס שינמן 1, תל אביב -יפו",פנחס שינמן 1,6631-253-30,דירה בבית קומות,6.0,קומה ‎8‏,188.7,6800000,,,2005.0,,17.0,5550766350,1,6631253,False,,תל אביב -יפו,שינמן פנחס,,6631-253-30,6631/253,36036.03603603604,32.1246003437,34.7964671139,2010
2010-12-14,2010-12-14,"ורבורג 1, תל אביב -יפו",ורבורג 1,6904-152-2,דירה בבית קומות,3.0,ראשונה,84.0,2116000,,,1960.0,,5.0,5512649400,1,6904152,False,86% ב 10.5 שנים,תל אביב -יפו,ורבורג,8.19,6904-152-2,6904/152,25190.47619047619,32.0720276256,34.7773173015,2010
2010-12-14,2010-12-14,"גרוזנברג 18, תל אביב -יפו",גרוזנברג 18,6920-3-2,משרד,,מרתף,408.0,2490000,,,1950.0,,4.0,5550782000,1,69203,False,,תל אביב -יפו,גרוזנברג,,6920-3-2,6920/3,6102.941176470588,32.0661189759,34.7700800552,2010
2010-12-13,2010-12-13,"כביר 53, תל אביב -יפו",כביר 53,6979-5-48,דירה בבית קומות,2.0,ראשונה,50.0,530000,,,1950.0,,3.0,5512386150,1,69795,False,,תל אביב -יפו,כביר,,6979-5-48,6979/5,10600.0,32.0511089979,34.7880002518,2010
2010-12-13,2010-12-13,"קדושי השואה 4, תל אביב -יפו",קדושי השואה 4,6632-524-79,דירה בבית קומות,4.0,שישית,126.0,3033000,,,2012.0,,11.0,5551832300,1,6632524,False,,תל אביב -יפו,קדושי השואה,,6632-524-79,6632/524,24071.42857142857,32.1240441348,34.7922213592,2010
2010-12-13,2010-12-13,"מעון 1, תל אביב -יפו",מעון 1,7051-155-529,דירה בבית קומות,2.0,שלישית,50.0,1039000,,,2010.0,,9.0,5550504400,1,7051155,False,,תל אביב -יפו,מעון,,7051-155-529,7051/155,20780.0,32.0553778604,34.7663865613,2010
2010-12-13,2010-12-13,"רש""י 41, תל אביב -יפו","רש""י 41",7448-24-6,דירה בבית קומות,2.0,שניה,46.0,1349000,,,1950.0,,3.0,5512434850,1,744824,False,,תל אביב -יפו,"רש""י",,7448-24-6,7448/24,29326.08695652174,32.0711006107,34.775384586,2010
2010-12-13,2010-12-13,"יעקב מרידור 10, תל אביב -יפו",יעקב מרידור 10,7193-25-3,דירה בבית קומות,4.0,ראשונה,93.19,2370000,,,1999.0,,4.0,5512715750,1,719325,False,,תל אביב -יפו,מרידור יעקב,,7193-25-3,7193/25,25431.91329541796,32.1229358654,34.8198130996,2010
2010-12-13,2010-12-13,"פראנקל 2, תל אביב -יפו",פראנקל 2,6649-293-16,דירה בבית קומות,3.0,רביעית,57.9,1715000,,,1999.0,,4.0,5550614500,1,6649293,False,,תל אביב -יפו,פראנקל,,6649-293-16,6649/293,29620.034542314337,32.1113673501,34.7995884375,2010
2010-12-13,2010-12-13,"אהבת ציון 21, תל אביב -יפו",אהבת ציון 21,6108-615-20,דירה בבית קומות,4.0,חמישית,121.0,3250000,,,1970.0,,8.0,5512776400,1,6108615,False,,תל אביב -יפו,אהבת ציון,,6108-615-20,6108/615,26859.504132231406,32.0888761013,34.7943382287,2010
2010-12-13,2010-12-13,"בנימין מינץ 10, תל אביב -יפו",בנימין מינץ 10,6636-707-4,דירה בבית קומות,4.0,ראשונה,65.5,1389000,,,1970.0,,3.0,5550068400,1,6636707,False,,תל אביב -יפו,מינץ בנימין,,6636-707-4,6636/707,21206.106870229007,32.109343735,34.8235384624,2010
2010-12-13,2010-12-13,"אלנבי 32, תל אביב -יפו",אלנבי 32,6915-3-3,דירת גג,4.0,חמישית,110.0,3700000,,,1970.0,2010.0,5.0,5550479650,1,69153,False,,תל אביב -יפו,אלנבי,,6915-3-3,6915/3,33636.36363636364,32.0726052395,34.7681366567,2010
2010-12-12,2010-12-12,"אלכסנדר פן 19, תל אביב -יפו",אלכסנדר פן 19,6626-246-5,דירה,3.0,,83.0,2070000,1.0,אלכסנדר פן 19א',2012.0,,2.0,11181281788,1,6626246,False,,תל אביב -יפו,פן אלכסנדר,,6626-246-5,6626/246,24939.75903614458,32.1241503427,34.8118245455,2010
2010-12-12,2010-12-12,"מעון 1, תל אביב -יפו",מעון 1,7051-155-160,דירה,3.0,חמישית,73.0,1737772,1.0,רביעיית פלורנטין,2010.0,,9.0,11181289267,1,7051155,False,,תל אביב -יפו,מעון,,7051-155-160,7051/155,23805.09589041096,32.0553778604,34.7663865613,2010
2010-12-12,2010-12-12,"אבא קובנר 11, תל אביב -יפו",אבא קובנר 11,6798-61-7,דירה בבית קומות,5.0,,200.0,4050000,,,2007.0,,6.0,5550149700,1,679861,False,,תל אביב -יפו,קובנר אבא,,6798-61-7,6798/61,20250.0,32.1017326732,34.784359507,2010
2010-12-12,2010-12-12,"חנה רובינא 3, תל אביב -יפו",חנה רובינא 3,7193-30-73,דירה בבית קומות,3.0,קרקע,81.29,2300000,,,1999.0,,9.0,5512491800,1,719330,False,55% ב 5.1 שנים,תל אביב -יפו,רובינא חנה,10.78,7193-30-73,7193/30,28293.76307048837,32.1226937243,34.8185445615,2010
2010-12-12,2010-12-12,"דוד המלך 36, תל אביב -יפו",דוד המלך 36,6111-835-187,דירה בבית קומות,4.0,ראשונה,81.3,2730000,,,1970.0,,8.0,5512367150,1,6111835,False,,תל אביב -יפו,דוד המלך,,6111-835-187,6111/835,33579.33579335793,32.0794933492,34.786213063,2010
2010-12-12,2010-12-12,"מארק שאגאל 1, תל אביב -יפו",מארק שאגאל 1,6896-212-35,מחסנים,,,,58000,,,2004.0,,7.0,5550031700,1,6896212,False,,תל אביב -יפו,שגאל מרק,,6896-212-35,6896/212,,32.1182826164,34.788433294,2010
2010-12-12,2010-12-12,"מעון 1, תל אביב -יפו",מעון 1,7051-155-158,דירה,2.0,ראשונה,61.0,1208596,1.0,רביעיית פלורנטין,2010.0,,9.0,11181289264,1,7051155,False,,תל אביב -יפו,מעון,,7051-155-158,7051/155,19813.049180327867,32.0553778604,34.7663865613,2010
2010-12-12,2010-12-12,"שבתאי יעקב 31, תל אביב -יפו",שבתאי יעקב 31,6615-300-32,דירה בבית קומות,3.0,שניה+שלישית,83.85,1680000,,,1998.0,,13.0,5512584550,1,6615300,False,28% ב 4.7 שנים,תל אביב -יפו,יעקב שבתאי,5.96,6615-300-32,6615/300,20035.778175313066,32.1266719589,34.8299102559,2010
2010-12-12,2010-12-12,"קהילת ורשה 63, תל אביב -יפו",קהילת ורשה 63,6636-866-16,דירה בבית קומות,4.0,קומה ‎4‏,85.1,2130000,,,2013.0,,8.0,5550864050,1,6636866,False,,תל אביב -יפו,קהילת ורשה,,6636-866-16,6636/866,25029.37720329025,32.1113020494,34.8228887925,2010
2010-12-12,2010-12-12,"הרבי מבכרך 42, תל אביב -יפו",הרבי מבכרך 42,7016-180-18,דירה בבית קומות,3.0,"מרתף, קרקע",101.7,2346000,,,2010.0,,2.0,5550553900,1,7016180,False,,תל אביב -יפו,הרבי מבכרך,,7016-180-18,7016/180,23067.846607669617,32.055980852,34.7621152417,2010
2010-12-12,2010-12-12,"מעון 1, תל אביב -יפו",מעון 1,7051-155-159,דירה,3.0,רביעית,73.0,1691555,1.0,רביעיית פלורנטין,2010.0,,9.0,11181289265,1,7051155,False,,תל אביב -יפו,מעון,,7051-155-159,7051/155,23171.986301369863,32.0553778604,34.7663865613,2010
2010-12-12,2010-12-12,"מעון 1, תל אביב -יפו",מעון 1,7051-155-156,דירה,2.0,ראשונה,50.0,1039084,1.0,רביעיית פלורנטין,2010.0,,9.0,11181289262,1,7051155,False,,תל אביב -יפו,מעון,,7051-155-156,7051/155,20781.68,32.0553778604,34.7663865613,2010
2010-12-12,2010-12-12,"קרליבך 4, תל אביב -יפו",קרליבך 4,7104-289-1739,דירה בבית קומות,4.0,ראשונה,,2212000,,,2018.0,,47.0,5512862500,1,7104289,False,,תל אביב -יפו,קרליבך,,7104-289-1739,7104/289,,32.068224082,34.7847225756,2010
2010-12-12,2010-12-12,"משה שרת 82, תל אביב -יפו",משה שרת 82,6108-452-7,דירה בבית קומות,3.5,שניה,84.0,2760000,,,1950.0,,4.0,5512605150,1,6108452,False,,תל אביב -יפו,שרת משה,,6108-452-7,6108/452,32857.142857142855,32.087125473,34.7943074121,2010
2010-12-12,2010-12-12,"מעון 1, תל אביב -יפו",מעון 1,7051-155-161,דירה,4.0,שלישית,91.0,1969257,1.0,רביעיית פלורנטין,2010.0,,9.0,11181289268,1,7051155,False,,תל אביב -יפו,מעון,,7051-155-161,7051/155,21640.18681318681,32.0553778604,34.7663865613,2010
2010-12-12,2010-12-12,"מעון 1, תל אביב -יפו",מעון 1,7051-155-536,דירה בבית קומות,3.0,ראשונה,68.0,1565000,,,2010.0,,9.0,5550503500,1,7051155,False,,תל אביב -יפו,מעון,,7051-155-536,7051/155,23014.70588235294,32.0553778604,34.7663865613,2010
2010-12-12,2010-12-12,"הרצל רוזנבלום 4, תל אביב -יפו",הרצל רוזנבלום 4,6621-11-108,מחסנים,,,,61000,,,1990.0,,10.0,5550104650,1,662111,False,,תל אביב -יפו,רוזנבלום הרצל,,6621-11-108,6621/11,,32.1380009836,34.7904357193,2010
2010-12-12,2010-12-12,"שלמה המלך 28, תל אביב -יפו",שלמה המלך 28,6903-128-1,דירה בבית קומות,3.0,ראשונה,76.99,2900000,,,2002.0,,4.0,5512785000,1,6903128,False,,תל אביב -יפו,שלמה המלך,,6903-128-1,6903/128,37667.22951032602,32.0786817487,34.7770436435,2010
2010-12-12,2010-12-12,"כורש 11, תל אביב -יפו",כורש 11,7103-17-7,דירה בבית קומות,2.0,רביעית,50.0,1550000,,,1950.0,,2.0,5512274350,1,710317,False,,תל אביב -יפו,כורש,,7103-17-7,7103/17,31000.0,32.0669801413,34.7800630561,2010
2010-12-12,2010-12-12,"מעון 1, תל אביב -יפו",מעון 1,7051-155-157,דירה,2.0,ראשונה,50.0,1098408,1.0,רביעיית פלורנטין,2010.0,,9.0,11181289263,1,7051155,False,,תל אביב -יפו,מעון,,7051-155-157,7051/155,21968.16,32.0553778604,34.7663865613,2010
2010-12-12,2010-12-12,"מעון 1, תל אביב -יפו",מעון 1,7051-155-155,דירה,2.0,ראשונה,52.0,1028873,1.0,רביעיית פלורנטין,2010.0,,9.0,11181289261,1,7051155,False,,תל אביב -יפו,מעון,,7051-155-155,7051/155,19786.01923076923,32.0553778604,34.7663865613,2010
2010-12-12,2010-12-12,"קדושי השואה 4, תל אביב -יפו",קדושי השואה 4,6632-524-10,דירה,4.0,שביעית,127.0,3057999,1.0,ג' החדשה,2012.0,,11.0,11181281959,1,6632524,False,,תל אביב -יפו,קדושי השואה,,6632-524-10,6632/524,24078.732283464567,32.1240441348,34.7922213592,2010
2010-12-12,2010-12-12,"שלמה המלך 28, תל אביב -יפו",שלמה המלך 28,6903-128-1,דירה בבית קומות,3.0,ראשונה,76.99,2900000,,,2002.0,,4.0,5512785000,1,6903128,False,,תל אביב -יפו,שלמה,,6903-128-1,6903/128,37667.22951032602,32.0786817487,34.7770436435,2010
2010-12-12,2010-12-12,"קדושי השואה 4, תל אביב -יפו",קדושי השואה 4,6632-524-9,דירה,4.0,שישית,127.0,3033000,1.0,ג' החדשה,2012.0,,11.0,11181281981,1,6632524,False,,תל אביב -יפו,קדושי השואה,,6632-524-9,6632/524,23881.889763779527,32.1240441348,34.7922213592,2010
2010-12-12,2010-12-12,"דיזנגוף 271, תל אביב -יפו",דיזנגוף 271,6962-29-1,דירה בבית קומות,2.0,,60.0,1725000,,,1960.0,,5.0,5512376650,1,696229,False,,תל אביב -יפו,דיזנגוף,,6962-29-1,6962/29,28750.0,32.0951806258,34.7760826473,2010
2010-12-11,2010-11-12,"המלך ג'ורג' 31, תל אביב -יפו",המלך ג'ורג' 31,7226-38-9,דירה בבית קומות,2.0,שניה,60.6,900000,,,1950.0,2010.0,2.0,5511643250,1,722638,False,,תל אביב -יפו,המלך ג'ורג',,7226-38-9,7226/38,14851.485148514852,32.0720063315,34.7731945504,2010
2010-12-10,2010-10-12,"משה שרת 84, תל אביב -יפו",משה שרת 84,6108-206-1,דירה בבית קומות,4.0,קרקע,81.0,1500000,,,1965.0,,4.0,5510417600,1,6108206,False,,תל אביב -יפו,שרת משה,,6108-206-1,6108/206,18518.51851851852,32.0870726143,34.7946114571,2010
2010-12-10,2010-10-12,"פינסקר 57, תל אביב -יפו",פינסקר 57,7091-123-11,דירה בבית קומות,1.0,שלישית,25.9,970000,,,1940.0,,4.0,5510126000,1,7091123,False,,תל אביב -יפו,פינסקר,,7091-123-11,7091/123,37451.737451737456,32.0767789753,34.7725796301,2010
2010-12-10,2010-10-12,"קהילת בודפסט 21, תל אביב -יפו",קהילת בודפסט 21,6636-63-2,דירה בבית קומות,5.0,,160.0,3375000,,,1994.0,,,5510582300,1,663663,False,,תל אביב -יפו,קהילת בודפסט,,6636-63-2,6636/63,21093.75,32.1121318372,34.8233576019,2010
2010-12-10,2010-10-12,"אהרונוביץ 7, תל אביב -יפו",אהרונוביץ 7,7091-59-4,דירה בבית קומות,1.0,מרתף,32.96,1110000,,,1940.0,,4.0,5510118550,1,709159,False,,תל אביב -יפו,אהרונוביץ,,7091-59-4,7091/59,33677.18446601942,32.0781813778,34.7723427423,2010
2010-12-10,2010-10-12,"מעון 1, תל אביב -יפו",מעון 1,7051-155-588,דירה בבית קומות,2.0,ראשונה,50.0,1012000,,,2010.0,,9.0,5510320300,1,7051155,False,,תל אביב -יפו,מעון,,7051-155-588,7051/155,20240.0,32.0553778604,34.7663865613,2010
2010-12-10,2010-10-12,"לוין קיפניס 1, תל אביב -יפו",לוין קיפניס 1,6615-299-123,דירה בבית קומות,5.0,שישית,137.0,4500000,,,1999.0,,17.0,5510322400,1,6615299,False,52% ב 11.9 שנים,תל אביב -יפו,לוין קיפניס,4.37,6615-299-123,6615/299,32846.71532846715,32.1266895647,34.8309444315,2010
2010-12-10,2010-10-12,"אלעזר בן-צדוק 1, תל אביב -יפו",אלעזר בן-צדוק 1,7072-32-11,חנות,,קרקע,34.14,450000,,,1960.0,,3.0,5511384150,1,707232,False,80% ב 3.7 שנים,תל אביב -יפו,אלעזר בן צדוק,21.62,7072-32-11,7072/32,13181.019332161686,32.052123846,34.7587652678,2010
2010-12-10,2010-10-12,"זאב 8, תל אביב -יפו",זאב 8,6625-246-1,דירה בבית קומות,4.0,ראשונה,106.0,2160000,,,1970.0,,6.0,5510076100,1,6625246,False,90% ב 7.3 שנים,תל אביב -יפו,זאב,12.33,6625-246-1,6625/246,20377.35849056604,32.1211768897,34.8222233483,2010
2010-12-10,2010-10-12,"קהילת סאלוניקי 14, תל אביב -יפו",קהילת סאלוניקי 14,6625-1213-74,דירה בבית קומות,4.0,שביעית,107.1,2420000,,,1999.0,,18.0,5510196200,1,66251213,False,32% ב 3.9 שנים,תל אביב -יפו,קהילת סאלוניקי,8.21,6625-1213-74,6625/1213,22595.70494864613,32.1128189423,34.8238608636,2010
2010-12-10,2010-10-12,"מעון 1, תל אביב -יפו",מעון 1,7051-155-104,דירה,2.0,ראשונה,50.0,1078000,1.0,רביעיית פלורנטין,2010.0,,9.0,11181289208,1,7051155,False,,תל אביב -יפו,מעון,,7051-155-104,7051/155,21560.0,32.0553778604,34.7663865613,2010
2010-12-10,2010-10-12,"מעון 1, תל אביב -יפו",מעון 1,7051-155-105,דירה,2.0,שישית,50.0,1120000,1.0,רביעיית פלורנטין,2010.0,,9.0,11181289209,1,7051155,False,,תל אביב -יפו,מעון,,7051-155-105,7051/155,22400.0,32.0553778604,34.7663865613,2010
2010-12-10,2010-10-12,"דיזנגוף 295, תל אביב -יפו",דיזנגוף 295,6962-143-11,דירה בבית קומות,2.0,רביעית,54.0,1500000,,,1970.0,,4.0,5510118150,1,6962143,False,76% ב 4.9 שנים,תל אביב -יפו,דיזנגוף,15.51,6962-143-11,6962/143,27777.777777777777,32.0970558121,34.7757111492,2010
2010-12-10,2010-10-12,"המפעל 1, תל אביב -יפו",המפעל 1,6971-49-25,תעשיה,,שלישית,317.0,2050000,,,1970.0,,18.0,5512721100,1,697149,False,208% ב 6.2 שנים,תל אביב -יפו,המפעל,33.55,6971-49-25,6971/49,6466.876971608833,32.0511444233,34.7729577084,2010
2010-12-10,2010-10-12,"מעון 1, תל אביב -יפו",מעון 1,7051-155-106,דירה,2.0,שישית,51.0,1345570,1.0,רביעיית פלורנטין,2010.0,,9.0,11181289210,1,7051155,False,,תל אביב -יפו,מעון,,7051-155-106,7051/155,26383.72549019608,32.0553778604,34.7663865613,2010
2010-12-09,2010-09-12,"מעון 1, תל אביב -יפו",מעון 1,7051-155-599,דירה בבית קומות,3.0,רביעית,75.0,1565000,,,2010.0,,9.0,5510147950,1,7051155,False,,תל אביב -יפו,מעון,,7051-155-599,7051/155,20866.666666666668,32.0553778604,34.7663865613,2010
2010-12-09,2010-09-12,"בית צורי אליהו 7, תל אביב -יפו",בית צורי אליהו 7,6631-232-10,דירה בבית קומות,5.0,שלישית,111.97,2850000,,,1991.0,,6.0,5509295750,1,6631232,False,,תל אביב -יפו,בית צורי אליהו,,6631-232-10,6631/232,25453.24640528713,32.1230759547,34.7992356507,2010
2010-12-09,2010-09-12,"בית קציר 6, תל אביב -יפו",בית קציר 6,7060-40-13,דירה בבית קומות,3.0,ראשונה,65.0,850000,,,1950.0,,2.0,5509513050,1,706040,False,,תל אביב -יפו,בית קציר,,7060-40-13,7060/40,13076.923076923076,32.0550315788,34.7787789315,2010
2010-12-09,2010-09-12,"פרוג 27, תל אביב -יפו",פרוג 27,7113-42-1,דירה בבית קומות,3.0,קרקע,57.56,2470000,,,1938.0,,2.0,5510484950,1,711342,False,81% ב 1.3 שנים,תל אביב -יפו,פרוג,62.31,7113-42-1,7113/42,42911.74426685198,32.0812982926,34.7728711633,2010
2010-12-09,2010-09-12,"מח""ל 7, תל אביב -יפו","מח""ל 7",6131-65-125,דירה בבית קומות,3.0,שמינית,61.0,1011000,,,1970.0,,8.0,5510126900,1,613165,False,,תל אביב -יפו,"מח""ל",,6131-65-125,6131/65,16573.77049180328,32.0502423571,34.8003438962,2010
2010-12-09,2010-09-12,"יעקב עמדן 5, תל אביב -יפו",יעקב עמדן 5,6957-128-2,משרד,,,40.0,1150000,,,1950.0,,2.0,5510286950,1,6957128,False,,תל אביב -יפו,עמדן יעקב,,6957-128-2,6957/128,28750.0,32.0911321615,34.7785518761,2010
2010-12-09,2010-09-12,"פיכמן 21, תל אביב -יפו",פיכמן 21,6768-2-127,דירה בבית קומות,3.5,שניה,68.4,2330000,,,1960.0,,4.0,5509329500,1,67682,False,,תל אביב -יפו,פיכמן,,6768-2-127,6768/2,34064.32748538011,32.1096656799,34.7928609152,2010
2010-12-09,2010-09-12,"מח""ל 23, תל אביב -יפו","מח""ל 23",7204-37-12,דירה בבית קומות,4.0,שלישית,81.4,1160000,,,1992.0,,8.0,5509493350,1,720437,False,,תל אביב -יפו,"מח""ל",,7204-37-12,7204/37,14250.61425061425,32.0496263487,34.8031694895,2010
2010-12-09,2010-09-12,"ברזילי 12, תל אביב -יפו",ברזילי 12,7443-8-1,משרד,,,125.0,5969000,,,1940.0,,,5510350400,1,74438,False,,תל אביב -יפו,ברזילי,,7443-8-1,7443/8,47752.0,32.060856128,34.7754590107,2010
2010-12-09,2010-09-12,"נהרדעא 5, תל אביב -יפו",נהרדעא 5,6217-676-48,מחסנים,,,,60000,,,2003.0,,24.0,5509483450,1,6217676,False,,תל אביב -יפו,נהרדעא,,6217-676-48,6217/676,,32.0830461668,34.786571371,2010
2010-12-09,2010-09-12,"פייבל 17, תל אביב -יפו",פייבל 17,6108-92-4,דירה בבית קומות,2.0,ביניים,46.0,1260000,,,1930.0,,5.0,5509446350,1,610892,False,,תל אביב -יפו,פייבל,,6108-92-4,6108/92,27391.304347826088,32.0848598037,34.792890473,2010
2010-12-09,2010-09-12,"ירושלים 42, תל אביב -יפו",ירושלים 42,7076-9-12,דירה בבית קומות,2.0,שניה,34.06,900000,,,2024.0,,5.0,5510660200,1,70769,False,100% ב 7.7 שנים,תל אביב -יפו,ירושלים,12.99,7076-9-12,7076/9,26423.957721667644,32.0505322677,34.7587362313,2010
2010-12-09,2010-09-12,"מאיר יערי 18, תל אביב -יפו",מאיר יערי 18,7186-16-10,דירה,5.0,חמישית,120.0,2890000,1.0,כוכב הצפון,2011.0,,9.0,11181293680,1,718616,False,,תל אביב -יפו,יערי מאיר,,7186-16-10,7186/16,24083.33333333333,32.0993419195,34.7868916284,2010
2010-12-09,2010-09-12,"ניצנה 12, תל אביב -יפו",ניצנה 12,7016-7-4,חנות,,ראשונה,45.6,857000,,,1940.0,,1.0,5509701600,1,70167,False,,תל אביב -יפו,ניצנה,,7016-7-4,7016/7,18793.859649122805,32.056714045,34.7615157938,2010
2010-12-08,2010-08-12,"אמיל בריג 8, תל אביב -יפו",אמיל בריג 8,6636-354-51,דירה בבית קומות,1.0,ראשונה,,1000000,,,2015.0,,6.0,5508987550,1,6636354,False,,תל אביב -יפו,בריג אמיל,,6636-354-51,6636/354,,32.1092182103,34.8222588992,2010
2010-12-08,2010-08-12,"דיזנגוף 102, תל אביב -יפו",דיזנגוף 102,7091-203-13,דירה בבית קומות,4.0,קומה ‎5‏,111.2,3750000,,,2012.0,,24.0,5509126600,1,7091203,False,,תל אביב -יפו,דיזנגוף,,7091-203-13,7091/203,33723.02158273381,32.0794510463,34.7743959716,2010
2010-12-08,2010-08-12,"אלכסנדר פן 18, תל אביב -יפו",אלכסנדר פן 18,6626-212-66,דירה בבית קומות,5.0,שניה,115.36,2835000,,,1999.0,,6.0,5508429000,1,6626212,False,69% ב 8.5 שנים,תל אביב -יפו,פן אלכסנדר,8.12,6626-212-66,6626/212,24575.242718446603,32.1234618435,34.813568344,2010
2010-12-08,2010-08-12,"יקותיאל 1, תל אביב -יפו",יקותיאל 1,6979-5-45,דירה בבית קומות,1.0,,32.0,380000,,,1950.0,,3.0,5508219050,1,69795,False,,תל אביב -יפו,יקותיאל,,6979-5-45,6979/5,11875.0,32.0511089979,34.7880002518,2010
2010-12-08,2010-08-12,"אהרונסון 29, תל אביב -יפו",אהרונסון 29,6916-20-9,דירה בבית קומות,1.5,שניה,26.3,900000,,,1930.0,,3.0,5508218650,1,691620,False,,תל אביב -יפו,אהרונסון,,6916-20-9,6916/20,34220.532319391634,32.0708279603,34.7664342823,2010
2010-12-08,2010-08-12,"אמיל זולא 10, תל אביב -יפו",אמיל זולא 10,7078-102-4,דירה בבית קומות,3.0,ראשונה,71.0,1750000,,,1935.0,,4.0,5509710300,1,7078102,False,,תל אביב -יפו,אמיל זולה,,7078-102-4,7078/102,24647.88732394366,32.0832092165,34.7734681247,2010
2010-12-08,2010-08-12,"שלמה אבן גבירול 72, תל אביב -יפו",שלמה אבן גבירול 72,6217-177-23,דירה בבית קומות,3.0,שלישית,57.7,1730000,,,1960.0,,10.0,5508199750,1,6217177,False,147% ב 4.3 שנים,תל אביב -יפו,אבן גבירול,34.19,6217-177-23,6217/177,29982.668977469668,32.0807746498,34.7815807492,2010
2010-12-08,2010-08-12,"נגבה 34, תל אביב -יפו",נגבה 34,6134-576-12,דירה בבית קומות,4.0,שניה,90.0,930000,,,1970.0,,4.0,5508391100,1,6134576,False,,תל אביב -יפו,נגבה,,6134-576-12,6134/576,10333.333333333334,32.0538769806,34.7986203771,2010
2010-12-08,2010-08-12,"מוצקין 3, תל אביב -יפו",מוצקין 3,6960-111-4,דירה בבית קומות,3.0,שניה,78.3,1875000,,,1950.0,,3.0,5509377450,1,6960111,False,,תל אביב -יפו,מוצקין,,6960-111-4,6960/111,23946.360153256705,32.0897950744,34.774599465,2010
2010-12-08,2010-08-12,"יצחק צוקרמן 10, תל אביב -יפו",יצחק צוקרמן 10,7242-16-12,דירה בבית קומות,3.0,שלישית,62.0,700000,,,1960.0,,4.0,5508937650,1,724216,False,66% ב 2.6 שנים,תל אביב -יפו,צוקרמן יצחק,25.38,7242-16-12,7242/16,11290.32258064516,32.0462169746,34.8075709337,2010
2010-12-08,2010-08-12,"ירמיהו 43, תל אביב -יפו",ירמיהו 43,6963-27-19,דירה בבית קומות,6.0,רביעית,160.0,10265000,,,2005.0,,4.0,5509467700,1,696327,False,,תל אביב -יפו,ירמיהו,,6963-27-19,6963/27,64156.25,32.0951712379,34.7777091753,2010
2010-12-08,2010-08-12,"יהודה בורלא 32, תל אביב -יפו",יהודה בורלא 32,7221-29-10,דירה בבית קומות,4.5,שלישית,110.0,2450000,,,1974.0,,8.0,5508457900,1,722129,False,,תל אביב -יפו,בורלא יהודה,,7221-29-10,7221/29,22272.727272727272,32.1088589713,34.7912308668,2010
2010-12-08,2010-08-12,"נירים 3, תל אביב -יפו",נירים 3,7108-12-12,משרד,,קרקע,277.8,2100000,,,1995.0,,6.0,5509088650,1,710812,False,,תל אביב -יפו,נירים,,7108-12-12,7108/12,7559.3952483801295,32.0625028987,34.7903116989,2010
2010-12-08,2010-08-12,"מנדלשטם 23, תל אביב -יפו",מנדלשטם 23,6956-162-3,דירה בבית קומות,3.0,שניה,55.75,2165000,,,1969.0,,3.0,5508654250,1,6956162,False,,תל אביב -יפו,מנדלשטם,,6956-162-3,6956/162,38834.08071748879,32.0916114768,34.7766416306,2010
2010-12-08,2010-08-12,"נחמני 39, תל אביב -יפו",נחמני 39,7455-28-6,דירה בבית קומות,3.0,שניה,75.0,1650000,,,1950.0,,2.0,5508196900,1,745528,False,,תל אביב -יפו,נחמני,,7455-28-6,7455/28,22000.0,32.0653347526,34.7778246689,2010
2010-12-08,2010-08-12,"קוסובסקי 44, תל אביב -יפו",קוסובסקי 44,6106-143-6,דירה בבית קומות,3.5,שניה,77.0,2200000,,,1972.0,,6.0,5508806900,1,6106143,False,,תל אביב -יפו,קוסובסקי,,6106-143-6,6106/143,28571.42857142857,32.0983723567,34.7992149728,2010
2010-12-08,2010-08-12,"משה דיין 63, תל אביב -יפו",משה דיין 63,6134-596-2,דירה בבית קומות,2.0,ראשונה,46.4,1080000,,,1970.0,,4.0,5508389000,1,6134596,False,87% ב 4.5 שנים,תל אביב -יפו,דיין משה,19.33,6134-596-2,6134/596,23275.86206896552,32.0569992167,34.7999414628,2010
2010-12-08,2010-08-12,"ריב""ל 20, תל אביב -יפו","ריב""ל 20",6976-215-1,משרד,,,1250.0,10500000,,,1935.0,,1.0,5509698800,1,6976215,False,,תל אביב -יפו,"ריב""ל",,6976-215-1,6976/215,8400.0,32.062242431,34.783118095,2010
2010-12-08,2010-08-12,"קלישר 13, תל אביב -יפו",קלישר 13,6919-39-0,חנות,,,701.0,1390000,,,1930.0,,,5509873200,1,691939,False,44% ב 0.7 שנים,תל אביב -יפו,קלישר,62.86,6919-39-0,6919/39,1982.8815977175464,32.0662723765,34.7687086239,2010
2010-12-08,2010-08-12,"שרגא פרידמן 1, תל אביב -יפו",שרגא פרידמן 1,6630-808-52,דירה בבית קומות,5.0,ראשונה,120.0,2769000,,,2013.0,,9.0,5509313850,1,6630808,False,,תל אביב -יפו,פרידמן שרגא,,6630-808-52,6630/808,23075.0,32.1183164853,34.7918074253,2010
2010-12-08,2010-08-12,"הירקון 4, תל אביב -יפו",הירקון 4,7229-81-1,דירה בבית קומות,3.0,ראשונה,59.3,2500000,,,2005.0,,7.0,5508182450,1,722981,False,206% ב 3.2 שנים,תל אביב -יפו,הירקון,64.38,7229-81-1,7229/81,42158.51602023609,32.0679101832,34.7641591916,2010
2010-12-08,2010-08-12,"סשא ארגוב 23, תל אביב -יפו",סשא ארגוב 23,6332-154-1,דירה בבית קומות,3.0,קרקע,86.31,2062000,,,2006.0,,2.0,5509466050,1,6332154,False,25% ב 4.5 שנים,תל אביב -יפו,סשא ארגוב,5.56,6332-154-1,6332/154,23890.62681033484,32.1263898948,34.832247946,2010
2010-12-08,2010-08-12,"בובליק 4, תל אביב -יפו",בובליק 4,6212-82-6,דירה בבית קומות,3.0,שלישית,71.6,2340000,,,2022.0,,3.0,5508397700,1,621282,False,,תל אביב -יפו,בובליק,,6212-82-6,6212/82,32681.56424581006,32.0941286684,34.7887484212,2010
2010-12-08,2010-08-12,"ארלוזורוב 62, תל אביב -יפו",ארלוזורוב 62,6954-193-46,דירה בבית קומות,3.0,חמישית,76.2,2000000,,,1990.0,,7.0,5508195200,1,6954193,False,,תל אביב -יפו,ארלוזורוב,,6954-193-46,6954/193,26246.719160104985,32.0858489187,34.7774168428,2010
2010-12-08,2010-08-12,"לוי אשכול 13, תל אביב -יפו",לוי אשכול 13,6634-335-6,דירה בבית קומות,5.0,קומה ‎2‏,108.4,2400000,,,2010.0,,9.0,5508724850,1,6634335,False,,תל אביב -יפו,אשכול לוי,,6634-335-6,6634/335,22140.22140221402,32.101447088,34.7885881077,2010
2010-12-07,2010-07-12,"אהרון בקר 9, תל אביב -יפו",אהרון בקר 9,6626-224-65,דירה בבית קומות,3.0,שלישית,77.5,2060000,,,2001.0,,8.0,5507227850,1,6626224,False,100% ב 8.8 שנים,תל אביב -יפו,בקר אהרון,11.36,6626-224-65,6626/224,26580.64516129032,32.1230169066,34.8173722089,2010
2010-12-07,2010-07-12,"עיינות 6, תל אביב -יפו",עיינות 6,6978-14-1,דירה בבית קומות,2.0,,60.0,1061000,,,1970.0,,3.0,5507405150,1,697814,False,,תל אביב -יפו,עיינות,,6978-14-1,6978/14,17683.333333333332,32.0540358621,34.792148995,2010
2010-12-07,2010-07-12,"לוי אשכול 63, תל אביב -יפו",לוי אשכול 63,6883-25-65,דירה בבית קומות,5.0,אחת עשרה,110.0,4050000,,,2009.0,,11.0,5507563550,1,688325,False,,תל אביב -יפו,אשכול לוי,,6883-25-65,6883/25,36818.181818181816,32.1160507832,34.7896008513,2010
2010-12-07,2010-07-12,"לוי אשכול 118, תל אביב -יפו",לוי אשכול 118,6630-785-4,מלאכה,,,42.0,191000,,,2003.0,,4.0,5507663450,1,6630785,False,,תל אביב -יפו,אשכול לוי,,6630-785-4,6630/785,4547.619047619048,32.1215211921,34.7919255076,2010
2010-12-07,2010-07-12,"מחרוזת 13, תל אביב -יפו",מחרוזת 13,7050-121-20,דירה בבית קומות,3.0,ראשונה,64.1,560000,,,1970.0,,4.0,5507307800,1,7050121,False,,תל אביב -יפו,מחרוזת,,7050-121-20,7050/121,8736.34945397816,32.0340724231,34.7533495024,2010
2010-12-07,2010-07-12,"ז'בוטינסקי 45, תל אביב -יפו",ז'בוטינסקי 45,6214-361-5,דירה בבית קומות,3.0,ראשונה,86.0,2275000,,,1951.0,,1.0,5507653050,1,6214361,False,,תל אביב -יפו,ז'בוטינסקי,,6214-361-5,6214/361,26453.488372093023,32.0890795957,34.778083295,2010
2010-12-07,2010-07-12,"שולמית 13, תל אביב -יפו",שולמית 13,6903-96-6,דירה בבית קומות,3.0,שניה,103.64,1150000,,,1935.0,,3.0,5508173700,1,690396,False,,תל אביב -יפו,שולמית,,6903-96-6,6903/96,11096.101891161714,32.0787900117,34.7754537007,2010
2010-12-07,2010-07-12,"הרב קוק 9, תל אביב -יפו",הרב קוק 9,6914-37-2,דירה בבית קומות,3.0,קרקע,78.31,1815000,,,1930.0,,3.0,5507078950,1,691437,False,,תל אביב -יפו,הרב קוק,,6914-37-2,6914/37,23177.116587919805,32.0716467016,34.7656370917,2010
2010-12-07,2010-07-12,"יוסף אשרמן 7, תל אביב -יפו",יוסף אשרמן 7,6163-36-25,דירה בבית קומות,2.0,שניה,46.0,890000,,,1955.0,,3.0,5507675450,1,616336,False,,תל אביב -יפו,אשרמן יוסף,,6163-36-25,6163/36,19347.82608695652,32.0573898808,34.807588023,2010
2010-12-05,2010-05-12,"רוזוב 3, תל אביב -יפו",רוזוב 3,6638-404-1,קוטג' דו משפחתי,2.0,קרקע,47.55,1900000,,,1960.0,,,5504752450,1,6638404,False,,תל אביב -יפו,רוזוב,,6638-404-1,6638/404,39957.93901156678,32.1090419229,34.8343227952,2010
2010-12-05,2010-05-12,"אוסישקין 18, תל אביב -יפו",אוסישקין 18,6963-52-4,דירה בבית קומות,2.0,ראשונה,55.0,1400000,,,1960.0,,3.0,5504804800,1,696352,False,128% ב 7 שנים,תל אביב -יפו,אוסישקין,18.29,6963-52-4,6963/52,25454.545454545456,32.0963376418,34.7767832395,2010
2010-12-05,2010-05-12,"צלילי חנינא 19, תל אביב -יפו",צלילי חנינא 19,6146-320-78,דירה בבית קומות,4.0,שניה,95.3,1300000,,,2000.0,,11.0,5506221750,1,6146320,False,,תל אביב -יפו,צלילי חנינא,,6146-320-78,6146/320,13641.133263378804,32.0487555179,34.8116326093,2010
2010-12-05,2010-05-12,"כורזים 7, תל אביב -יפו",כורזים 7,7321-62-18,דירה בבית קומות,2.5,ראשונה,46.9,810000,,,1970.0,,4.0,5505766700,1,732162,False,,תל אביב -יפו,כורזים,,7321-62-18,7321/62,17270.78891257996,32.1203400185,34.8427452195,2010
2010-12-05,2010-05-12,"ליש 20, תל אביב -יפו",ליש 20,6979-5-232,דירה בבית קומות,2.0,ראשונה,48.0,560000,,,1950.0,,3.0,5506275750,1,69795,False,,תל אביב -יפו,ליש,,6979-5-232,6979/5,11666.666666666666,32.0511089979,34.7880002518,2010
2010-12-05,2010-05-12,"ד""ר רות פלד 2, תל אביב -יפו","ד""ר רות פלד 2",6624-607-2,דירה בבית קומות,5.0,"מרתף,קרקע,ראשנה,שניה",155.0,2645000,,,2003.0,,,5505294850,1,6624607,False,,תל אביב -יפו,"ד""ר פלד רות",,6624-607-2,6624/607,17064.516129032258,32.1224471663,34.8250663873,2010
2010-12-05,2010-05-12,"ברודי 3, תל אביב -יפו",ברודי 3,6769-86-35,דירה בבית קומות,2.5,שניה,47.2,2300000,,,1960.0,,2.0,5504931050,1,676986,False,18% ב 1.8 שנים,תל אביב -יפו,ברודי,10.0,6769-86-35,6769/86,48728.81355932203,32.1109718267,34.8011692393,2010
2010-12-05,2010-05-12,"שלמה אבן גבירול 183, תל אביב -יפו",שלמה אבן גבירול 183,6212-418-3,דירה בבית קומות,3.0,שניה,,1560000,,,1954.0,,4.0,5506013800,1,6212418,False,,תל אביב -יפו,אבן גבירול,,6212-418-3,6212/418,,32.0936939037,34.7831131889,2010
2010-12-05,2010-05-12,"אחיעזר 5, תל אביב -יפו",אחיעזר 5,6135-3-182,משרד,,,580.0,3350000,,,1950.0,,4.0,5506357450,1,61353,False,,תל אביב -יפו,אחיעזר,,6135-3-182,6135/3,5775.862068965517,32.0524156062,34.7927296629,2010
2010-12-05,2010-05-12,"ניסים איסקוב 8, תל אביב -יפו",ניסים איסקוב 8,7074-9-3,חנות,,קרקע,51.2,222000,,,1960.0,,,5506727900,1,70749,False,,תל אביב -יפו,איסקוב נסים,,7074-9-3,7074/9,4335.9375,32.0411136305,34.7577963721,2010
2010-12-05,2010-05-12,"יהודה הימית 10, תל אביב -יפו",יהודה הימית 10,7076-91-60,דירה בבית קומות,3.0,שניה,68.5,834000,,,2024.0,,5.0,5507834200,1,707691,False,,תל אביב -יפו,יהודה הימית,,7076-91-60,7076/91,12175.182481751825,32.0499708068,34.7582443057,2010
2010-12-05,2010-05-12,"פינס 18, תל אביב -יפו",פינס 18,6929-215-8,דירה בבית קומות,3.0,שניה,89.0,2850000,,,2011.0,,,5505577800,1,6929215,False,,תל אביב -יפו,פינס,,6929-215-8,6929/215,32022.47191011236,32.0625267754,34.7663076943,2010
2010-12-05,2010-05-12,"לוי אשכול 63, תל אביב -יפו",לוי אשכול 63,6883-25-68,דירה בבית קומות,5.0,חמישית,,2525000,,,2009.0,,11.0,5505768750,1,688325,False,,תל אביב -יפו,אשכול לוי,,6883-25-68,6883/25,,32.1160507832,34.7896008513,2010
2010-12-05,2010-05-12,"אלנבי 115, תל אביב -יפו",אלנבי 115,6937-48-5,משרד,,מרתף 4,37.2,84000000,,,1950.0,,18.0,5505037000,1,693748,False,,תל אביב -יפו,אלנבי,,6937-48-5,6937/48,2258064.516129032,32.0625711436,34.7737652554,2010
2010-12-05,2010-05-12,"יפת 129, תל אביב -יפו",יפת 129,7047-115-2,דירה בבית קומות,3.0,,95.0,464000,,,1960.0,,,5506837200,1,7047115,False,,תל אביב -יפו,יפת,,7047-115-2,7047/115,4884.210526315789,32.039500586,34.7511949818,2010
2010-12-05,2010-05-12,"פיכמן 19, תל אביב -יפו",פיכמן 19,6768-2-120,דירה בבית קומות,4.5,רביעית,68.4,2080000,,,1960.0,,4.0,5504837000,1,67682,False,,תל אביב -יפו,פיכמן,,6768-2-120,6768/2,30409.3567251462,32.1096656799,34.7928609152,2010
2010-12-05,2010-05-12,"השופטים 33, תל אביב -יפו",השופטים 33,6111-239-2,דירה בבית קומות,3.0,-,49.0,2025000,,,1960.0,,1.0,5505247000,1,6111239,False,26% ב 2.4 שנים,תל אביב -יפו,השופטים,10.83,6111-239-2,6111/239,41326.5306122449,32.0764180729,34.7821339506,2010
2010-12-05,2010-05-12,"חב""ד 40, תל אביב -יפו","חב""ד 40",7047-76-2,דירה בבית קומות,2.0,קרקע,46.67,107000,,,1950.0,,2.0,5505680100,1,704776,False,,תל אביב -יפו,"חב""ד",,7047-76-2,7047/76,2292.693379044354,32.0399296576,34.7531752846,2010
2010-12-05,2010-05-12,"דיזנגוף 102, תל אביב -יפו",דיזנגוף 102,7091-203-54,דירה בבית קומות,3.0,קומה ‎16‏,91.0,3650000,,,2012.0,,24.0,5505243700,1,7091203,False,,תל אביב -יפו,דיזנגוף,,7091-203-54,7091/203,40109.89010989011,32.0794510463,34.7743959716,2010
2010-12-05,2010-05-12,"נהרדעא 5, תל אביב -יפו",נהרדעא 5,6217-676-121,דירה בבית קומות,4.0,חמישית,100.0,7940000,,,2003.0,,24.0,5505656150,1,6217676,False,,תל אביב -יפו,נהרדעא,,6217-676-121,6217/676,79400.0,32.0830461668,34.786571371,2010
2010-12-05,2010-05-12,"קפריסין 16, תל אביב -יפו",קפריסין 16,6627-260-1,בית בודד,5.0,,120.0,4577000,,,1965.0,,,5504892700,1,6627260,False,,תל אביב -יפו,קפריסין,,6627-260-1,6627/260,38141.66666666666,32.1171615228,34.8148008267,2010
2010-12-05,2010-05-12,"אורי צבי גרינברג 6, תל אביב -יפו",אורי צבי גרינברג 6,6632-469-44,דירה בבית קומות,4.0,שלישית,98.75,2400000,,,2003.0,,10.0,5505064600,1,6632469,False,49% ב 6 שנים,תל אביב -יפו,אורי צבי גרינברג,8.17,6632-469-44,6632/469,24303.79746835443,32.1284903332,34.7940372637,2010
2010-12-04,2010-04-12,"עזה 14, תל אביב -יפו",עזה 14,7076-63-5,דירה בבית קומות,2.0,שלישית,20.99,650000,,,1960.0,,3.0,5504515250,1,707663,False,,תל אביב -יפו,עזה,,7076-63-5,7076/63,30967.12720343021,32.0488906146,34.7594343613,2010
2010-12-04,2010-04-12,"תל גיבורים 32, תל אביב -יפו",תל גיבורים 32,6991-29-16,דירה בבית קומות,1.5,שניה,35.45,550000,,,1960.0,,3.0,5503837950,1,699129,False,,תל אביב -יפו,תל גבורים,,6991-29-16,6991/29,15514.8095909732,32.0394633065,34.7691456434,2010
2010-12-04,2010-04-12,"הרב דוד פרידמן 1, תל אביב -יפו",הרב דוד פרידמן 1,6212-916-1,בניני ציבור,,,255.0,7850000,,,1950.0,,1.0,5505082800,1,6212916,False,,תל אביב -יפו,הרב פרידמן,,6212-916-1,6212/916,30784.3137254902,32.0928368653,34.7931080872,2010
2010-12-04,2010-04-12,"ירמיהו 26, תל אביב -יפו",ירמיהו 26,6961-53-5,דירה בבית קומות,2.5,קרקע,61.28,1200000,,,1960.0,,3.0,5504379100,1,696153,False,,תל אביב -יפו,ירמיהו,,6961-53-5,6961/53,19582.2454308094,32.0945740816,34.7760196539,2010
2010-12-04,2010-04-12,"מאיר יערי 18, תל אביב -יפו",מאיר יערי 18,7186-16-4,דירה,3.0,שביעית,90.0,1900000,1.0,כוכב הצפון,2011.0,,9.0,11181293694,1,718616,False,,תל אביב -יפו,יערי מאיר,,7186-16-4,7186/16,21111.11111111111,32.0993419195,34.7868916284,2010
2010-12-04,2010-04-12,"זלטופולסקי 17, תל אביב -יפו",זלטופולסקי 17,6901-26-17,דירה בבית קומות,4.0,שניה,82.0,2800000,,,2022.0,,4.0,5504526450,1,690126,False,,תל אביב -יפו,זלטופולסקי,,6901-26-17,6901/26,34146.34146341463,32.088823819,34.7723838635,2010
2010-12-04,2010-04-12,"אלכסנדר ינאי 24, תל אביב -יפו",אלכסנדר ינאי 24,6212-414-7,דירה בבית קומות,2.0,שניה,59.66,1560000,,,1948.0,,3.0,5504207950,1,6212414,False,80% ב 3 שנים,תל אביב -יפו,אלכסנדר ינאי,26.67,6212-414-7,6212/414,26148.17298022125,32.09373907,34.7827759421,2010
2010-12-04,2010-04-12,"מכלל יופי 19, תל אביב -יפו",מכלל יופי 19,7043-19-3,דירה בבית קומות,4.0,שניה,100.0,1300000,,,1960.0,,6.0,5503970750,1,704319,False,,תל אביב -יפו,מכלל יופי,,7043-19-3,7043/19,13000.0,32.0353737979,34.7469986229,2010
2010-12-04,2010-04-12,"פנקס 54, תל אביב -יפו",פנקס 54,6213-1396-62,דירה בבית קומות,4.0,ארבע עשרה,108.8,3200000,,,1970.0,,21.0,5504285950,1,62131396,False,,תל אביב -יפו,פנקס,,6213-1396-62,6213/1396,29411.764705882357,32.0905909095,34.7898377116,2010
2010-12-04,2010-04-12,"חפץ חיים 20, תל אביב -יפו",חפץ חיים 20,7093-321-19,דירה בבית קומות,3.0,רביעית,68.0,1425000,,,1960.0,,4.0,5503927850,1,7093321,False,,תל אביב -יפו,חפץ חיים,,7093-321-19,7093/321,20955.88235294117,32.0747441574,34.7993801178,2010
2010-12-03,2010-03-12,"דובנוב 24, תל אביב -יפו",דובנוב 24,6111-445-9,דירה בבית קומות,2.0,ראשונה,70.0,1800000,,,1970.0,,2.0,5503155200,1,6111445,False,,תל אביב -יפו,דובנוב,,6111-445-9,6111/445,25714.285714285717,32.0786515091,34.7836480326,2010
2010-12-03,2010-03-12,"איסקוב נסים 13, תל אביב -יפו",איסקוב נסים 13,7073-34-3,דירה בבית קומות,2.0,קרקע,42.23,400000,,,1960.0,,1.0,5503053700,1,707334,False,61% ב 9.6 שנים,תל אביב -יפו,איסקוב נסים,6.35,7073-34-3,7073/34,9471.939379587971,32.0412332899,34.7585138211,2010
2010-12-03,2010-03-12,"החרמש 8, תל אביב -יפו",החרמש 8,7065-139-2,דירה בבית קומות,5.0,ראשונה,120.0,1470000,,,1950.0,,2.0,5503208450,1,7065139,False,,תל אביב -יפו,החרמש,,7065-139-2,7065/139,12250.0,32.0425018168,34.7732105547,2010
2010-12-02,2010-02-12,"דיזנגוף 6, תל אביב -יפו",דיזנגוף 6,7111-106-10,דירה בבית קומות,3.0,שניה,60.0,1690000,,,1999.0,,3.0,5501921850,1,7111106,False,91% ב 1.5 שנים,תל אביב -יפו,דיזנגוף,60.67,7111-106-10,7111/106,28166.666666666668,32.0739436261,34.7811272139,2010
2010-12-02,2010-02-12,"מארק שאגאל 1, תל אביב -יפו",מארק שאגאל 1,6896-212-1,דירה בבית קומות,4.0,שביעית,120.0,2150000,,,2004.0,,7.0,5502913900,1,6896212,False,,תל אביב -יפו,שגאל מרק,,6896-212-1,6896/212,17916.666666666668,32.1182826164,34.788433294,2010
2010-12-02,2010-02-12,"שלמה אבן גבירול 6, תל אביב -יפו",שלמה אבן גבירול 6,6111-69-8,דירה בבית קומות,2.5,שניה,50.0,1300000,,,1950.0,,2.0,5502128950,1,611169,False,,תל אביב -יפו,אבן גבירול,,6111-69-8,6111/69,26000.0,32.0719088589,34.7821406222,2010
2010-12-01,2010-01-12,"שמוליק סגל 12, תל אביב -יפו",שמוליק סגל 12,6624-737-2,דירה בבית קומות,8.0,,250.0,8000000,,,2009.0,,,5500813400,1,6624737,False,,תל אביב -יפו,סגל שמוליק,,6624-737-2,6624/737,32000.0,32.1236954604,34.8265850249,2010
2010-12-01,2010-01-12,"דבורה הנביאה 3, תל אביב -יפו",דבורה הנביאה 3,6624-548-4,דירה בבית קומות,5.0,שניה + שלישית,95.0,2270000,,,1991.0,,2.0,5501263850,1,6624548,False,,תל אביב -יפו,דבורה הנביאה,,6624-548-4,6624/548,23894.736842105263,32.1190818315,34.8259292622,2010
2010-12-01,2010-01-12,"י""ל גורדון 44, תל אביב -יפו","י""ל גורדון 44",7113-76-2,חנות,,,380.0,16400000,,,1979.0,,,5501600000,1,711376,False,,תל אביב -יפו,גורדון י ל,,7113-76-2,7113/76,43157.89473684211,32.0816132906,34.7740577476,2010
2010-12-01,2010-01-12,"הגיבור האלמוני 59, תל אביב -יפו",הגיבור האלמוני 59,6133-508-2,דירה בבית קומות,3.0,ראשונה,55.0,1100000,,,1950.0,,1.0,5500734650,1,6133508,False,,תל אביב -יפו,הגבור האלמוני,,6133-508-2,6133/508,20000.0,32.0629920461,34.7983078081,2010
2010-12-01,2010-01-12,"מעפילי אגוז 5, תל אביב -יפו",מעפילי אגוז 5,7241-28-46,דירה בבית קומות,2.5,שלישית,49.9,515000,,,1970.0,,4.0,5501618200,1,724128,False,,תל אביב -יפו,מעפילי אגוז,,7241-28-46,7241/28,10320.641282565131,32.0498538988,34.8115448058,2010
2010-12-01,2010-01-12,"באר טובייה 12, תל אביב -יפו",באר טובייה 12,6954-83-8,דירה בבית קומות,4.0,קרקע,113.2,2650000,,,1960.0,,3.0,5500585750,1,695483,False,,תל אביב -יפו,באר טוביה,,6954-83-8,6954/83,23409.893992932863,32.0845297634,34.7753832461,2010
2010-12-01,2010-01-12,"מאנגר איציק 3, תל אביב -יפו",מאנגר איציק 3,6954-161-43,דירה בבית קומות,4.0,שתים עשרה,95.0,2878000,,,1970.0,,13.0,5501220150,1,6954161,False,,תל אביב -יפו,מאנגר איציק,,6954-161-43,6954/161,30294.736842105263,32.0859001338,34.7768282257,2010
2010-12-01,2010-01-12,"רבי חנינא 26, תל אביב -יפו",רבי חנינא 26,7018-45-2,דירה בבית קומות,3.0,,78.0,1152000,,,1930.0,,4.0,5501592300,1,701845,False,,תל אביב -יפו,רבי חנינא,,7018-45-2,7018/45,14769.23076923077,32.051744903,34.7541406191,2010
2010-12-01,2010-01-12,"בית עובד 8, תל אביב -יפו",בית עובד 8,7067-1-31,משרד,,,33.0,408333000,,,1990.0,,5.0,5500812500,1,70671,False,,תל אביב -יפו,בית עובד,,7067-1-31,7067/1,12373727.272727272,32.0631486934,34.7865627039,2010
2010-12-01,2010-01-12,"ישראל מסלנט 23, תל אביב -יפו",ישראל מסלנט 23,6974-117-21,חנות,,קרקע,23.0,279000,,,1960.0,,4.0,5501346450,1,6974117,False,,תל אביב -יפו,ישראל מסלנט,,6974-117-21,6974/117,12130.434782608696,32.0493785477,34.7809909914,2010
2010-12-01,2010-01-12,"יגור 16, תל אביב -יפו",יגור 16,6133-923-7,דירה בבית קומות,3.0,ראשונה,57.0,800000,,,2022.0,,4.0,5500844400,1,6133923,False,,תל אביב -יפו,יגור,,6133-923-7,6133/923,14035.087719298246,32.0582025757,34.7967492475,2010
2010-12-01,2010-01-12,"בבלי 23, תל אביב -יפו",בבלי 23,6107-402-25,דירה בבית קומות,3.0,ראשונה,79.0,1950000,,,1970.0,,6.0,5500683050,1,6107402,False,,תל אביב -יפו,בבלי,,6107-402-25,6107/402,24683.54430379747,32.0945378892,34.7980365815,2010
