DEALDATE,DEALDATETIME,FULLADRESS,DISPLAYADRESS,GUSH,DEALNATUREDESCRIPTION,ASSETROOMNUM,FLOORNO,DEALNATURE,DEALAMOUNT,NEWPROJECTTEXT,PROJECTNAME,BUILDINGYEAR,YEARBUILT,BUILDINGFLOORS,KEYVALUE,TYPE,POLYGON_ID,TREND_IS_NEGATIVE,TREND_FORMAT,city_name,street,presentage per year,GUSH - Copy,Gush_Helka,Price per sqm,lat,lon,Year
2004-12-31,2004-12-31,"ויצמן 20, הרצלייה",ויצמן 20,6534-149-17,דירה בבית קומות,5.0,שלישית,109.0,753000,,,1970.0,,8.0,7771606614,1,6534149,True,-18% ב 5.6 שנים,הרצלייה,ויצמן,-3.21,6534-149-17,6534/149,6908.256880733945,32.165419904,34.8370147321,2004
2004-12-30,2004-12-30,"שמואל הנגיד 18, הרצלייה",שמואל הנגיד 18,6527-302-25,דירה בבית קומות,4.0,שביעית,72.1,802000,,,1970.0,,7.0,7771142560,1,6527302,False,,הרצלייה,שמואל הנגיד,,6527-302-25,6527/302,11123.439667128989,32.1671058472,34.8339881531,2004
2004-12-30,2004-12-30,"עמיאל 18, הרצלייה",עמיאל 18,6557-169-1,קוטג' דו משפחתי,4.0,,127.0,997000,,,1950.0,,,7770795352,1,6557169,False,,הרצלייה,עמיאל,,6557-169-1,6557/169,7850.393700787402,32.160733206,34.8569854832,2004
2004-12-30,2004-12-30,"הסדנאות 4, הרצלייה",הסדנאות 4,6592-110-5,משרד,,ראשונה,445.0,4363000,,,2004.0,,3.0,7771729972,1,6592110,False,,הרצלייה,הסדנאות,,6592-110-5,6592/110,9804.494382022473,32.1623957984,34.80649594,2004
2004-12-30,2004-12-30,"דוד שמעוני 18, הרצלייה",דוד שמעוני 18,6526-295-16,דירה בבית קומות,5.0,חמישית,117.9,1470000,,,2005.0,,8.0,7771726938,1,6526295,False,,הרצלייה,שמעוני דוד,,6526-295-16,6526/295,12468.193384223918,32.1725509174,34.8365674126,2004
2004-12-29,2004-12-29,"המקובלים 1, הרצלייה",המקובלים 1,6546-615-12,דירה בבית קומות,5.0,שלישית,113.0,1312000,,,1970.0,,9.0,7710170926,1,6546615,False,,הרצלייה,המקובלים,,6546-615-12,6546/615,11610.61946902655,32.1540862735,34.8391595377,2004
2004-12-28,2004-12-28,"חבצלת השרון 35, הרצלייה",חבצלת השרון 35,6668-633-14,דירה בבית קומות,2.0,שניה,33.0,564000,,,1960.0,,4.0,7770792244,1,6668633,False,,הרצלייה,חבצלת השרון,,6668-633-14,6668/633,17090.909090909092,32.1796348961,34.8053038049,2004
2004-12-27,2004-12-27,"רביבים 33, הרצלייה",רביבים 33,6577-49-18,דירה בבית קומות,2.0,ראשונה,36.21,312000,,,1960.0,,3.0,7770050394,1,657749,False,,הרצלייה,רביבים,,6577-49-18,6577/49,8616.404308202154,32.1736086033,34.8522108147,2004
2004-12-27,2004-12-27,"רבי עקיבא 3, הרצלייה",רבי עקיבא 3,6546-529-8,דירה בבית קומות,2.0,שניה,40.1,640000,,,1963.0,,3.0,7770129796,1,6546529,False,,הרצלייה,רבי עקיבא,,6546-529-8,6546/529,15960.099750623442,32.1541959008,34.8430082741,2004
2004-12-27,2004-12-27,"פורצי הדרך 46, הרצלייה",פורצי הדרך 46,6558-799-6,דירה בבית קומות,3.0,שניה,66.5,629000,,,1999.0,,2.0,7770041884,1,6558799,False,,הרצלייה,פורצי הדרך,,6558-799-6,6558/799,9458.646616541351,32.1664506572,34.8630220814,2004
2004-12-26,2004-12-26,"שבט מנשה 61, הרצלייה",שבט מנשה 61,6667-440-2,קוטג' חד משפחתי,6.0,ראשונה,136.0,3109000,,,1963.0,,1.0,7710221468,1,6667440,False,,הרצלייה,שבט מנשה,,6667-440-2,6667/440,22860.29411764706,32.1750209276,34.8133659757,2004
2004-12-26,2004-12-26,"הלני המלכה 7, הרצלייה",הלני המלכה 7,6517-107-4,קוטג' חד משפחתי,5.0,ראשונה,200.0,2793000,,,1980.0,,2.0,7770113294,1,6517107,False,,הרצלייה,הלני המלכה,,6517-107-4,6517/107,13965.0,32.1672073487,34.8024266017,2004
2004-12-26,2004-12-26,"מלכי יהודה 22, הרצלייה",מלכי יהודה 22,6536-894-13,דירה בבית קומות,5.0,רביעית+גג,131.75,1389000,,,1994.0,,4.0,7710115426,1,6536894,False,,הרצלייה,מלכי יהודה,,6536-894-13,6536/894,10542.6944971537,32.1721008542,34.8427769301,2004
2004-12-26,2004-12-26,"העוגן 4, הרצלייה",העוגן 4,6516-16-81,דירה בבית קומות,3.0,רביעית,75.0,1572000,,,2005.0,,6.0,7771413030,1,651616,False,,הרצלייה,העוגן,,6516-16-81,6516/16,20960.0,32.1591960165,34.7947789632,2004
2004-12-26,2004-12-26,"מלכי יהודה 8, הרצלייה",מלכי יהודה 8,6530-203-5,דירה בבית קומות,4.0,שלישית,93.0,963000,,,1975.0,,3.0,7770592518,1,6530203,False,,הרצלייה,מלכי יהודה,,6530-203-5,6530/203,10354.83870967742,32.1701910834,34.8421361378,2004
2004-12-24,2004-12-24,"בורוכוב 7, הרצלייה",בורוכוב 7,6558-14-1,דירה בבית קומות,3.0,ראשונה,41.06,1198400,,,1949.0,,1.0,7770806896,1,655814,False,,הרצלייה,בורוכוב,,6558-14-1,6558/14,29186.556259132976,32.1697822441,34.8533334652,2004
2004-12-23,2004-12-23,"זלמן שניאור 19, הרצלייה",זלמן שניאור 19,6526-296-27,דירה בבית קומות,4.0,ראשונה,101.8,1214000,,,2001.0,,5.0,7771984606,1,6526296,False,24% ב 3.1 שנים,הרצלייה,שניאור זלמן,7.74,6526-296-27,6526/296,11925.343811394892,32.1725107119,34.8374712142,2004
2004-12-22,2004-12-22,"מוצקין 2, הרצלייה",מוצקין 2,6667-428-1,קוטג' חד משפחתי,5.0,ראשונה,250.0,6337000,,,1962.0,,1.0,7770380064,1,6667428,False,,הרצלייה,מוצקין,,6667-428-1,6667/428,25348.0,32.1791532701,34.8138412676,2004
2004-12-22,2004-12-22,"ראשון לציון 2, הרצלייה",ראשון לציון 2,6532-290-5,דירה בבית קומות,5.0,שלישית,122.22,896000,,,1976.0,,3.0,7709986444,1,6532290,False,,הרצלייה,ראשון לציון,,6532-290-5,6532/290,7331.042382588775,32.1651658706,34.845368449,2004
2004-12-22,2004-12-22,"בעל שם טוב 8, הרצלייה",בעל שם טוב 8,6538-672-31,דירה בבית קומות,5.0,רביעית,131.51,1215000,,,1995.0,,6.0,7770342324,1,6538672,False,,הרצלייה,הבעל שם טוב,,6538-672-31,6538/672,9238.84115276405,32.1621143994,34.8407767881,2004
2004-12-22,2004-12-22,"רמב""ם 6, הרצלייה","רמב""ם 6",6538-103-7,דירה בבית קומות,2.0,שניה,41.5,507000,,,1960.0,,2.0,7709985260,1,6538103,False,,הרצלייה,"רמב""ם",,6538-103-7,6538/103,12216.867469879518,32.1633278399,34.8432329353,2004
2004-12-21,2004-12-21,"הנדיב 3, הרצלייה",הנדיב 3,6529-245-52,דירה בבית קומות,4.0,שלישית,87.0,924000,,,1995.0,,16.0,7771476078,1,6529245,False,,הרצלייה,הנדיב,,6529-245-52,6529/245,10620.689655172411,32.1676669,34.8399742858,2004
2004-12-21,2004-12-21,"אלוף יגאל אלון 37, הרצלייה",אלוף יגאל אלון 37,6536-402-5,דירה בבית קומות,4.0,שניה,111.47,1061000,,,1988.0,,4.0,7709970016,1,6536402,False,,הרצלייה,אלוף אלון יגאל,,6536-402-5,6536/402,9518.256033013367,32.1691578267,34.8499991686,2004
2004-12-20,2004-12-20,"הר שומרון 14, הרצלייה",הר שומרון 14,6577-245-14,דירה בבית קומות,3.0,שלישית,61.3,476000,,,1940.0,,3.0,7709879588,1,6577245,False,,הרצלייה,הר שומרון,,6577-245-14,6577/245,7765.089722675368,32.1770923182,34.8561061889,2004
2004-12-20,2004-12-20,"מלכי יהודה 22, הרצלייה",מלכי יהודה 22,6536-894-10,דירה בבית קומות,4.0,שלישית,113.39,1082000,,,1994.0,,4.0,7709923026,1,6536894,False,,הרצלייה,מלכי יהודה,,6536-894-10,6536/894,9542.287679689569,32.1721008542,34.8427769301,2004
2004-12-20,2004-12-20,"העוגן 4, הרצלייה",העוגן 4,6516-16-136,דירה בבית קומות,3.0,קרקע,69.3,917000,,,2005.0,,6.0,7771369074,1,651616,False,,הרצלייה,העוגן,,6516-16-136,6516/16,13232.323232323231,32.1591960165,34.7947789632,2004
2004-12-19,2004-12-19,"העלומים 7, הרצלייה",העלומים 7,6663-294-23,דירה בבית קומות,4.0,שלישית,95.8,646000,,,1970.0,,3.0,7709868636,1,6663294,True,-14% ב 2.1 שנים,הרצלייה,העלומים,-6.67,6663-294-23,6663/294,6743.215031315241,32.1790653002,34.8446117813,2004
2004-12-19,2004-12-19,"העוגן 4, הרצלייה",העוגן 4,6516-16-150,דירה בבית קומות,2.0,שנייה,60.5,838000,,,2005.0,,6.0,7771409922,1,651616,False,,הרצלייה,העוגן,,6516-16-150,6516/16,13851.239669421488,32.1591960165,34.7947789632,2004
2004-12-17,2004-12-17,"דוד שמעוני 20, הרצלייה",דוד שמעוני 20,6526-295-33,דירה בבית קומות,5.0,רביעית,117.9,1488000,,,2006.0,,8.0,7770819032,1,6526295,False,,הרצלייה,שמעוני דוד,,6526-295-33,6526/295,12620.865139949108,32.1725509174,34.8365674126,2004
2004-12-17,2004-12-17,"בן סרוק מנחם 18, הרצלייה",בן סרוק מנחם 18,6527-399-8,דירה בבית קומות,3.0,שניה,65.6,541000,,,1950.0,,3.0,7770666962,1,6527399,False,,הרצלייה,בן סרוק מנחם,,6527-399-8,6527/399,8246.951219512195,32.1651220991,34.8331495296,2004
2004-12-17,2004-12-17,"דוד שמעוני 22, הרצלייה",דוד שמעוני 22,6526-295-50,דירה בבית קומות,5.0,שניה,117.9,1440000,,,2005.0,,7.0,7770817182,1,6526295,False,,הרצלייה,שמעוני דוד,,6526-295-50,6526/295,12213.740458015269,32.1725509174,34.8365674126,2004
2004-12-16,2004-12-16,"העוגן 4, הרצלייה",העוגן 4,6516-16-122,דירה בבית קומות,3.0,רביעית,71.8,1015000,,,2005.0,,6.0,7771360564,1,651616,False,,הרצלייה,העוגן,,6516-16-122,6516/16,14136.49025069638,32.1591960165,34.7947789632,2004
2004-12-16,2004-12-16,"ארלוזורוב 5, הרצלייה",ארלוזורוב 5,6538-553-3,דירה בבית קומות,5.0,ראשונה,116.5,786000,,,1980.0,,3.0,7710224576,1,6538553,True,-4% ב 0.7 שנים,הרצלייה,ארלוזורוב,-5.71,6538-553-3,6538/553,6746.781115879829,32.1608185144,34.8436876944,2004
2004-12-15,2004-12-15,"החלוץ 8, הרצלייה",החלוץ 8,6531-7-4,דירה בבית קומות,4.0,שניה,85.17,952000,,,1973.0,,3.0,7709556726,1,65317,False,,הרצלייה,החלוץ,,6531-7-4,6531/7,11177.644710578845,32.1681754912,34.8445941372,2004
2004-12-15,2004-12-15,"טשרניחובסקי 18, הרצלייה",טשרניחובסקי 18,6530-148-4,דירה בבית קומות,3.0,שניה,76.54,731000,,,1969.0,,4.0,7710050010,1,6530148,False,,הרצלייה,טשרניחובסקי,,6530-148-4,6530/148,9550.561797752807,32.1700810004,34.8410086669,2004
2004-12-14,2004-12-14,"פלמ""ח 23, הרצלייה","פלמ""ח 23",6536-191-4,דירה בבית קומות,4.0,שניה,109.0,928000,,,1970.0,,4.0,7709882104,1,6536191,False,,הרצלייה,"פלמ""ח",,6536-191-4,6536/191,8513.761467889908,32.1707880767,34.8447972525,2004
2004-12-14,2004-12-14,"נווה עובד 5, הרצלייה",נווה עובד 5,6669-470-1,קוטג' חד משפחתי,5.0,ראשונה,200.0,2810000,,,1980.0,,,7770306878,1,6669470,False,,הרצלייה,נוה עובד,,6669-470-1,6669/470,14050.0,32.1868831925,34.8139943983,2004
2004-12-14,2004-12-14,"אבן גבירול 3, הרצלייה",אבן גבירול 3,6534-87-20,דירה בבית קומות,2.0,שניה,59.64,691000,,,1970.0,,4.0,7709788050,1,653487,False,,הרצלייה,אבן גבירול,,6534-87-20,6534/87,11586.18376928236,32.1671738456,34.8375399378,2004
2004-12-13,2004-12-13,"אריה בן-אליעזר 10, הרצלייה",אריה בן-אליעזר 10,6668-383-1,קוטג' חד משפחתי,5.0,ראשונה,320.0,6867000,,,1970.0,,1.0,7709464004,1,6668383,False,,הרצלייה,בן אליעזר אריה,,6668-383-1,6668/383,21459.375,32.177856226,34.8085953466,2004
2004-12-13,2004-12-13,"צמרות 2, הרצלייה",צמרות 2,6546-858-81,דירה בבית קומות,4.0,שישית,122.1,1438000,,,1998.0,,17.0,7709471182,1,6546858,False,,הרצלייה,צמרות,,6546-858-81,6546/858,11777.231777231778,32.1515729734,34.8431441388,2004
2004-12-12,2004-12-12,"מרבד הקסמים 30, הרצלייה",מרבד הקסמים 30,6541-219-4,דירה בבית קומות,6.0,ראשונה,190.25,2038000,,,1987.0,,2.0,7709656774,1,6541219,False,,הרצלייה,מרבד הקסמים,,6541-219-4,6541/219,10712.22076215506,32.1584392083,34.8504933935,2004
2004-12-12,2004-12-12,"ברוך 45, הרצלייה",ברוך 45,6536-771-5,דירה בבית קומות,5.0,שלישית+גג,110.8,959000,,,1990.0,,4.0,7770954600,1,6536771,False,,הרצלייה,ברוך,,6536-771-5,6536/771,8655.234657039711,32.169165523,34.8472447171,2004
2004-12-12,2004-12-12,"בני בנימין 18, הרצלייה",בני בנימין 18,6528-45-18,דירה בבית קומות,4.0,שלישית,91.0,741000,,,1970.0,,3.0,7770601028,1,652845,False,,הרצלייה,בני בנימין,,6528-45-18,6528/45,8142.857142857143,32.1713056736,34.8406266396,2004
2004-12-11,2004-11-12,"הסדנאות 4, הרצלייה",הסדנאות 4,6592-110-19,משרד,,רביעית,221.15,2199000,,,2004.0,,3.0,7709614742,1,6592110,False,,הרצלייה,הסדנאות,,6592-110-19,6592/110,9943.477277865702,32.1623957984,34.80649594,2004
2004-12-11,2004-11-12,"הבנים 40, הרצלייה",הבנים 40,6539-11-2,קוטג' חד משפחתי,6.0,קרקע+ראשונה,152.63,1505000,,,1985.0,,2.0,7708451018,1,653911,False,,הרצלייה,הבנים,,6539-11-2,6539/11,9860.446832208609,32.162250593,34.849211056,2004
2004-12-10,2004-10-12,"גיל 81, הרצלייה",גיל 81,6557-138-2,קוטג' דו משפחתי,2.0,ראשונה,37.1,1139000,,,1956.0,,1.0,7707448614,1,6557138,False,,הרצלייה,גיל,,6557-138-2,6557/138,30700.80862533693,32.1595354317,34.8622220133,2004
2004-12-10,2004-10-12,"לח""י 4, הרצלייה","לח""י 4",6668-1155-1,קוטג' חד משפחתי,6.0,ראשונה,231.0,3077000,,,1988.0,,2.0,7708641568,1,66681155,False,,הרצלייה,"לח""י",,6668-1155-1,6668/1155,13320.34632034632,32.1740541877,34.8039402029,2004
2004-12-09,2004-09-12,"רשב""ם 2, הרצלייה","רשב""ם 2",6527-234-6,דירה בבית קומות,3.0,ראשונה,41.3,851000,,,1950.0,,2.0,7706860684,1,6527234,False,,הרצלייה,"רשב""ם",,6527-234-6,6527/234,20605.32687651332,32.1642955771,34.8311306946,2004
2004-12-09,2004-09-12,"ויצמן 5, הרצלייה",ויצמן 5,6535-81-16,דירה בבית קומות,2.0,שלישית,44.9,405000,,,1960.0,,3.0,7707407692,1,653581,False,,הרצלייה,ויצמן,,6535-81-16,6535/81,9020.044543429844,32.1631692535,34.8344216002,2004
2004-12-08,2004-08-12,"כלנית 1, הרצלייה",כלנית 1,6544-100-4,קוטג' דו משפחתי,6.0,מרתף+קרקע+ראשונה,213.0,2491000,,,1998.0,,,7705126272,1,6544100,False,,הרצלייה,כלנית,,6544-100-4,6544/100,11694.835680751174,32.1506290471,34.8493067506,2004
2004-12-08,2004-08-12,"רש""י 2, הרצלייה","רש""י 2",6526-95-1,קוטג' חד משפחתי,6.0,,196.0,1950000,,,1995.0,,,7706272754,1,652695,False,,הרצלייה,"רש""י",,6526-95-1,6526/95,9948.979591836734,32.1708940073,34.8320933071,2004
2004-12-08,2004-08-12,"כבוש העבודה 27, הרצלייה",כבוש העבודה 27,6536-518-2,דירה בבית קומות,3.0,ראשונה,59.35,797000,,,1974.0,,4.0,7705251332,1,6536518,False,14% ב 4.2 שנים,הרצלייה,כבוש העבודה,3.33,6536-518-2,6536/518,13428.812131423758,32.1736471452,34.8435245758,2004
2004-12-05,2004-05-12,"הנדיב 39, הרצלייה",הנדיב 39,6529-209-7,דירה בבית קומות,5.0,שלישית,105.36,1248000,,,1980.0,,6.0,7701603724,1,6529209,False,,הרצלייה,הנדיב,,6529-209-7,6529/209,11845.10250569476,32.1698198056,34.837157012,2004
2004-12-03,2004-03-12,"קפלן 14, הרצלייה",קפלן 14,6669-247-5,,6.0,ראשונה,218.0,3896000,,,1978.0,,3.0,7698938836,1,6669247,False,,הרצלייה,קפלן,,6669-247-5,6669/247,17871.559633027522,32.1831361976,34.8085507309,2004
2004-12-03,2004-03-12,"עמיר 32, הרצלייה",עמיר 32,6542-182-6,דירה בבית קומות,4.0,שניה,101.9,1141000,,,2004.0,,6.0,7699947382,1,6542182,False,,הרצלייה,עמיר,,6542-182-6,6542/182,11197.252208047104,32.1561147053,34.8506235747,2004
2004-12-02,2004-02-12,"דוד שמעוני 20, הרצלייה",דוד שמעוני 20,6526-295-36,דירה בבית קומות,5.0,חמישית,117.9,1480000,,,2006.0,,8.0,7698545600,1,6526295,False,,הרצלייה,שמעוני דוד,,6526-295-36,6526/295,12553.011026293469,32.1725509174,34.8365674126,2004
2004-11-30,2004-11-30,"העוגן 4, הרצלייה",העוגן 4,6516-16-164,דירה בבית קומות,3.0,שלישית,71.8,996000,,,2005.0,,6.0,7770711066,1,651616,False,,הרצלייה,העוגן,,6516-16-164,6516/16,13871.866295264625,32.1591960165,34.7947789632,2004
2004-11-30,2004-11-30,"הסדנאות 4, הרצלייה",הסדנאות 4,6592-110-16,משרד,,רביעית,210.8,1896000,,,2004.0,,3.0,7709612966,1,6592110,False,,הרצלייה,הסדנאות,,6592-110-16,6592/110,8994.307400379506,32.1623957984,34.80649594,2004
2004-11-30,2004-11-30,"הסדנאות 4, הרצלייה",הסדנאות 4,6592-110-18,משרד,,רביעית,111.45,1062000,,,2004.0,,3.0,7709614150,1,6592110,False,,הרצלייה,הסדנאות,,6592-110-18,6592/110,9528.936742934053,32.1623957984,34.80649594,2004
2004-11-30,2004-11-30,"העוגן 4, הרצלייה",העוגן 4,6516-16-100,דירה בבית קומות,2.0,ראשונה,56.3,934000,,,2005.0,,6.0,7710174626,1,651616,False,,הרצלייה,העוגן,,6516-16-100,6516/16,16589.698046181173,32.1591960165,34.7947789632,2004
2004-11-29,2004-11-29,"שער הים 20, הרצלייה",שער הים 20,6670-85-1,קוטג' חד משפחתי,4.0,ראשונה,110.0,3608000,,,1964.0,,1.0,7709002984,1,667085,False,,הרצלייה,שער הים,,6670-85-1,6670/85,32800.0,32.1886246372,34.8104992047,2004
2004-11-29,2004-11-29,"מדינת היהודים 2, הרצלייה",מדינת היהודים 2,6517-413-26,דירה בבית קומות,3.0,רביעית,77.3,2843000,,,1998.0,,7.0,7709142770,1,6517413,False,,הרצלייה,מדינת היהודים,,6517-413-26,6517/413,36778.78395860285,32.1682546563,34.8008163755,2004
2004-11-29,2004-11-29,"נווה עובד 17, הרצלייה",נווה עובד 17,6669-455-2,דירה בבית קומות,5.0,קרקע,125.0,1136000,,,1960.0,,1.0,7709188502,1,6669455,False,,הרצלייה,נוה עובד,,6669-455-2,6669/455,9088.0,32.1857166268,34.8137576533,2004
2004-11-28,2004-11-28,"בת-שבע 2, הרצלייה",בת-שבע 2,6518-192-4,קוטג' חד משפחתי,6.0,ראשונה,200.0,2731000,,,1970.0,,1.0,7708940158,1,6518192,False,,הרצלייה,בת שבע,,6518-192-4,6518/192,13655.0,32.1679023274,34.8087191718,2004
2004-11-28,2004-11-28,"בן-גוריון 15, הרצלייה",בן-גוריון 15,6531-139-25,דירה בבית קומות,4.0,שלישית,82.46,458000,,,1970.0,,4.0,7708969240,1,6531139,False,,הרצלייה,בן גוריון,,6531-139-25,6531/139,5554.2081008974055,32.1651243601,34.8429065953,2004
2004-11-25,2004-11-25,"צמרות 10, הרצלייה",צמרות 10,6545-38-178,דירה בבית קומות,5.0,שישית,143.5,1898000,,,2000.0,,29.0,7770049210,1,654538,False,,הרצלייה,צמרות,,6545-38-178,6545/38,13226.480836236931,32.1514074582,34.8458200181,2004
2004-11-25,2004-11-25,"צמרות 10, הרצלייה",צמרות 10,6545-38-257,דירה בבית קומות,5.0,שביעית,142.8,1945000,,,2000.0,,29.0,7708891244,1,654538,False,,הרצלייה,צמרות,,6545-38-257,6545/38,13620.448179271709,32.1514074582,34.8458200181,2004
2004-11-25,2004-11-25,"העוגן 4, הרצלייה",העוגן 4,6516-16-58,דירה בבית קומות,2.0,ראשונה,50.0,1179000,,,2005.0,,6.0,7710168410,1,651616,False,,הרצלייה,העוגן,,6516-16-58,6516/16,23580.0,32.1591960165,34.7947789632,2004
2004-11-25,2004-11-25,"העוגן 4, הרצלייה",העוגן 4,6516-16-124,דירה בבית קומות,2.0,רביעית,60.8,812000,,,2005.0,,6.0,7770013172,1,651616,False,,הרצלייה,העוגן,,6516-16-124,6516/16,13355.263157894737,32.1591960165,34.7947789632,2004
2004-11-24,2004-11-24,"אריאל 2, הרצלייה",אריאל 2,6534-135-3,דירה בבית קומות,4.0,שניה,110.0,1093000,,,2003.0,,7.0,7709480950,1,6534135,True,-1% ב 1 שנים,הרצלייה,אריאל,-1.0,6534-135-3,6534/135,9936.363636363636,32.1663127838,34.8377721816,2004
2004-11-24,2004-11-24,"מדינת היהודים 12, הרצלייה",מדינת היהודים 12,6517-14-48,דירה בבית קומות,2.0,שמינית,40.8,1093000,,,1980.0,,9.0,7709480358,1,651714,False,,הרצלייה,מדינת היהודים,,6517-14-48,6517/14,26789.21568627451,32.1682137039,34.8016998765,2004
2004-11-24,2004-11-24,"אלוף יגאל אלון 10, הרצלייה",אלוף יגאל אלון 10,6532-261-7,דירה בבית קומות,4.0,שניה,68.6,751000,,,1970.0,,4.0,7708888728,1,6532261,False,,הרצלייה,אלוף אלון יגאל,,6532-261-7,6532/261,10947.521865889214,32.1685621277,34.845657939,2004
2004-11-24,2004-11-24,"העוגן 4, הרצלייה",העוגן 4,6516-16-125,דירה בבית קומות,3.0,רביעית,75.0,1442000,,,2005.0,,6.0,7770525992,1,651616,False,,הרצלייה,העוגן,,6516-16-125,6516/16,19226.666666666668,32.1591960165,34.7947789632,2004
2004-11-23,2004-11-23,"העוגן 4, הרצלייה",העוגן 4,6516-16-30,דירה בבית קומות,2.0,שלישית,60.5,980000,,,2005.0,,6.0,7770016872,1,651616,False,,הרצלייה,העוגן,,6516-16-30,6516/16,16198.347107438016,32.1591960165,34.7947789632,2004
2004-11-23,2004-11-23,"עמיר 32, הרצלייה",עמיר 32,6542-182-2,דירה בבית קומות,4.0,ראשונה,101.8,1211000,,,2004.0,,6.0,7709717232,1,6542182,False,,הרצלייה,עמיר,,6542-182-2,6542/182,11895.874263261298,32.1561147053,34.8506235747,2004
2004-11-23,2004-11-23,"העוגן 4, הרצלייה",העוגן 4,6516-16-8,דירה בבית קומות,3.0,קרקע,69.3,890000,,,2005.0,,6.0,7770023606,1,651616,False,,הרצלייה,העוגן,,6516-16-8,6516/16,12842.712842712845,32.1591960165,34.7947789632,2004
2004-11-23,2004-11-23,"העוגן 4, הרצלייה",העוגן 4,6516-16-3,דירה בבית קומות,2.0,קרקע,57.9,1120000,,,2005.0,,6.0,7770018574,1,651616,False,,הרצלייה,העוגן,,6516-16-3,6516/16,19343.69602763385,32.1591960165,34.7947789632,2004
2004-11-23,2004-11-23,"העוגן 4, הרצלייה",העוגן 4,6516-16-80,דירה בבית קומות,3.0,רביעית,75.0,2189000,,,2005.0,,6.0,7709842366,1,651616,False,,הרצלייה,העוגן,,6516-16-80,6516/16,29186.666666666668,32.1591960165,34.7947789632,2004
2004-11-23,2004-11-23,"הניצנים 2, הרצלייה",הניצנים 2,6529-95-15,דירה בבית קומות,2.0,רביעית,60.35,608000,,,1970.0,,7.0,7708958880,1,652995,False,,הרצלייה,הניצנים,,6529-95-15,6529/95,10074.565037282518,32.167335999,34.8395007227,2004
2004-11-23,2004-11-23,"העוגן 4, הרצלייה",העוגן 4,6516-16-2,דירה בבית קומות,3.0,קרקע,69.3,1532000,,,2005.0,,6.0,7770024790,1,651616,False,,הרצלייה,העוגן,,6516-16-2,6516/16,22106.782106782102,32.1591960165,34.7947789632,2004
2004-11-23,2004-11-23,"העוגן 4, הרצלייה",העוגן 4,6516-16-72,דירה בבית קומות,3.0,שלישית,75.0,2233000,,,2005.0,,6.0,7709838000,1,651616,False,,הרצלייה,העוגן,,6516-16-72,6516/16,29773.33333333333,32.1591960165,34.7947789632,2004
2004-11-23,2004-11-23,"העוגן 4, הרצלייה",העוגן 4,6516-16-49,דירה בבית קומות,3.0,קרקע,69.1,1475000,,,2005.0,,6.0,7709854576,1,651616,False,,הרצלייה,העוגן,,6516-16-49,6516/16,21345.875542691752,32.1591960165,34.7947789632,2004
2004-11-23,2004-11-23,"העוגן 4, הרצלייה",העוגן 4,6516-16-52,דירה בבית קומות,2.0,קרקע,55.7,972000,,,2005.0,,6.0,7709853392,1,651616,False,,הרצלייה,העוגן,,6516-16-52,6516/16,17450.628366247754,32.1591960165,34.7947789632,2004
2004-11-23,2004-11-23,"העוגן 4, הרצלייה",העוגן 4,6516-16-7,דירה בבית קומות,2.0,קרקע,53.7,766000,,,2005.0,,6.0,7770021090,1,651616,False,,הרצלייה,העוגן,,6516-16-7,6516/16,14264.432029795158,32.1591960165,34.7947789632,2004
2004-11-23,2004-11-23,"העוגן 4, הרצלייה",העוגן 4,6516-16-87,דירה בבית קומות,3.0,חמישית,75.0,4041000,,,2005.0,,6.0,7709843550,1,651616,False,,הרצלייה,העוגן,,6516-16-87,6516/16,53880.0,32.1591960165,34.7947789632,2004
2004-11-23,2004-11-23,"העוגן 4, הרצלייה",העוגן 4,6516-16-55,דירה בבית קומות,3.0,ראשונה,59.0,1125000,,,2005.0,,6.0,7709805144,1,651616,False,,הרצלייה,העוגן,,6516-16-55,6516/16,19067.79661016949,32.1591960165,34.7947789632,2004
2004-11-23,2004-11-23,"העוגן 4, הרצלייה",העוגן 4,6516-16-121,דירה בבית קומות,3.0,רביעית,71.8,1044000,,,2005.0,,6.0,7770018056,1,651616,False,,הרצלייה,העוגן,,6516-16-121,6516/16,14540.389972144849,32.1591960165,34.7947789632,2004
2004-11-23,2004-11-23,"העוגן 4, הרצלייה",העוגן 4,6516-16-148,דירה בבית קומות,2.0,שנייה,59.4,1014000,,,2005.0,,6.0,7770275798,1,651616,False,,הרצלייה,העוגן,,6516-16-148,6516/16,17070.70707070707,32.1591960165,34.7947789632,2004
2004-11-23,2004-11-23,"העוגן 4, הרצלייה",העוגן 4,6516-16-147,דירה בבית קומות,3.0,שנייה,71.8,1022000,,,2005.0,,6.0,7770272690,1,651616,False,,הרצלייה,העוגן,,6516-16-147,6516/16,14233.983286908078,32.1591960165,34.7947789632,2004
2004-11-23,2004-11-23,"העוגן 4, הרצלייה",העוגן 4,6516-16-88,דירה בבית קומות,6.0,חמישית,93.0,2193000,,,2005.0,,6.0,7770321530,1,651616,False,,הרצלייה,העוגן,,6516-16-88,6516/16,23580.64516129032,32.1591960165,34.7947789632,2004
2004-11-23,2004-11-23,"העוגן 4, הרצלייה",העוגן 4,6516-16-11,דירה בבית קומות,2.0,ראשונה,61.6,923000,,,2005.0,,6.0,7709804626,1,651616,False,,הרצלייה,העוגן,,6516-16-11,6516/16,14983.766233766231,32.1591960165,34.7947789632,2004
2004-11-22,2004-11-22,"הנוטרים 4, הרצלייה",הנוטרים 4,6537-132-9,דירה בבית קומות,3.0,שלישית,65.0,698000,,,1970.0,,3.0,7708835670,1,6537132,True,-6% ב 5.2 שנים,הרצלייה,הנוטרים,-1.15,6537-132-9,6537/132,10738.46153846154,32.1670917979,34.8515193368,2004
2004-11-22,2004-11-22,"העוגן 4, הרצלייה",העוגן 4,6516-16-66,דירה בבית קומות,2.0,שניה,53.9,807000,,,2005.0,,6.0,7710172702,1,651616,False,,הרצלייה,העוגן,,6516-16-66,6516/16,14972.1706864564,32.1591960165,34.7947789632,2004
2004-11-22,2004-11-22,"הנשיא יצחק בן-צבי 123, הרצלייה",הנשיא יצחק בן-צבי 123,6667-348-3,קוטג' דו משפחתי,6.0,ראשונה,250.0,5692700,,,2003.0,,1.0,7709739210,1,6667348,False,,הרצלייה,הנשיא יצחק בן צבי,,6667-348-3,6667/348,22770.8,32.1738296476,34.8089049542,2004
2004-11-22,2004-11-22,"הדר 36, הרצלייה",הדר 36,6536-760-6,דירה בבית קומות,2.0,שניה,47.4,486000,,,1960.0,,3.0,7709127526,1,6536760,False,,הרצלייה,הדר,,6536-760-6,6536/760,10253.164556962023,32.1711787829,34.8487736139,2004
2004-11-22,2004-11-22,"העוגן 4, הרצלייה",העוגן 4,6516-16-32,דירה בבית קומות,3.0,שלישית,71.8,1247000,,,2005.0,,6.0,7770526584,1,651616,False,,הרצלייה,העוגן,,6516-16-32,6516/16,17367.688022284125,32.1591960165,34.7947789632,2004
2004-11-22,2004-11-22,"העוגן 4, הרצלייה",העוגן 4,6516-16-71,דירה בבית קומות,2.0,שלישית,60.8,1055000,,,2005.0,,6.0,7770520442,1,651616,False,,הרצלייה,העוגן,,6516-16-71,6516/16,17351.973684210527,32.1591960165,34.7947789632,2004
2004-11-22,2004-11-22,"ההסתדרות 51, הרצלייה",ההסתדרות 51,6541-169-6,קוטג' חד משפחתי,5.0,מרתף+קרקע+ראשונה,162.22,1707000,,,1975.0,,1.0,7709104216,1,6541169,False,,הרצלייה,ההסתדרות,,6541-169-6,6541/169,10522.746886943656,32.1589799341,34.8481444794,2004
2004-11-22,2004-11-22,"העוגן 4, הרצלייה",העוגן 4,6516-16-118,דירה בבית קומות,3.0,רביעית,75.0,2306000,,,2005.0,,6.0,7770261738,1,651616,False,,הרצלייה,העוגן,,6516-16-118,6516/16,30746.666666666668,32.1591960165,34.7947789632,2004
2004-11-22,2004-11-22,"שח""ל 29, הרצלייה","שח""ל 29",6558-216-3,דירה בבית קומות,4.0,ראשונה,100.0,720000,,,1950.0,,1.0,7771115106,1,6558216,False,,הרצלייה,"שח""ל",,6558-216-3,6558/216,7200.0,32.1626339701,34.8581190841,2004
2004-11-22,2004-11-22,"העוגן 4, הרצלייה",העוגן 4,6516-16-65,דירה בבית קומות,3.0,שניה,75.0,2139000,,,2005.0,,6.0,7770013764,1,651616,False,,הרצלייה,העוגן,,6516-16-65,6516/16,28520.0,32.1591960165,34.7947789632,2004
2004-11-21,2004-11-21,"שמואל הנגיד 13, הרצלייה",שמואל הנגיד 13,6527-387-21,דירה בבית קומות,4.0,שישית,91.0,825000,,,1980.0,,8.0,7709697030,1,6527387,False,,הרצלייה,שמואל הנגיד,,6527-387-21,6527/387,9065.934065934063,32.1660916541,34.8341140782,2004
2004-11-21,2004-11-21,"כיסופים 1, הרצלייה",כיסופים 1,7291-243-22,קוטג' טורי,5.0,קרקע+ראשונה+שניה,123.0,1133000,,,1988.0,,2.0,7708671464,1,7291243,False,,הרצלייה,כסופים,,7291-243-22,7291/243,9211.38211382114,32.1550357618,34.8352626998,2004
2004-11-19,2004-11-19,"אליהו גולומב 23, הרצלייה",אליהו גולומב 23,6536-744-2,דירה בבית קומות,4.0,"קרקע, ראשונה",92.2,790000,,,1982.0,,1.0,7709383936,1,6536744,False,,הרצלייה,גולומב אליהו,,6536-744-2,6536/744,8568.329718004337,32.1744531277,34.8439855048,2004
2004-11-19,2004-11-19,"מדינת היהודים 2, הרצלייה",מדינת היהודים 2,6517-413-20,דירה בבית קומות,4.0,שלישית,77.4,2811000,,,1998.0,,7.0,7708866898,1,6517413,False,,הרצלייה,מדינת היהודים,,6517-413-20,6517/413,36317.829457364336,32.1682546563,34.8008163755,2004
2004-11-18,2004-11-18,"העוגן 4, הרצלייה",העוגן 4,6516-16-42,דירה בבית קומות,2.0,רביעית,56.3,935000,,,2005.0,,6.0,7770294668,1,651616,False,,הרצלייה,העוגן,,6516-16-42,6516/16,16607.460035523978,32.1591960165,34.7947789632,2004
2004-11-18,2004-11-18,"העוגן 4, הרצלייה",העוגן 4,6516-16-134,דירה בבית קומות,1.0,קרקע,57.9,878000,,,2005.0,,6.0,7770296444,1,651616,False,,הרצלייה,העוגן,,6516-16-134,6516/16,15164.075993091536,32.1591960165,34.7947789632,2004
2004-11-18,2004-11-18,"העוגן 4, הרצלייה",העוגן 4,6516-16-47,דירה בבית קומות,4.0,חמישית,104.2,3437000,,,2005.0,,6.0,7770294076,1,651616,False,,הרצלייה,העוגן,,6516-16-47,6516/16,32984.644913627635,32.1591960165,34.7947789632,2004
2004-11-18,2004-11-18,"ריינס 21, הרצלייה",ריינס 21,6533-272-4,דירה בבית קומות,3.0,שניה,64.78,736000,,,1996.0,,3.0,7709990662,1,6533272,False,,הרצלייה,ריינס,,6533-272-4,6533/272,11361.531336832357,32.1642373566,34.8398824942,2004
2004-11-18,2004-11-18,"רמב""ם 7, הרצלייה","רמב""ם 7",6538-393-10,דירה בבית קומות,3.0,שלישית,52.7,649000,,,1960.0,,3.0,7708709944,1,6538393,True,-6% ב 2.7 שנים,הרצלייה,"רמב""ם",-2.22,6538-393-10,6538/393,12314.990512333963,32.1637191983,34.8436357641,2004
2004-11-18,2004-11-18,"העוגן 4, הרצלייה",העוגן 4,6516-16-38,דירה בבית קומות,2.0,רביעית,61.6,1118000,,,2005.0,,6.0,7770320938,1,651616,False,,הרצלייה,העוגן,,6516-16-38,6516/16,18149.35064935065,32.1591960165,34.7947789632,2004
2004-11-17,2004-11-17,"השופטים 4, הרצלייה",השופטים 4,6546-554-15,דירה בבית קומות,5.0,רביעית,113.0,1052000,,,1980.0,,9.0,7709263686,1,6546554,False,,הרצלייה,השופטים,,6546-554-15,6546/554,9309.734513274336,32.1539614987,34.8407078581,2004
2004-11-17,2004-11-17,"המנופים 8, הרצלייה",המנופים 8,6592-105-35,משרד,,שניה,127.3,4638000,,,2003.0,,4.0,7709703172,1,6592105,False,,הרצלייה,המנופים,,6592-105-35,6592/105,36433.62136684996,32.1597330259,34.8072130684,2004
2004-11-16,2004-11-16,"דוד שמעוני 18, הרצלייה",דוד שמעוני 18,6526-295-13,דירה בבית קומות,5.0,רביעית,117.9,1466000,,,2005.0,,8.0,7709058484,1,6526295,False,,הרצלייה,שמעוני דוד,,6526-295-13,6526/295,12434.266327396095,32.1725509174,34.8365674126,2004
2004-11-16,2004-11-16,"זבולון 2, הרצלייה",זבולון 2,6517-400-50,דירה בבית קומות,2.0,שניה+ביניים,50.35,1205000,,,1990.0,,7.0,7709893648,1,6517400,False,,הרצלייה,זבולון,,6517-400-50,6517/400,23932.472691161867,32.1677311795,34.8004387596,2004
2004-11-16,2004-11-16,"פסמן 23, הרצלייה",פסמן 23,6546-593-1,דירה בבית קומות,5.0,קרקע תחתונה + קרקע,265.78,1971000,,,1995.0,,1.0,7709213514,1,6546593,False,,הרצלייה,פסמן,,6546-593-1,6546/593,7415.907893746708,32.1547983462,34.8461014564,2004
2004-11-16,2004-11-16,"פסמן 25, הרצלייה",פסמן 25,6546-592-4,קוטג' דו משפחתי,5.0,מרתף+ראשונה+שניה,168.16,1830000,,,1977.0,,1.0,7708683008,1,6546592,False,,הרצלייה,פסמן,,6546-592-4,6546/592,10882.492863939106,32.1549830388,34.8460772054,2004
2004-11-16,2004-11-16,"העוגן 4, הרצלייה",העוגן 4,6516-16-170,דירה בבית קומות,3.0,רביעית,71.8,824000,,,2005.0,,6.0,7710161084,1,651616,False,,הרצלייה,העוגן,,6516-16-170,6516/16,11476.323119777158,32.1591960165,34.7947789632,2004
2004-11-16,2004-11-16,"הגבורה 14, הרצלייה",הגבורה 14,6668-793-2,קוטג' דו משפחתי,5.0,קרקע,125.95,2813000,,,1970.0,,,7708630542,1,6668793,False,,הרצלייה,הגבורה,,6668-793-2,6668/793,22334.259626836047,32.1717526811,34.802353006,2004
2004-11-15,2004-11-15,"נווה עובד 13, הרצלייה",נווה עובד 13,6669-468-2,דירה בבית קומות,3.0,קרקע,46.0,1368000,,,1950.0,,1.0,7710189278,1,6669468,False,,הרצלייה,נוה עובד,,6669-468-2,6669/468,29739.130434782608,32.1861377612,34.8139969023,2004
2004-11-15,2004-11-15,"פנחס רוזן 14, הרצלייה",פנחס רוזן 14,6521-128-3,קוטג' טורי,3.0,קרקע,61.09,992000,,,1999.0,,2.0,7708766110,1,6521128,False,,הרצלייה,רוזן פנחס,,6521-128-3,6521/128,16238.336880013094,32.1647576079,34.8163272845,2004
2004-11-14,2004-11-14,"אלברט איינשטיין 1, הרצלייה",אלברט איינשטיין 1,6668-1427-11,דירה בבית קומות,4.0,קומה ‎1‏,100.0,3808000,,,2004.0,,2.0,7708948076,1,66681427,False,,הרצלייה,איינשטיין,,6668-1427-11,6668/1427,38080.0,32.1755756832,34.802882237,2004
2004-11-11,2004-11-11,"הנדיב 11, הרצלייה",הנדיב 11,6529-185-4,דירה בבית קומות,4.0,שניה,87.0,815000,,,1970.0,,3.0,7708853430,1,6529185,False,,הרצלייה,הנדיב,,6529-185-4,6529/185,9367.816091954022,32.1680152595,34.8396330371,2004
2004-11-11,2004-11-11,"הפרטיזנים 26, הרצלייה",הפרטיזנים 26,6558-782-4,דירה בבית קומות,3.0,ראשונה,61.4,577000,,,1979.0,,3.0,7708411354,1,6558782,False,,הרצלייה,הפרטיזנים,,6558-782-4,6558/782,9397.394136807818,32.1689430086,34.859621068,2004
2004-11-11,2004-11-11,"כלנית 1, הרצלייה",כלנית 1,6544-100-16,קוטג' חד משפחתי,5.0,מרתף+קרקע+ראשונה,213.0,2438000,,,1998.0,,,7708752642,1,6544100,False,,הרצלייה,כלנית,,6544-100-16,6544/100,11446.00938967136,32.1506290471,34.8493067506,2004
2004-11-11,2004-11-11,"עמיר 24, הרצלייה",עמיר 24,6542-164-1,דירה בבית קומות,5.0,,172.0,2347000,,,2004.0,,,7708713052,1,6542164,False,,הרצלייה,עמיר,,6542-164-1,6542/164,13645.348837209302,32.1565848376,34.8506440533,2004
2004-11-10,2004-10-11,"הר שומרון 3, הרצלייה",הר שומרון 3,6577-160-26,דירה בבית קומות,3.0,שלישית,49.1,400000,,,1960.0,,4.0,7707397924,1,6577160,False,,הרצלייה,הר שומרון,,6577-160-26,6577/160,8146.639511201629,32.176306508,34.8556765963,2004
2004-11-10,2004-10-11,"בני בנימין 16, הרצלייה",בני בנימין 16,6528-28-6,דירה בבית קומות,4.0,שניה,81.0,970000,,,1974.0,,3.0,7707325774,1,652828,False,24% ב 3.2 שנים,הרצלייה,בני בנימין,7.5,6528-28-6,6528/28,11975.308641975307,32.1711330807,34.8404485176,2004
2004-11-08,2004-08-11,"מודיעין 33, הרצלייה",מודיעין 33,6517-123-1,קוטג' חד משפחתי,6.0,ראשונה,200.0,3741000,,,1989.0,,,7706129860,1,6517123,False,,הרצלייה,מודיעין,,6517-123-1,6517/123,18705.0,32.1660020533,34.8011282577,2004
2004-11-08,2004-08-11,"הקדמה 8, הרצלייה",הקדמה 8,6669-483-2,קוטג' חד משפחתי,6.0,ראשונה,160.0,4036000,,,1995.0,,1.0,7705611638,1,6669483,False,,הרצלייה,הקדמה,,6669-483-2,6669/483,25225.0,32.1873341327,34.8130886277,2004
2004-11-08,2004-08-11,"הזוהר 16, הרצלייה",הזוהר 16,6540-32-1,קוטג' חד משפחתי,4.0,ראשונה + שניה,107.0,1473000,,,1977.0,,2.0,7705027334,1,654032,False,,הרצלייה,הזוהר,,6540-32-1,6540/32,13766.355140186915,32.1619063757,34.8511834668,2004
2004-11-08,2004-08-11,"ויצמן 41, הרצלייה",ויצמן 41,6534-167-2,דירה בבית קומות,3.0,רביעית,75.0,958000,1.0,,2003.0,,7.0,7705394892,1,6534167,False,,הרצלייה,ויצמן,,6534-167-2,6534/167,12773.333333333334,32.1663992507,34.8379717748,2004
2004-11-08,2004-08-11,"סוקולוב 53, הרצלייה",סוקולוב 53,6531-13-57,דירה בבית קומות,4.0,חמישית,71.0,775000,,,1960.0,,11.0,7705329994,1,653113,False,,הרצלייה,סוקולוב,,6531-13-57,6531/13,10915.49295774648,32.1674543973,34.8444916307,2004
2004-11-07,2004-07-11,"הבנים 43, הרצלייה",הבנים 43,6538-197-4,קוטג' דו משפחתי,6.0,מרתף+קרקע+ראשונה,196.5,2083000,,,1980.0,,,7704441846,1,6538197,False,10% ב 2.6 שנים,הרצלייה,הבנים,3.85,6538-197-4,6538/197,10600.508905852415,32.1627482562,34.8487391379,2004
2004-11-07,2004-07-11,"דוד אלרואי 4, הרצלייה",דוד אלרואי 4,7291-140-10,דירה בבית קומות,3.0,שניה,37.7,528000,,,1952.0,,2.0,7705826460,1,7291140,False,,הרצלייה,אלרואי דוד,,7291-140-10,7291/140,14005.305039787798,32.1570531023,34.8385050846,2004
2004-11-07,2004-07-11,"אמנון ותמר 9, הרצלייה",אמנון ותמר 9,6544-64-1,חנות,,"מרתף ‎-1‏, קומה ‎0‏",51.28,1985000,,,1996.0,,5.0,7705488872,1,654464,False,,הרצלייה,אמנון ותמר,,6544-64-1,6544/64,38709.04836193448,32.1533016288,34.8495962377,2004
2004-11-05,2004-05-11,"אבא אבן 23, הרצלייה",אבא אבן 23,6419-53-7,דירה בבית קומות,4.0,שניה,112.0,2366000,,,1970.0,,3.0,7702143406,1,641953,False,,הרצלייה,אבא אבן,,6419-53-7,6419/53,21125.0,32.1640161787,34.8047617843,2004
2004-11-05,2004-05-11,"חבצלת השרון 50, הרצלייה",חבצלת השרון 50,6668-699-1,קוטג' דו משפחתי,7.0,ראשונה,360.0,9221000,,,1990.0,,1.0,7701230098,1,6668699,False,,הרצלייה,חבצלת השרון,,6668-699-1,6668/699,25613.88888888889,32.1779745817,34.8039538127,2004
2004-11-04,2004-04-11,"דון יוסף הנשיא 21, הרצלייה",דון יוסף הנשיא 21,6527-374-5,דירה בבית קומות,4.0,שלישית,72.0,596000,1.0,אבן גבירול 42 ו-44 הרצליה,1974.0,,4.0,7700415580,1,6527374,False,,הרצלייה,דון יוסף הנשיא,,6527-374-5,6527/374,8277.777777777777,32.1644470995,34.8335409222,2004
2004-11-03,2004-03-11,"מזא""ה 8, הרצלייה","מזא""ה 8",6538-185-6,דירה בבית קומות,3.0,קומה ‎1‏,87.03,781000,,,1972.0,,6.0,7699137822,1,6538185,False,,הרצלייה,"מזא""ה",,6538-185-6,6538/185,8973.917040101114,32.1630916655,34.846963357,2004
2004-11-02,2004-02-11,"הפרטיזנים 26, הרצלייה",הפרטיזנים 26,6558-782-10,דירה בבית קומות,3.0,שלישית,61.4,501000,,,2019.0,,3.0,7698477890,1,6558782,False,1% ב 4 שנים,הרצלייה,הפרטיזנים,0.25,6558-782-10,6558/782,8159.609120521173,32.1689430086,34.859621068,2004
2004-11-01,2004-01-11,"הרב קוק 54, הרצלייה",הרב קוק 54,6535-47-7,,3.0,שניה,80.0,701000,,,1990.0,,3.0,7697451658,1,653547,False,6% ב 5.8 שנים,הרצלייה,הרב קוק,1.03,6535-47-7,6535/47,8762.5,32.1627529127,34.8342384051,2004
2004-10-31,2004-10-31,"אלי לנדאו 50, הרצלייה",אלי לנדאו 50,6668-1364-70,דירה בבית קומות,2.0,תשיעית,50.0,1787000,,,1993.0,,14.0,7708590878,1,66681364,False,,הרצלייה,רמת ים,,6668-1364-70,6668/1364,35740.0,32.1729217818,34.8010746527,2004
2004-10-29,2004-10-29,"רופין 6, הרצלייה",רופין 6,6533-100-3,דירה בבית קומות,4.0,ראשונה,78.84,737000,,,1956.0,,1.0,7708414388,1,6533100,False,,הרצלייה,רופין,,6533-100-3,6533/100,9348.0466768138,32.1666486542,34.8412992202,2004
2004-10-29,2004-10-29,"עמיר 24, הרצלייה",עמיר 24,6542-165-1,דירה בבית קומות,5.0,,240.0,2321000,,,2004.0,,,7709295432,1,6542165,False,,הרצלייה,עמיר,,6542-165-1,6542/165,9670.833333333334,32.1564972698,34.8506535665,2004
2004-10-28,2004-10-28,"הבשן 3, הרצלייה",הבשן 3,6577-168-11,דירה בבית קומות,2.0,שלישית,37.6,318000,,,1960.0,,4.0,7707858278,1,6577168,False,,הרצלייה,הבשן,,6577-168-11,6577/168,8457.446808510638,32.1762413493,34.8539098646,2004
2004-10-27,2004-10-27,"אלי לנדאו 2, הרצלייה",אלי לנדאו 2,6668-1374-199,דירה בבית קומות,1.0,שישית,36.0,553000,,,1970.0,,15.0,7708755676,1,66681374,False,,הרצלייה,רמת ים,,6668-1374-199,6668/1374,15361.111111111111,32.1789670705,34.8029711574,2004
2004-10-27,2004-10-27,"הס 2, הרצלייה",הס 2,6533-109-14,משרד,,ראשונה,,71000,,,1960.0,,12.0,7708826494,1,6533109,False,,הרצלייה,הס,,6533-109-14,6533/109,,32.1670170217,34.8406264958,2004
2004-10-27,2004-10-27,"וינגייט 13, הרצלייה",וינגייט 13,6668-637-1,קוטג' חד משפחתי,6.0,ראשונה,300.0,5009000,,,1975.0,,1.0,7707865604,1,6668637,False,,הרצלייה,וינגייט,,6668-637-1,6668/637,16696.666666666668,32.1827051483,34.8080260246,2004
2004-10-26,2004-10-26,"הנעורים 7, הרצלייה",הנעורים 7,6663-303-1,דירה בבית קומות,3.0,ראשונה,98.0,554000,,,1974.0,,4.0,7707987186,1,6663303,False,,הרצלייה,הנעורים,,6663-303-1,6663/303,5653.061224489796,32.1793855089,34.8431426146,2004
2004-10-26,2004-10-26,"ריינס 3, הרצלייה",ריינס 3,6533-262-2,דירה בבית קומות,2.0,ראשונה,42.35,531000,,,1988.0,,3.0,7707939974,1,6533262,False,,הרצלייה,ריינס,,6533-262-2,6533/262,12538.3707201889,32.1657759049,34.8384569567,2004
2004-10-25,2004-10-25,"אסירי ציון 13, הרצלייה",אסירי ציון 13,6672-184-1,קוטג' דו משפחתי,2.0,,60.0,1151000,,,1950.0,,,7707600610,1,6672184,False,,הרצלייה,אסירי ציון,,6672-184-1,6672/184,19183.33333333333,32.1833008901,34.8342878582,2004
2004-10-25,2004-10-25,"שפיק עדס 2, הרצלייה",שפיק עדס 2,6529-67-4,דירה בבית קומות,5.0,רביעית,120.0,1523000,,,1957.0,,1.0,7707659218,1,652967,False,,הרצלייה,עדס,,6529-67-4,6529/67,12691.666666666666,32.1686477221,34.8371479581,2004
2004-10-24,2004-10-24,"כיבוש העבודה 21, הרצלייה",כיבוש העבודה 21,6536-897-4,דירה בבית קומות,4.0,ראשונה,113.39,1124000,,,1991.0,,3.0,7708061630,1,6536897,False,,הרצלייה,כבוש העבודה,,6536-897-4,6536/897,9912.690713466796,32.1728451371,34.8435215749,2004
2004-10-24,2004-10-24,"האילנות 27, הרצלייה",האילנות 27,6663-295-10,דירה בבית קומות,4.0,שלישית,98.8,688000,,,1970.0,,4.0,7707552880,1,6663295,False,,הרצלייה,האילנות,,6663-295-10,6663/295,6963.562753036437,32.1787958119,34.8436281917,2004
2004-10-24,2004-10-24,"חוני המעגל 4, הרצלייה",חוני המעגל 4,6558-660-13,דירה בבית קומות,1.0,ראשונה,31.5,900000,,,1950.0,,2.0,7708096928,1,6558660,False,,הרצלייה,חוני המעגל,,6558-660-13,6558/660,28571.42857142857,32.1670220219,34.8562111898,2004
2004-10-24,2004-10-24,"אמנון ותמר 10, הרצלייה",אמנון ותמר 10,6544-61-2,דירה בבית קומות,4.0,ראשונה,124.7,1261000,,,1990.0,,6.0,7707627472,1,654461,False,,הרצלייה,אמנון ותמר,,6544-61-2,6544/61,10112.269446672011,32.1524542162,34.8498058566,2004
2004-10-22,2004-10-22,"שבט מנשה 24, הרצלייה",שבט מנשה 24,6667-309-2,קוטג' חד משפחתי,6.0,ראשונה,700.0,4443000,,,1975.0,,2.0,7708198900,1,6667309,False,,הרצלייה,שבט מנשה,,6667-309-2,6667/309,6347.142857142857,32.1751139096,34.8095426443,2004
2004-10-21,2004-10-21,"דוד שמעוני 18, הרצלייה",דוד שמעוני 18,6526-295-21,דירה בבית קומות,5.0,שביעית,117.9,1510000,,,2005.0,,8.0,7708480914,1,6526295,False,,הרצלייה,שמעוני דוד,,6526-295-21,6526/295,12807.46395250212,32.1725509174,34.8365674126,2004
2004-10-21,2004-10-21,"א""ד גורדון 2, הרצלייה","א""ד גורדון 2",6546-190-1,קוטג' חד משפחתי,4.0,,79.0,1599000,,,2006.0,,1.0,7708523020,1,6546190,False,,הרצלייה,גורדון א ד,,6546-190-1,6546/190,20240.506329113923,32.1601602491,34.8440616553,2004
2004-10-21,2004-10-21,"אגס 2, הרצלייה",אגס 2,6558-844-2,דירה בבית קומות,4.0,קרקע,91.2,999000,,,1994.0,,1.0,7707554212,1,6558844,False,,הרצלייה,אגס,,6558-844-2,6558/844,10953.947368421052,32.1708482681,34.8579217005,2004
2004-10-21,2004-10-21,"זיסו 27, הרצלייה",זיסו 27,6577-216-2,דירה בבית קומות,3.0,ראשונה,61.3,519000,,,1965.0,,3.0,7707552288,1,6577216,False,,הרצלייה,זיסו,,6577-216-2,6577/216,8466.557911908647,32.1776024353,34.855314258,2004
2004-10-21,2004-10-21,"בר כוכבא 18, הרצלייה",בר כוכבא 18,6424-81-1,קוטג' דו משפחתי,4.0,ראשונה,75.0,1199000,,,1955.0,,1.0,7708448576,1,642481,False,,הרצלייה,בר כוכבא,,6424-81-1,6424/81,15986.666666666666,32.1608554695,34.8366096548,2004
2004-10-20,2004-10-20,"רמת ים 1, הרצלייה",רמת ים 1,6668-1406-32,דירה בבית קומות,2.0,שניה,51.8,1223000,,,2000.0,,7.0,7707817356,1,66681406,False,,הרצלייה,רמת ים,,6668-1406-32,6668/1406,23610.038610038613,32.178786113,34.8041369757,2004
2004-10-20,2004-10-20,"המגינים 5, הרצלייה",המגינים 5,6666-380-7,קוטג' חד משפחתי,5.0,ראשונה,180.0,2582000,,,1986.0,,1.0,7707532234,1,6666380,False,,הרצלייה,המגינים,,6666-380-7,6666/380,14344.444444444443,32.1722218949,34.8134230612,2004
2004-10-20,2004-10-20,"זלמן ארן 1, הרצלייה",זלמן ארן 1,6536-775-2,קוטג' דו משפחתי,6.0,מרתף+קרקע+ראשונה+גג,165.08,1563000,,,1980.0,,,7707707466,1,6536775,False,,הרצלייה,ארן זלמן,,6536-775-2,6536/775,9468.13666101284,32.17415815,34.8451690418,2004
2004-10-19,2004-10-19,"דוד אלרואי 32, הרצלייה",דוד אלרואי 32,6424-155-28,דירה בבית קומות,5.0,שביעית,109.72,1342000,,,2002.0,,15.0,7708055488,1,6424155,False,,הרצלייה,אלרואי דוד,,6424-155-28,6424/155,12231.133795114838,32.1587407952,34.8382406092,2004
2004-10-19,2004-10-19,"בר-כוכבא 119, הרצלייה",בר-כוכבא 119,6546-781-23,דירה בבית קומות,5.0,שישית,133.37,1111000,,,1985.0,,8.0,7707772660,1,6546781,False,,הרצלייה,בר כוכבא,,6546-781-23,6546/781,8330.20919247207,32.1580270728,34.8413925735,2004
2004-10-18,2004-10-18,"הרב מרדכי הלפרין 10, הרצלייה",הרב מרדכי הלפרין 10,6533-171-1,דירה בבית קומות,2.0,שניה,50.0,435000,,,1953.0,,2.0,7707790420,1,6533171,False,,הרצלייה,הרב הלפרין מרדכי,,6533-171-1,6533/171,8700.0,32.1648000651,34.84054853,2004
2004-10-17,2004-10-17,"סוקולוב 20, הרצלייה",סוקולוב 20,6533-91-16,דירה בבית קומות,4.0,שניה,78.07,691000,,,1940.0,,2.0,7707541410,1,653391,False,,הרצלייה,סוקולוב,,6533-91-16,6533/91,8851.031125912643,32.1670385091,34.841715656,2004
2004-10-17,2004-10-17,"הברוש 21, הרצלייה",הברוש 21,6669-278-1,קוטג' חד משפחתי,5.0,מרתף+קרקע+ראשונה+גג,245.4,3013000,,,1980.0,,,7707948632,1,6669278,False,11% ב 2.8 שנים,הרצלייה,הברוש,3.93,6669-278-1,6669/278,12277.913610431948,32.1860152703,34.8093132425,2004
2004-10-17,2004-10-17,"התנאים 1, הרצלייה",התנאים 1,6546-772-10,דירה בבית קומות,4.0,שלישית,120.0,1133000,,,1985.0,,9.0,7707509072,1,6546772,False,,הרצלייה,התנאים,,6546-772-10,6546/772,9441.666666666666,32.1529614485,34.8408514756,2004
2004-10-17,2004-10-17,"החיצים 22, הרצלייה",החיצים 22,6558-276-1,דירה בבית קומות,4.0,ראשונה,100.0,1205000,,,1950.0,,1.0,7708668356,1,6558276,False,,הרצלייה,החיצים,,6558-276-1,6558/276,12050.0,32.1658233125,34.8601430508,2004
2004-10-16,2004-10-16,"הר סיני 18, הרצלייה",הר סיני 18,6577-126-6,דירה בבית קומות,5.0,ראשונה,110.0,624000,,,1960.0,,2.0,7708695292,1,6577126,False,,הרצלייה,הר סיני,,6577-126-6,6577/126,5672.727272727273,32.1735215977,34.8543748008,2004
2004-10-08,2004-08-10,"שמואל הנגיד 18, הרצלייה",שמואל הנגיד 18,6527-302-6,דירה בבית קומות,4.0,שניה,72.1,782000,,,1970.0,,7.0,7705287370,1,6527302,False,,הרצלייה,שמואל הנגיד,,6527-302-6,6527/302,10846.047156726769,32.1671058472,34.8339881531,2004
2004-10-08,2004-08-10,"רמת ים 1, הרצלייה",רמת ים 1,6668-1406-92,דירה בבית קומות,3.0,רביעית,58.45,1181000,,,2000.0,,7.0,7705632284,1,66681406,False,,הרצלייה,רמת ים,,6668-1406-92,6668/1406,20205.30367835757,32.178786113,34.8041369757,2004
2004-10-08,2004-08-10,"וינגייט 162, הרצלייה",וינגייט 162,6517-404-2,קוטג' דו משפחתי,6.0,מרתף+קרקע+ראשונה+שני,347.9,5201000,,,2003.0,,3.0,7705008464,1,6517404,False,,הרצלייה,וינגייט,,6517-404-2,6517/404,14949.69818913481,32.1669725562,34.8027728501,2004
2004-10-05,2004-05-10,"השרון 30, הרצלייה",השרון 30,6538-489-7,דירה בבית קומות,4.0,רביעית גג,100.41,1151000,,,1980.0,,5.0,7701700146,1,6538489,False,,הרצלייה,השרון,,6538-489-7,6538/489,11463.00169305846,32.1638573262,34.8403967206,2004
2004-10-05,2004-05-10,"הפועל 66, הרצלייה",הפועל 66,6669-413-1,קוטג' דו משפחתי,6.0,ראשונה,330.0,5733000,,,1980.0,,1.0,7701898540,1,6669413,False,,הרצלייה,הפועל,,6669-413-1,6669/413,17372.727272727272,32.1826480851,34.8144287146,2004
2004-10-03,2004-03-10,"התנאים 2, הרצלייה",התנאים 2,6546-552-18,דירה בבית קומות,5.0,חמישית,136.0,1595000,,,1998.0,,18.0,7699113328,1,6546552,False,19% ב 5.6 שנים,הרצלייה,התנאים,3.39,6546-552-18,6546/552,11727.941176470587,32.1536485906,34.8410869289,2004
2004-10-02,2004-02-10,"קפלן 88, הרצלייה",קפלן 88,6668-1024-1,,5.0,קרקע  ראשונה,143.07,3355000,,,1962.0,,2.0,7698216596,1,66681024,False,,הרצלייה,קפלן,,6668-1024-1,6668/1024,23450.0594114769,32.1751596242,34.8050744586,2004
2004-10-02,2004-02-10,"ויצמן 22, הרצלייה",ויצמן 22,6534-57-18,,3.0,שלישית,62.0,612000,,,1960.0,,3.0,7697794130,1,653457,False,,הרצלייה,ויצמן,,6534-57-18,6534/57,9870.967741935485,32.1655217802,34.8377660851,2004
2004-09-29,2004-09-29,"הקסם 7, הרצלייה",הקסם 7,6546-148-4,דירה בבית קומות,5.0,שלישית+רביעית,105.25,1187000,,,1991.0,,3.0,7707668320,1,6546148,False,3% ב 4.9 שנים,הרצלייה,הקסם,0.61,6546-148-4,6546/148,11277.90973871734,32.1602825273,34.8415034362,2004
2004-09-28,2004-09-28,"רמז 19, הרצלייה",רמז 19,6558-110-1,קוטג' דו משפחתי,6.0,ראשונה,149.0,1299000,,,1950.0,,1.0,7707557838,1,6558110,False,,הרצלייה,רמז,,6558-110-1,6558/110,8718.120805369128,32.1668295032,34.8534847375,2004
2004-09-28,2004-09-28,"שד""ל 2, הרצלייה","שד""ל 2",6526-212-1,קוטג' דו משפחתי,5.0,,176.0,1747000,,,2000.0,,,7707412576,1,6526212,False,,הרצלייה,"שד""ל",,6526-212-1,6526/212,9926.136363636364,32.1707586838,34.8332391481,2004
2004-09-28,2004-09-28,"העוגן 2, הרצלייה",העוגן 2,6516-56-125,דירה בבית קומות,2.0,שביעית,50.0,1614000,,,2000.0,,12.0,7707180586,1,651656,False,,הרצלייה,העוגן,,6516-56-125,6516/56,32280.0,32.15935782,34.795784469,2004
2004-09-28,2004-09-28,"בוסל 12, הרצלייה",בוסל 12,6530-284-6,דירה בבית קומות,5.0,שניה+שלישית,114.25,1422000,,,1989.0,,4.0,7707174444,1,6530284,False,,הרצלייה,בוסל,,6530-284-6,6530/284,12446.389496717724,32.1701631308,34.8436538187,2004
2004-09-28,2004-09-28,"צמרות 6, הרצלייה",צמרות 6,6546-860-56,דירה בבית קומות,5.0,ארבע עשרה,143.0,1948000,,,1995.0,,18.0,7706944970,1,6546860,False,,הרצלייה,צמרות,,6546-860-56,6546/860,13622.377622377622,32.1515422074,34.8446436986,2004
2004-09-27,2004-09-27,"אחד העם 13, הרצלייה",אחד העם 13,6532-174-5,דירה בבית קומות,4.0,שלישית,73.0,721000,,,1970.0,,3.0,7706763522,1,6532174,False,,הרצלייה,אחד העם,,6532-174-5,6532/174,9876.712328767124,32.1676690454,34.8462270552,2004
2004-09-27,2004-09-27,"כיסופים 1, הרצלייה",כיסופים 1,7291-243-20,דירה בבית קומות,5.0,קרקע+ראשונה+שניה,123.0,1143000,,,1988.0,,2.0,7707467632,1,7291243,False,,הרצלייה,כסופים,,7291-243-20,7291/243,9292.682926829268,32.1550357618,34.8352626998,2004
2004-09-27,2004-09-27,"קבוץ גלויות 52, הרצלייה",קבוץ גלויות 52,6558-864-8,דירה בבית קומות,4.0,קרקע,105.08,1086000,,,2004.0,,2.0,7707208706,1,6558864,False,,הרצלייה,קבוץ גלויות,,6558-864-8,6558/864,10334.98287019414,32.171169697,34.8601428806,2004
2004-09-23,2004-09-23,"הראשונים 3, הרצלייה",הראשונים 3,6533-253-22,דירה בבית קומות,4.0,ראשונה,88.0,672000,,,1970.0,,3.0,7707100592,1,6533253,False,,הרצלייה,הראשונים,,6533-253-22,6533/253,7636.363636363636,32.1680611227,34.8422593314,2004
2004-09-23,2004-09-23,"הס 50, הרצלייה",הס 50,6538-665-44,משרד,,שניה,33.81,391000,,,1995.0,,4.0,7708241672,1,6538665,False,,הרצלייה,הס,,6538-665-44,6538/665,11564.625850340137,32.1629578179,34.8420169278,2004
2004-09-23,2004-09-23,"העצמאות 57, הרצלייה",העצמאות 57,6531-120-11,דירה בבית קומות,2.0,שלישית,40.6,502000,,,1960.0,,3.0,7706749462,1,6531120,False,13% ב 4.2 שנים,הרצלייה,העצמאות,3.1,6531-120-11,6531/120,12364.532019704431,32.1651386647,34.8449671204,2004
2004-09-23,2004-09-23,"חזקיהו המלך 23, הרצלייה",חזקיהו המלך 23,6666-419-3,קוטג' דו משפחתי,6.0,ראשונה,260.0,2331000,,,1986.0,,1.0,7707957142,1,6666419,False,,הרצלייה,חזקיהו המלך,,6666-419-3,6666/419,8965.384615384615,,,2004
2004-09-23,2004-09-23,"אריה לייב יפה 36, הרצלייה",אריה לייב יפה 36,6536-597-13,דירה בבית קומות,3.0,שניה,68.5,798000,,,1978.0,,4.0,7707259248,1,6536597,False,,הרצלייה,יפה אריה לייב,,6536-597-13,6536/597,11649.635036496353,32.1704827296,34.8471047398,2004
2004-09-22,2004-09-22,"חובבי ציון 6, הרצלייה",חובבי ציון 6,6546-239-1,דירת גן,4.0,ראשונה,129.0,1014000,,,1990.0,,2.0,7706436294,1,6546239,False,,הרצלייה,חובבי ציון,,6546-239-1,6546/239,7860.46511627907,32.1556782431,34.841272179,2004
2004-09-22,2004-09-22,"נתן אלתרמן 9, הרצלייה",נתן אלתרמן 9,6526-112-6,דירה בבית קומות,4.0,שניה,92.0,895000,,,1984.0,,4.0,7707123754,1,6526112,False,,הרצלייה,אלתרמן נתן,,6526-112-6,6526/112,9728.260869565218,32.1741250552,34.8399453198,2004
2004-09-22,2004-09-22,"העוגן 2, הרצלייה",העוגן 2,6516-56-127,דירה בבית קומות,2.0,רביעית,50.0,1365000,,,2000.0,,12.0,7707317486,1,651656,False,,הרצלייה,העוגן,,6516-56-127,6516/56,27300.0,32.15935782,34.795784469,2004
2004-09-21,2004-09-21,"יהלום 3, הרצלייה",יהלום 3,6526-242-4,דירה בבית קומות,5.0,ראשונה,120.98,1253000,,,1993.0,,3.0,7707073804,1,6526242,False,,הרצלייה,יהלום,,6526-242-4,6526/242,10357.083815506696,32.1737774698,34.8420333095,2004
2004-09-20,2004-09-20,"זיסו 36, הרצלייה",זיסו 36,6577-158-15,דירה בבית קומות,3.0,שניה,44.1,432000,,,1960.0,,4.0,7706945562,1,6577158,False,,הרצלייה,זיסו,,6577-158-15,6577/158,9795.918367346938,32.1769298629,34.8553953177,2004
2004-09-19,2004-09-19,"הבנים 65, הרצלייה",הבנים 65,6540-85-49,דירה בבית קומות,3.0,שלישית,76.0,828000,,,1990.0,,4.0,7707048126,1,654085,False,,הרצלייה,הבנים,,6540-85-49,6540/85,10894.736842105263,32.1634791566,34.8506010791,2004
2004-09-19,2004-09-19,"הר סיני 2, הרצלייה",הר סיני 2,6577-54-18,דירה בבית קומות,2.0,שלישית,39.7,530000,,,1960.0,,3.0,7706860092,1,657754,False,,הרצלייה,הר סיני,,6577-54-18,6577/54,13350.125944584384,32.1726079137,34.8526548833,2004
2004-09-19,2004-09-19,"סוקולוב 53, הרצלייה",סוקולוב 53,6531-13-9,חנות,,קרקע,,67000,,,1960.0,,11.0,7707427228,1,653113,False,,הרצלייה,סוקולוב,,6531-13-9,6531/13,,32.1674543973,34.8444916307,2004
2004-09-14,2004-09-14,"בעל שם טוב 4, הרצלייה",בעל שם טוב 4,6538-672-10,דירה בבית קומות,5.0,חמישית,135.2,1276000,,,1995.0,,6.0,7706278304,1,6538672,True,-4% ב 1.7 שנים,הרצלייה,הבעל שם טוב,-2.35,6538-672-10,6538/672,9437.869822485209,32.1621143994,34.8407767881,2004
2004-09-14,2004-09-14,"פורצי הדרך 8, הרצלייה",פורצי הדרך 8,6560-100-3,דירה בבית קומות,3.0,ראשונה,68.15,786000,,,2000.0,,2.0,7707824090,1,6560100,False,,הרצלייה,פורצי הדרך,,6560-100-3,6560/100,11533.382245047687,32.160218988,34.8639017264,2004
2004-09-13,2004-09-13,"בר-אילן 11, הרצלייה",בר-אילן 11,6533-126-2,דירה בבית קומות,4.0,ראשונה,78.93,1009000,,,2005.0,,4.0,7706582222,1,6533126,False,,הרצלייה,בר אילן,,6533-126-2,6533/126,12783.479032053718,32.1658461981,34.8418019521,2004
2004-09-13,2004-09-13,"הלני המלכה 14, הרצלייה",הלני המלכה 14,6517-88-2,קוטג' חד משפחתי,6.0,ראשונה,170.0,3143000,,,1992.0,,,7707014604,1,651788,False,,הרצלייה,הלני המלכה,,6517-88-2,6517/88,18488.235294117647,32.1668935432,34.8017810611,2004
2004-09-13,2004-09-13,"צבי שפירא 17, הרצלייה",צבי שפירא 17,6539-65-2,דירה בבית קומות,3.0,ראשונה,73.0,921000,,,1973.0,,4.0,7706816580,1,653965,False,,הרצלייה,שפירא צבי,,6539-65-2,6539/65,12616.438356164384,32.1617067355,34.8485848485,2004
2004-09-13,2004-09-13,"הר שומרון 14, הרצלייה",הר שומרון 14,6577-245-2,דירה בבית קומות,3.0,קרקע,61.3,449000,,,1940.0,,3.0,7707035250,1,6577245,False,,הרצלייה,הר שומרון,,6577-245-2,6577/245,7324.632952691681,32.1770923182,34.8561061889,2004
2004-09-12,2004-12-09,"הצנחנים 29, הרצלייה",הצנחנים 29,7291-218-8,דירה בבית קומות,2.0,שניה,34.1,408000,,,1950.0,,2.0,7709509662,1,7291218,False,,הרצלייה,הצנחנים,,7291-218-8,7291/218,11964.809384164222,32.1580952644,34.8395603142,2004
2004-09-12,2004-12-09,"אלי כהן 3, הרצלייה",אלי כהן 3,6529-192-5,דירה בבית קומות,5.0,שניה,109.0,1149000,,,1976.0,,3.0,7709490792,1,6529192,False,,הרצלייה,אלי כהן,,6529-192-5,6529/192,10541.284403669724,32.1694832498,34.8376096511,2004
2004-09-09,2004-09-09,"מדינת היהודים 12, הרצלייה",מדינת היהודים 12,6517-14-40,דירה בבית קומות,2.0,שישית,40.8,900000,,,1980.0,,9.0,7707104218,1,651714,False,,הרצלייה,מדינת היהודים,,6517-14-40,6517/14,22058.82352941177,32.1682137039,34.8016998765,2004
2004-09-09,2004-09-09,"הצפצפות 16, הרצלייה",הצפצפות 16,6664-7-4,קוטג' חד משפחתי,6.0,קרקע+ראשונה,166.1,1204000,,,1978.0,,2.0,7706941270,1,66647,False,,הרצלייה,הצפצפות,,6664-7-4,6664/7,7248.645394340759,32.1772090603,34.8458426229,2004
2004-09-08,2004-08-09,"אחד העם 23, הרצלייה",אחד העם 23,6532-64-3,דירה בבית קומות,3.0,,85.0,1043000,,,1960.0,,1.0,7705403254,1,653264,False,,הרצלייה,אחד העם,,6532-64-3,6532/64,12270.588235294115,32.1662978205,34.8462411849,2004
2004-09-08,2004-08-09,"הבנים 40, הרצלייה",הבנים 40,6539-11-3,קוטג' חד משפחתי,5.0,קרקע+ראשונה,159.71,1669000,,,1985.0,,2.0,7705305648,1,653911,False,,הרצלייה,הבנים,,6539-11-3,6539/11,10450.190971135182,32.162250593,34.849211056,2004
2004-09-06,2004-06-09,"בן סרוק מנחם 20, הרצלייה",בן סרוק מנחם 20,6527-398-5,דירה בבית קומות,3.0,שניה,65.6,701000,,,1979.0,,4.0,7702612196,1,6527398,True,-1% ב 4.4 שנים,הרצלייה,בן סרוק מנחם,-0.23,6527-398-5,6527/398,10685.975609756098,32.1653489036,34.8332756181,2004
2004-09-06,2004-06-09,"צמרות 10, הרצלייה",צמרות 10,6545-38-212,דירה בבית קומות,4.0,חמש עשרה,121.1,2082000,,,2000.0,,29.0,7702393600,1,654538,False,,הרצלייה,צמרות,,6545-38-212,6545/38,17192.402972749795,32.1514074582,34.8458200181,2004
2004-09-06,2004-06-09,"אביב גל 2, הרצלייה",אביב גל 2,6536-722-3,דירה בבית קומות,5.0,שניה,123.0,1422000,,,2005.0,,3.0,7702940164,1,6536722,False,,הרצלייה,אביב,,6536-722-3,6536/722,11560.975609756097,32.1721769376,34.8493004981,2004
2004-09-05,2004-05-09,"שמאי 4, הרצלייה",שמאי 4,6535-96-9,דירה בבית קומות,3.0,שלישית,54.2,665000,,,1970.0,,4.0,7701575012,1,653596,False,,הרצלייה,שמאי,,6535-96-9,6535/96,12269.372693726937,32.1634380604,34.8367074142,2004
2004-09-03,2004-03-09,"יל""ג 9, הרצלייה","יל""ג 9",6530-159-46,,3.0,ראשונה,71.0,749000,,,2024.0,,6.0,7698747028,1,6530159,False,,הרצלייה,"יל""ג",,6530-159-46,6530/159,10549.295774647888,32.1688223282,34.8434662762,2004
2004-09-03,2004-03-09,"הבנים 46, הרצלייה",הבנים 46,6540-66-8,דירה בבית קומות,5.0,שניה,117.36,1225000,,,1980.0,,3.0,7699005954,1,654066,False,,הרצלייה,הבנים,,6540-66-8,6540/66,10437.968643490116,32.1628704476,34.8506135934,2004
2004-09-03,2004-03-09,"ביל""ו 22, הרצלייה","ביל""ו 22",6546-839-11,דירה בבית קומות,3.0,שניה,72.7,692000,,,1967.0,,3.0,7699170234,1,6546839,False,,הרצלייה,"ביל""ו",,6546-839-11,6546/839,9518.56946354883,32.1551744513,34.8412490098,2004
2004-09-03,2004-03-09,"בן-גוריון 18, הרצלייה",בן-גוריון 18,6538-343-9,דירה בבית קומות,4.0,שלישית,80.55,630000,,,1970.0,,4.0,7699063378,1,6538343,False,,הרצלייה,בן גוריון,,6538-343-9,6538/343,7821.22905027933,32.1635638222,34.8423365879,2004
2004-09-02,2004-02-09,"הפרטיזנים 16, הרצלייה",הפרטיזנים 16,6558-780-2,,3.0,ראשונה,59.1,556000,,,2023.0,,3.0,7697793538,1,6558780,False,,הרצלייה,הפרטיזנים,,6558-780-2,6558/780,9407.7834179357,32.1681630022,34.8590416279,2004
2004-09-02,2004-02-09,"סוקולוב 99, הרצלייה",סוקולוב 99,6537-123-2,חנות,,קרקע,27.0,301000,,,1970.0,,3.0,7698236132,1,6537123,False,,הרצלייה,סוקולוב,,6537-123-2,6537/123,11148.148148148148,32.1678174837,34.8506005538,2004
2004-09-02,2004-02-09,"סנש חנה 26, הרצלייה",סנש חנה 26,6424-150-38,דירה בבית קומות,5.0,שביעית,140.21,1831000,,,2002.0,,7.0,7698703812,1,6424150,False,,הרצלייה,סנש חנה,,6424-150-38,6424/150,13058.982954140218,32.15900613,34.8391946766,2004
2004-08-31,2004-08-31,"צמרות 10, הרצלייה",צמרות 10,6545-38-53,דירה בבית קומות,5.0,שנים עשר,143.8,2104000,,,2000.0,,29.0,7705969354,1,654538,False,9% ב 1.7 שנים,הרצלייה,צמרות,5.29,6545-38-53,6545/38,14631.432545201667,32.1514074582,34.8458200181,2004
2004-08-31,2004-08-31,"חוני המעגל 48, הרצלייה",חוני המעגל 48,6558-539-1,דירה בבית קומות,3.0,ראשונה,80.0,1131000,,,1965.0,,1.0,7706333878,1,6558539,False,,הרצלייה,חוני המעגל,,6558-539-1,6558/539,14137.5,32.1662519199,34.8579765387,2004
2004-08-30,2004-08-30,"זיסו 24, הרצלייה",זיסו 24,6577-157-17,דירה בבית קומות,3.0,שלישית,44.1,318000,,,1960.0,,4.0,7706201936,1,6577157,False,,הרצלייה,זיסו,,6577-157-17,6577/157,7210.884353741496,32.1769214972,34.8550681743,2004
2004-08-30,2004-08-30,"לכיש 4, הרצלייה",לכיש 4,6538-388-38,דירה בבית קומות,3.0,שניה,44.8,605000,,,1960.0,,2.0,7706104774,1,6538388,False,,הרצלייה,לכיש,,6538-388-38,6538/388,13504.464285714286,32.1641016323,34.8389530098,2004
2004-08-30,2004-08-30,"אצ""ל 74, הרצלייה","אצ""ל 74",6668-1197-1,קוטג' חד משפחתי,5.0,ראשונה,165.0,2805000,,,1970.0,,1.0,7706092046,1,66681197,False,,הרצלייה,"אצ""ל",,6668-1197-1,6668/1197,17000.0,32.1730027892,34.8073837895,2004
2004-08-29,2004-08-29,"השופטים 4, הרצלייה",השופטים 4,6546-554-34,דירה בבית קומות,5.0,תשיעית,164.0,2500000,,,1980.0,,9.0,7705650636,1,6546554,False,,הרצלייה,השופטים,,6546-554-34,6546/554,15243.90243902439,32.1539614987,34.8407078581,2004
2004-08-29,2004-08-29,"דון יוסף הנשיא 3, הרצלייה",דון יוסף הנשיא 3,6527-368-11,דירה בבית קומות,3.0,שלישית,78.2,643000,,,1970.0,,4.0,7706178108,1,6527368,False,22% ב 5.6 שנים,הרצלייה,דון יוסף הנשיא,3.93,6527-368-11,6527/368,8222.506393861891,32.1652308265,34.831098425,2004
2004-08-29,2004-08-29,"יפה 53, הרצלייה",יפה 53,6536-764-7,דירה בבית קומות,3.0,שניה,53.3,615000,,,1950.0,,3.0,7705635984,1,6536764,False,,הרצלייה,יפה אריה לייב,,6536-764-7,6536/764,11538.46153846154,32.1712895669,34.8501684415,2004
2004-08-29,2004-08-29,"נוף שדמות 6, הרצלייה",נוף שדמות 6,6523-147-1,קוטג' טורי,4.0,,118.0,7092000,,,1990.0,,,7705681272,1,6523147,False,,הרצלייה,נוף שדמות,,6523-147-1,6523/147,60101.69491525424,32.1718486306,34.817811003,2004
2004-08-29,2004-08-29,"נורדאו 23, הרצלייה",נורדאו 23,6520-133-1,מחסנים,,ראשונה,50.0,291000,,,1990.0,,2.0,7706050606,1,6520133,False,,הרצלייה,נורדאו,,6520-133-1,6520/133,5820.0,32.1697482085,34.8153432791,2004
2004-08-27,2004-08-27,"העצמאות 40, הרצלייה",העצמאות 40,6538-474-2,דירה בבית קומות,4.0,ראשונה,80.64,981000,,,1977.0,,5.0,7706113432,1,6538474,False,9% ב 2 שנים,הרצלייה,העצמאות,4.5,6538-474-2,6538/474,12165.17857142857,32.1645261957,34.8419440488,2004
2004-08-26,2004-08-26,"סשה ארגוב 2, הרצלייה",סשה ארגוב 2,6526-240-7,דירה בבית קומות,6.0,שלישית+גג,198.92,1725000,,,1998.0,,3.0,7706118908,1,6526240,False,,הרצלייה,ארגוב סשה,,6526-240-7,6526/240,8671.827870500705,32.1735634194,34.8413833151,2004
2004-08-24,2004-08-24,"בן-גוריון 42, הרצלייה",בן-גוריון 42,6546-881-17,דירה בבית קומות,5.0,חמישית,117.78,1152000,,,1991.0,,9.0,7706419274,1,6546881,False,,הרצלייה,בן גוריון,,6546-881-17,6546/881,9780.9475292919,32.1599307826,34.8420004104,2004
2004-08-24,2004-08-24,"לוי אשכול 36, הרצלייה",לוי אשכול 36,6668-1004-2,קוטג' חד משפחתי,4.0,ראשונה,100.0,5198000,,,1970.0,,1.0,7706012052,1,66681004,False,,הרצלייה,לוי אשכול,,6668-1004-2,6668/1004,51980.0,32.1700771605,34.8055030088,2004
2004-08-23,2004-08-23,"ראשון לציון 5, הרצלייה",ראשון לציון 5,6531-119-5,דירה בבית קומות,2.0,שניה,49.4,602000,,,1965.0,,3.0,7705497900,1,6531119,False,,הרצלייה,ראשון לציון,,6531-119-5,6531/119,12186.234817813764,32.1654279563,34.8450686179,2004
2004-08-23,2004-08-23,"ברנר 10, הרצלייה",ברנר 10,6546-636-5,דירה בבית קומות,5.0,שניה,119.57,1448000,,,1995.0,,3.0,7705850214,1,6546636,False,,הרצלייה,ברנר,,6546-636-5,6546/636,12110.06105210337,32.1569618897,34.8433408318,2004
2004-08-21,2004-08-21,"שלונסקי 8, הרצלייה",שלונסקי 8,6518-147-1,קוטג' חד משפחתי,7.0,ראשונה,290.0,3081000,,,1993.0,,1.0,7705691632,1,6518147,False,,הרצלייה,שלונסקי,,6518-147-1,6518/147,10624.137931034482,32.1690628,34.8082030179,2004
2004-08-19,2004-08-19,"עגנון 72, הרצלייה",עגנון 72,6536-840-6,דירה בבית קומות,4.0,שניה,92.73,759000,,,1991.0,,3.0,7706964432,1,6536840,False,,הרצלייה,עגנון,,6536-840-6,6536/840,8185.053380782918,32.1730542381,34.8515095462,2004
2004-08-19,2004-08-19,"הסדנאות 4, הרצלייה",הסדנאות 4,6592-110-14,משרד,,רביעית,345.1,3403000,,,2004.0,,3.0,7707070696,1,6592110,False,,הרצלייה,הסדנאות,,6592-110-14,6592/110,9860.909881193857,32.1623957984,34.80649594,2004
2004-08-18,2004-08-18,"פעמונית 6, הרצלייה",פעמונית 6,6560-101-6,דירה בבית קומות,4.0,שניה,72.3,712000,,,1992.0,,2.0,7705529720,1,6560101,False,,הרצלייה,פעמונית,,6560-101-6,6560/101,9847.856154910098,32.1598492789,34.8642929779,2004
2004-08-18,2004-08-18,"נחמיה 6, הרצלייה",נחמיה 6,6527-297-2,דירה בבית קומות,4.0,ראשונה,86.65,883000,,,1970.0,,2.0,7705304538,1,6527297,False,,הרצלייה,נחמיה,,6527-297-2,6527/297,10190.421234852856,32.1688772968,34.8358879611,2004
2004-08-15,2004-08-15,"אמה טאובר 2, הרצלייה",אמה טאובר 2,6536-906-6,דירה בבית קומות,4.0,ראשונה,96.0,1115000,,,2003.0,,7.0,7705758158,1,6536906,False,,הרצלייה,טאובר אמה,,6536-906-6,6536/906,11614.583333333334,32.1754439708,34.8493858698,2004
2004-08-15,2004-08-15,"העצמאות 57, הרצלייה",העצמאות 57,6531-120-10,דירה בבית קומות,3.0,שלישית,63.5,572000,,,1960.0,,3.0,7705604904,1,6531120,False,,הרצלייה,העצמאות,,6531-120-10,6531/120,9007.874015748032,32.1651386647,34.8449671204,2004
2004-08-14,2004-08-14,"פנקס 31, הרצלייה",פנקס 31,6557-168-1,קוטג' דו משפחתי,2.0,,70.0,999000,,,1950.0,,1.0,7705411912,1,6557168,False,,הרצלייה,פנקס,,6557-168-1,6557/168,14271.42857142857,32.1607629819,34.8567306319,2004
2004-08-12,2004-12-08,"קפלן 30, הרצלייה",קפלן 30,6668-648-1,קוטג' חד משפחתי,4.0,ראשונה,108.0,6899000,,,1964.0,,1.0,7709432776,1,6668648,False,,הרצלייה,קפלן,,6668-648-1,6668/648,63879.62962962963,32.1817129227,34.8080404219,2004
2004-08-09,2004-09-08,"מעפילי מרוקו 21, הרצלייה",מעפילי מרוקו 21,6577-164-6,דירה בבית קומות,3.0,ראשונה,49.1,416000,,,1960.0,,3.0,7706894872,1,6577164,False,,הרצלייה,מעפילי מרוקו,,6577-164-6,6577/164,8472.505091649695,32.1759741726,34.8551782549,2004
2004-08-09,2004-09-08,"אלוף יגאל אלון 23, הרצלייה",אלוף יגאל אלון 23,6536-448-1,דירה בבית קומות,4.0,ראשונה,90.0,1024000,,,1980.0,,3.0,7706935720,1,6536448,False,,הרצלייה,אלוף אלון יגאל,,6536-448-1,6536/448,11377.777777777776,32.1690322823,34.8478203754,2004
2004-08-09,2004-09-08,"נווה עובד 16, הרצלייה",נווה עובד 16,6669-439-1,דירה בבית קומות,2.0,קרקע,31.5,752000,,,1956.0,,1.0,7707242894,1,6669439,False,,הרצלייה,נוה עובד,,6669-439-1,6669/439,23873.015873015876,32.1846398915,34.8129407533,2004
2004-08-08,2004-08-08,"כ""ט בנובמבר 5, הרצלייה","כ""ט בנובמבר 5",6530-100-5,דירה בבית קומות,4.0,שניה,88.5,911000,,,1970.0,,4.0,7705286778,1,6530100,False,,הרצלייה,"כ""ט בנובמבר",,6530-100-5,6530/100,10293.785310734464,32.1706200241,34.8426325893,2004
2004-08-07,2004-07-08,"קבוץ גלויות 52, הרצלייה",קבוץ גלויות 52,6558-864-2,דירה בבית קומות,4.0,קרקע,105.3,1028000,,,2004.0,,2.0,7704024856,1,6558864,False,,הרצלייה,קבוץ גלויות,,6558-864-2,6558/864,9762.583095916429,32.171169697,34.8601428806,2004
2004-08-06,2004-06-08,"בורוכוב 39, הרצלייה",בורוכוב 39,6577-14-1,קוטג' דו משפחתי,3.0,ראשונה,49.93,1174000,,,1950.0,,1.0,7704233610,1,657714,False,,הרצלייה,בורוכוב,,6577-14-1,6577/14,23512.91808531945,32.1730963405,34.8544265473,2004
2004-08-06,2004-06-08,"הגבורה 28, הרצלייה",הגבורה 28,6668-787-0,קוטג' דו משפחתי,5.0,ראשונה,789.0,4855000,,,1975.0,,,7703087202,1,6668787,False,,הרצלייה,הגבורה,,6668-787-0,6668/787,6153.358681875792,32.1713831328,34.8044910468,2004
2004-08-06,2004-06-08,"הבשן 12, הרצלייה",הבשן 12,6577-154-6,דירה בבית קומות,3.0,ראשונה,38.2,451000,,,1960.0,,4.0,7702611086,1,6577154,False,,הרצלייה,הבשן,,6577-154-6,6577/154,11806.282722513088,32.1765844583,34.8537508507,2004
2004-08-04,2004-04-08,"הנעורים 5, הרצלייה",הנעורים 5,6663-277-11,דירה בבית קומות,3.0,שלישית,63.0,583000,,,1965.0,,3.0,7700051278,1,6663277,False,1% ב 4.3 שנים,הרצלייה,הנעורים,0.23,6663-277-11,6663/277,9253.968253968254,32.1794449586,34.8428481128,2004
2004-08-03,2004-03-08,"רבי עקיבא 5, הרצלייה",רבי עקיבא 5,6546-533-11,,3.0,שלישית,39.5,585000,,,1960.0,,3.0,7698868610,1,6546533,False,,הרצלייה,רבי עקיבא,,6546-533-11,6546/533,14810.12658227848,32.1539002149,34.8434173173,2004
2004-08-03,2004-03-08,"משה סנה 5, הרצלייה",משה סנה 5,6540-91-8,דירת גג,5.0,שניה+גג,119.1,1283000,,,1993.0,,1.0,7699785026,1,654091,False,,הרצלייה,סנה משה,,6540-91-8,6540/91,10772.46011754828,32.1615012642,34.8503058554,2004
2004-08-03,2004-03-08,"זלמן שניאור 19, הרצלייה",זלמן שניאור 19,6526-296-28,דירה בבית קומות,5.0,ראשונה,116.9,1407000,,,2001.0,,5.0,7699263548,1,6526296,False,,הרצלייה,שניאור זלמן,,6526-296-28,6526/296,12035.928143712574,32.1725107119,34.8374712142,2004
2004-07-30,2004-07-30,"שפיק עדס 2, הרצלייה",שפיק עדס 2,6529-67-5,דירה בבית קומות,4.0,ראשונה,100.0,1104000,,,1957.0,,1.0,7705858872,1,652967,False,,הרצלייה,עדס,,6529-67-5,6529/67,11040.0,32.1686477221,34.8371479581,2004
2004-07-30,2004-07-30,"דוד שמעוני 18, הרצלייה",דוד שמעוני 18,6526-295-20,דירה בבית קומות,5.0,שביעית,150.4,2550000,,,2005.0,,8.0,7705303946,1,6526295,False,,הרצלייה,שמעוני דוד,,6526-295-20,6526/295,16954.787234042553,32.1725509174,34.8365674126,2004
2004-07-29,2004-07-29,"התנאים 2, הרצלייה",התנאים 2,6546-552-8,דירה בבית קומות,4.0,שניה,120.5,1301000,,,1998.0,,18.0,7706125050,1,6546552,False,,הרצלייה,התנאים,,6546-552-8,6546/552,10796.680497925312,32.1536485906,34.8410869289,2004
2004-07-29,2004-07-29,"זבולון 2, הרצלייה",זבולון 2,6517-400-39,משרד,,ראשונה,33.6,1084000,,,1990.0,,7.0,7705963952,1,6517400,False,,הרצלייה,זבולון,,6517-400-39,6517/400,32261.90476190476,32.1677311795,34.8004387596,2004
2004-07-29,2004-07-29,"נוף שדמות 15, הרצלייה",נוף שדמות 15,6520-74-2,דירה בבית קומות,3.0,ראשונה,87.0,1244000,,,2010.0,,5.0,7709784350,1,652074,False,60% ב 1.5 שנים,הרצלייה,נוף שדמות,40.0,6520-74-2,6520/74,14298.850574712644,32.1714134726,34.8172491798,2004
2004-07-29,2004-07-29,"צמרות 10, הרצלייה",צמרות 10,6545-38-293,דירה בבית קומות,5.0,שש עשרה,165.2,2542000,,,2000.0,,29.0,7704985154,1,654538,False,,הרצלייה,צמרות,,6545-38-293,6545/38,15387.409200968525,32.1514074582,34.8458200181,2004
2004-07-28,2004-07-28,"משכית 15, הרצלייה",משכית 15,6420-54-27,משרד,,קרקע,38.5,202000,,,1970.0,,4.0,7705853248,1,642054,False,,הרצלייה,משכית,,6420-54-27,6420/54,5246.753246753247,32.1645291456,34.8115821104,2004
2004-07-27,2004-07-27,"התנאים 3, הרצלייה",התנאים 3,6546-721-26,דירה בבית קומות,4.0,שביעית,118.0,1273000,,,1980.0,,9.0,7705338652,1,6546721,False,,הרצלייה,התנאים,,6546-721-26,6546/721,10788.13559322034,32.1529085493,34.8403582747,2004
2004-07-21,2004-07-21,"דוד המלך 53, הרצלייה",דוד המלך 53,6666-384-3,קוטג' חד משפחתי,6.0,שניה,250.0,9869000,,,1965.0,,1.0,7705366772,1,6666384,False,,הרצלייה,דוד המלך,,6666-384-3,6666/384,39476.0,32.1747021109,34.8138294936,2004
2004-07-19,2004-07-19,"יל""ג 9, הרצלייה","יל""ג 9",6530-159-45,דירה בבית קומות,3.0,שניה,71.0,797000,,,2024.0,,6.0,7704447840,1,6530159,False,,הרצלייה,"יל""ג",,6530-159-45,6530/159,11225.352112676055,32.1688223282,34.8434662762,2004
2004-07-19,2004-07-19,"אחד העם 49, הרצלייה",אחד העם 49,6538-630-9,דירה בבית קומות,4.0,ראשונה,112.2,1076000,,,1993.0,,5.0,7704805186,1,6538630,False,,הרצלייה,אחד העם,,6538-630-9,6538/630,9590.017825311945,32.1642398678,34.8463946308,2004
2004-07-18,2004-07-18,"גיל 18, הרצלייה",גיל 18,6558-341-1,קוטג' חד משפחתי,6.0,ראשונה,154.0,1415000,,,1996.0,,1.0,7704211040,1,6558341,False,,הרצלייה,גיל,,6558-341-1,6558/341,9188.311688311687,32.1619541236,34.8621203233,2004
2004-07-16,2004-07-16,"רכב ישראל 12, הרצלייה",רכב ישראל 12,6558-191-6,דירה בבית קומות,2.0,ראשונה,42.0,300000,,,1950.0,,2.0,7704429710,1,6558191,False,,הרצלייה,רכב ישראל,,6558-191-6,6558/191,7142.857142857143,32.1653846277,34.8551102186,2004
2004-07-16,2004-07-16,"פלמ""ח 2, הרצלייה","פלמ""ח 2",6536-516-2,דירה בבית קומות,4.0,ראשונה,80.5,899000,,,1973.0,,3.0,7704440514,1,6536516,False,,הרצלייה,"פלמ""ח",,6536-516-2,6536/516,11167.701863354036,32.1690483727,34.8452315667,2004
2004-07-14,2004-07-14,"אלוף יגאל אלון 30, הרצלייה",אלוף יגאל אלון 30,6532-150-5,דירה בבית קומות,3.0,ראשונה,74.03,853000,,,1981.0,,3.0,7704460790,1,6532150,False,2% ב 3 שנים,הרצלייה,אלוף אלון יגאל,0.67,6532-150-5,6532/150,11522.355801702011,32.168533869,34.8480788373,2004
2004-07-13,2004-07-13,"הקדמה 34, הרצלייה",הקדמה 34,6669-68-5,קוטג' דו משפחתי,5.0,ראשונה,240.0,3806000,,,1983.0,,1.0,7704818506,1,666968,False,,הרצלייה,הקדמה,,6669-68-5,6669/68,15858.333333333334,32.1850717973,34.8109301093,2004
2004-07-13,2004-07-13,"שמואל הנגיד 13, הרצלייה",שמואל הנגיד 13,6527-387-24,דירה בבית קומות,3.0,שישית,88.0,783000,,,1980.0,,8.0,7703780582,1,6527387,False,,הרצלייה,שמואל הנגיד,,6527-387-24,6527/387,8897.727272727272,32.1660916541,34.8341140782,2004
2004-07-12,2004-12-07,"מלכי יהודה 22, הרצלייה",מלכי יהודה 22,6536-894-9,דירה בבית קומות,4.0,שלישית,112.42,1135000,,,1994.0,,4.0,7709424266,1,6536894,False,,הרצלייה,מלכי יהודה,,6536-894-9,6536/894,10096.068315246395,32.1721008542,34.8427769301,2004
2004-07-11,2004-11-07,"מלכי יהודה 22, הרצלייה",מלכי יהודה 22,6536-894-8,דירה בבית קומות,4.0,שניה,115.67,1086000,,,1994.0,,4.0,7708220878,1,6536894,False,,הרצלייה,מלכי יהודה,,6536-894-8,6536/894,9388.778421371142,32.1721008542,34.8427769301,2004
2004-07-11,2004-11-07,"התנאים 2, הרצלייה",התנאים 2,6546-552-40,דירה בבית קומות,5.0,עשירית,120.5,1702000,,,1998.0,,18.0,7708148802,1,6546552,False,,הרצלייה,התנאים,,6546-552-40,6546/552,14124.48132780083,32.1536485906,34.8410869289,2004
2004-07-11,2004-11-07,"אריה שנקר 14, הרצלייה",אריה שנקר 14,6592-34-6,משרד,,ראשונה,112.0,163000,,,1999.0,,3.0,7708242264,1,659234,False,,הרצלייה,שנקר אריה,,6592-34-6,6592/34,1455.357142857143,32.159195615,34.8084398061,2004
2004-07-07,2004-07-07,"החושלים 11, הרצלייה",החושלים 11,6592-80-1,תעשיה,,ראשונה,3000.0,15918000,,,1960.0,,1.0,7705056638,1,659280,False,,הרצלייה,החושלים,,6592-80-1,6592/80,5306.0,32.1587121883,34.8052345234,2004
2004-07-06,2004-06-07,"גלגל הפלדה 18, הרצלייה",גלגל הפלדה 18,6420-37-1,תעשיה,,שניה,343.0,9485000,,,1980.0,,1.0,7704206822,1,642037,False,,הרצלייה,גלגל הפלדה,,6420-37-1,6420/37,27653.0612244898,32.164939506,34.8099305091,2004
2004-07-05,2004-05-07,"דוד אלרואי 16, הרצלייה",דוד אלרואי 16,7291-142-8,דירה בבית קומות,2.0,שניה,37.7,525000,,,1960.0,,2.0,7700947418,1,7291142,False,14% ב 5.5 שנים,הרצלייה,אלרואי דוד,2.55,7291-142-8,7291/142,13925.729442970822,32.1576215307,34.8385655017,2004
2004-07-04,2004-04-07,"דוד שמעוני 20, הרצלייה",דוד שמעוני 20,6526-295-30,דירה בבית קומות,5.0,שלישית,117.9,1470000,,,2006.0,,8.0,7701103040,1,6526295,False,,הרצלייה,שמעוני דוד,,6526-295-30,6526/295,12468.193384223918,32.1725509174,34.8365674126,2004
2004-07-03,2004-03-07,"עולי הגרדום 10, הרצלייה",עולי הגרדום 10,6521-11-5,קוטג' טורי,5.0,מרתף+קרקע+ראשונה,306.0,1939000,,,1998.0,,,7699881374,1,652111,False,,הרצלייה,עולי הגרדום,,6521-11-5,6521/11,6336.601307189542,32.1649281525,34.814207095,2004
2004-06-30,2004-06-30,"הבעל שם טוב 14, הרצלייה",הבעל שם טוב 14,6538-671-30,דירה בבית קומות,4.0,שלישית,122.69,1182000,,,1994.0,,6.0,7703337470,1,6538671,False,,הרצלייה,הבעל שם טוב,,6538-671-30,6538/671,9634.037003830794,32.1628603574,34.8406683261,2004
2004-06-30,2004-06-30,"הזוהר 1, הרצלייה",הזוהר 1,6540-40-1,קוטג' חד משפחתי,6.0,,180.0,5876000,,,1978.0,,1.0,7705277528,1,654040,False,,הרצלייה,הזוהר,,6540-40-1,6540/40,32644.444444444445,32.1623196408,34.8519152998,2004
2004-06-29,2004-06-29,"קפלן 95, הרצלייה",קפלן 95,6668-408-2,קוטג' חד משפחתי,6.0,ראשונה,200.0,7638000,,,1979.0,,1.0,7704886216,1,6668408,False,,הרצלייה,קפלן,,6668-408-2,6668/408,38190.0,32.1773432524,34.8066915089,2004
2004-06-27,2004-06-27,"אברהם הרצפלד 22, הרצלייה",אברהם הרצפלד 22,6666-826-1,קוטג' דו משפחתי,7.0,שניה,280.0,3085000,,,1995.0,,2.0,7703607274,1,6666826,False,,הרצלייה,הרצפלד אברהם,,6666-826-1,6666/826,11017.857142857143,32.1788830184,34.815728072,2004
2004-06-25,2004-06-25,"אלי לנדאו 50, הרצלייה",אלי לנדאו 50,6668-1364-2,דירה בבית קומות,3.0,תשיעית,94.0,3825000,,,1993.0,,14.0,7703358930,1,66681364,False,,הרצלייה,רמת ים,,6668-1364-2,6668/1364,40691.48936170213,32.1729217818,34.8010746527,2004
2004-06-24,2004-06-24,"דוד שמעוני 5, הרצלייה",דוד שמעוני 5,6526-235-14,דירה בבית קומות,3.0,ראשונה,68.14,1059000,,,1999.0,,4.0,7703425308,1,6526235,False,,הרצלייה,שמעוני דוד,,6526-235-14,6526/235,15541.532139712355,32.1713787169,34.8348705178,2004
2004-06-24,2004-06-24,"רמת ים 1, הרצלייה",רמת ים 1,6668-1406-14,דירה בבית קומות,2.0,ראשונה,45.7,1005000,,,2000.0,,7.0,7703456462,1,66681406,False,,הרצלייה,רמת ים,,6668-1406-14,6668/1406,21991.24726477024,32.178786113,34.8041369757,2004
2004-06-23,2004-06-23,"הבעל שם טוב 2, הרצלייה",הבעל שם טוב 2,6538-673-16,דירה בבית קומות,4.0,רביעית,113.97,1129000,,,1996.0,,14.0,7703442402,1,6538673,False,,הרצלייה,הבעל שם טוב,,6538-673-16,6538/673,9906.115644467842,32.1617024048,34.8407634523,2004
2004-06-23,2004-06-23,"אבן גבירול 20, הרצלייה",אבן גבירול 20,6527-293-7,דירה בבית קומות,3.0,שניה,67.0,900000,,,1970.0,,6.0,7702990114,1,6527293,False,16% ב 1.5 שנים,הרצלייה,אבן גבירול,10.67,6527-293-7,6527/293,13432.835820895523,32.1667212927,34.835556302,2004
2004-06-23,2004-06-23,"דוד אלרואי 2, הרצלייה",דוד אלרואי 2,7291-139-3,דירה בבית קומות,3.0,ראשונה,37.7,539000,,,1956.0,,2.0,7703570052,1,7291139,False,,הרצלייה,אלרואי דוד,,7291-139-3,7291/139,14297.08222811671,32.1567631416,34.8384571463,2004
2004-06-23,2004-06-23,"הדר 73, הרצלייה",הדר 73,6536-430-12,דירה בבית קומות,4.0,שניה,74.0,624000,,,1960.0,,2.0,7703006690,1,6536430,False,,הרצלייה,הדר,,6536-430-12,6536/430,8432.432432432432,32.1748531151,34.8483687467,2004
2004-06-21,2004-06-21,"בן-יהודה 4, הרצלייה",בן-יהודה 4,6538-163-3,דירה בבית קומות,4.0,ראשונה,78.93,799000,,,1970.0,,3.0,7703460754,1,6538163,False,,הרצלייה,בן יהודה,,6538-163-3,6538/163,10122.893703281388,32.1637128503,34.8451197127,2004
2004-06-21,2004-06-21,"הקדמה 55, הרצלייה",הקדמה 55,6669-105-1,קוטג' חד משפחתי,7.0,ראשונה,250.0,8082000,,,1980.0,,1.0,7704278898,1,6669105,False,,הרצלייה,הקדמה,,6669-105-1,6669/105,32328.0,32.1823729103,34.8114238125,2004
2004-06-21,2004-06-21,"קדושי השואה 56, הרצלייה",קדושי השואה 56,6668-1350-9,מלאכה,,קרקע,36.22,1050000,,,1970.0,,9.0,7703745284,1,66681350,False,,הרצלייה,קדושי השואה,,6668-1350-9,6668/1350,28989.50855880729,32.1706168579,34.8025140113,2004
2004-06-20,2004-06-20,"זבולון 4, הרצלייה",זבולון 4,6517-420-1,דירה בבית קומות,4.0,קרקע+ראשונה,115.2,2564000,,,2002.0,,3.0,7703148918,1,6517420,False,,הרצלייה,זבולון,,6517-420-1,6517/420,22256.944444444445,32.167691417,34.8009068719,2004
2004-06-20,2004-06-20,"חברון 7, הרצלייה",חברון 7,6531-85-5,דירה בבית קומות,3.0,שניה,62.32,731000,,,1970.0,,3.0,7704759306,1,653185,False,0% ב 2.8 שנים,הרצלייה,חברון,0.0,6531-85-5,6531/85,11729.781771501925,32.1657841859,34.8433684365,2004
2004-06-20,2004-06-20,"פינסקר 1, הרצלייה",פינסקר 1,6534-190-8,דירה בבית קומות,4.0,שלישית,96.45,1046000,,,1990.0,,8.0,7703070108,1,6534190,False,,הרצלייה,פינסקר,,6534-190-8,6534/190,10844.99740798341,32.166696823,34.8383180828,2004
2004-06-20,2004-06-20,"הנרקיסים 2, הרצלייה",הנרקיסים 2,6518-347-1,קוטג' דו משפחתי,6.0,שניה,200.0,2699000,,,1980.0,,1.0,7703140260,1,6518347,False,,הרצלייה,הנרקיסים,,6518-347-1,6518/347,13495.0,32.1670652799,34.8075447434,2004
2004-06-17,2004-06-17,"הרב קוק 49, הרצלייה",הרב קוק 49,6535-152-1,דירה בבית קומות,3.0,קרקע,95.64,650000,,,1989.0,,3.0,7702894876,1,6535152,False,,הרצלייה,הרב קוק,,6535-152-1,6535/152,6796.319531576746,32.1617023082,34.8356026502,2004
2004-06-16,2004-06-16,"סנש חנה 24, הרצלייה",סנש חנה 24,6424-150-9,דירה בבית קומות,5.0,שלישית,118.45,1284000,,,2002.0,,7.0,7702868088,1,6424150,False,,הרצלייה,סנש חנה,,6424-150-9,6424/150,10840.016884761502,32.15900613,34.8391946766,2004
2004-06-16,2004-06-16,"האשל 7, הרצלייה",האשל 7,6670-210-2,קוטג' דו משפחתי,6.0,שניה,220.0,2965000,,,1980.0,,1.0,7703122500,1,6670210,False,,הרצלייה,האשל,,6670-210-2,6670/210,13477.272727272728,32.1893944767,34.8121854832,2004
2004-06-15,2004-06-15,"יהודה בורר 6, הרצלייה",יהודה בורר 6,6529-233-4,דירה בבית קומות,4.0,שניה,94.17,1335000,,,2004.0,,4.0,7702675688,1,6529233,False,,הרצלייה,בורר יהודה,,6529-233-4,6529/233,14176.489327811403,32.1704599508,34.8390617085,2004
2004-06-15,2004-06-15,"אריאל 4, הרצלייה",אריאל 4,6534-136-3,דירה בבית קומות,4.0,ראשונה,100.0,1172000,,,2004.0,,3.0,7703335028,1,6534136,False,,הרצלייה,אריאל,,6534-136-3,6534/136,11720.0,32.1666237486,34.8375687325,2004
2004-06-14,2004-06-14,"אבא אבן 23, הרצלייה",אבא אבן 23,6419-53-17,דירה בבית קומות,4.0,ראשונה,114.0,1961000,,,1970.0,,3.0,7703470004,1,641953,False,57% ב 3.6 שנים,הרצלייה,אבא אבן,15.83,6419-53-17,6419/53,17201.754385964912,32.1640161787,34.8047617843,2004
2004-06-14,2004-06-14,"הנשיא יצחק בן-צבי 20, הרצלייה",הנשיא יצחק בן-צבי 20,6670-220-1,קוטג' חד משפחתי,5.0,ראשונה,162.0,3081000,,,1970.0,,1.0,7703097044,1,6670220,False,,הרצלייה,הנשיא יצחק בן צבי,,6670-220-1,6670/220,19018.51851851852,32.1890254182,34.8126722977,2004
2004-06-13,2004-06-13,"ברנר 16, הרצלייה",ברנר 16,6546-575-1,קוטג' טורי,5.0,,125.0,1878000,,,1978.0,,1.0,7702991446,1,6546575,False,,הרצלייה,ברנר,,6546-575-1,6546/575,15024.0,32.1570125362,34.8468281501,2004
2004-06-12,2004-12-06,"מלכי יהודה 22, הרצלייה",מלכי יהודה 22,6536-894-6,דירה בבית קומות,4.0,שניה,112.42,1105000,,,1994.0,,4.0,7709426042,1,6536894,False,,הרצלייה,מלכי יהודה,,6536-894-6,6536/894,9829.211884006403,32.1721008542,34.8427769301,2004
2004-06-07,2004-07-06,"שמעוני דוד 8, הרצלייה",שמעוני דוד 8,6526-188-34,דירה בבית קומות,5.0,שניה,116.0,1444000,,,1997.0,,5.0,7703479032,1,6526188,False,41% ב 6 שנים,הרצלייה,שמעוני דוד,6.83,6526-188-34,6526/188,12448.275862068966,32.1711711166,34.8357317915,2004
2004-06-06,2004-06-06,"פנחס רוזן 20, הרצלייה",פנחס רוזן 20,6521-99-3,דירה בבית קומות,7.0,שלישית,230.0,1388000,,,1992.0,,4.0,7704199496,1,652199,False,,הרצלייה,רוזן פנחס,,6521-99-3,6521/99,6034.782608695652,32.1649385019,34.8165691541,2004
2004-06-06,2004-06-06,"המסילה 39, הרצלייה",המסילה 39,6523-141-1,קרקע למגורים,,,5040.0,9176000,,,2007.0,,1.0,7703850142,1,6523141,False,,הרצלייה,המסילה,,6523-141-1,6523/141,1820.6349206349207,32.1716622375,34.8182296265,2004
2004-06-06,2004-06-06,"ויצמן 45, הרצלייה",ויצמן 45,6534-190-5,דירה בבית קומות,4.0,שניה,96.45,1042000,,,1990.0,,8.0,7704632840,1,6534190,False,,הרצלייה,ויצמן,,6534-190-5,6534/190,10803.525142560911,32.166696823,34.8383180828,2004
2004-06-05,2004-05-06,"אלי כהן 10, הרצלייה",אלי כהן 10,6527-197-7,דירה בבית קומות,5.0,שלישית,98.51,823000,,,1965.0,,3.0,7701035256,1,6527197,False,,הרצלייה,אלי כהן,,6527-197-7,6527/197,8354.481778499645,32.1695305111,34.8366365841,2004
2004-06-05,2004-05-06,"צמרות 10, הרצלייה",צמרות 10,6545-38-268,דירה בבית קומות,4.0,עשירית,121.1,2039000,,,2000.0,,29.0,7701816770,1,654538,False,,הרצלייה,צמרות,,6545-38-268,6545/38,16837.3245251858,32.1514074582,34.8458200181,2004
2004-06-05,2004-05-06,"סירני 8, הרצלייה",סירני 8,6419-21-2,קוטג' דו משפחתי,5.0,קרקע,180.0,2469000,,,1975.0,,,7701367442,1,641921,False,,הרצלייה,סירני,,6419-21-2,6419/21,13716.666666666666,32.1653908196,34.8069243409,2004
2004-05-30,2004-05-30,"רבי עקיבא 11, הרצלייה",רבי עקיבא 11,6546-492-46,דירה בבית קומות,3.0,ראשונה,42.0,507000,,,1960.0,,4.0,7701968100,1,6546492,False,,הרצלייה,רבי עקיבא,,6546-492-46,6546/492,12071.42857142857,32.1540573479,34.8447866872,2004
2004-05-30,2004-05-30,"אריאל 2, הרצלייה",אריאל 2,6534-135-1,דירה בבית קומות,4.0,רביעית,100.0,1080000,,,2003.0,,7.0,7702416910,1,6534135,True,-9% ב 1 שנים,הרצלייה,אריאל,-9.0,6534-135-1,6534/135,10800.0,32.1663127838,34.8377721816,2004
2004-05-30,2004-05-30,"מעפילי מרוקו 14, הרצלייה",מעפילי מרוקו 14,6577-88-3,דירה בבית קומות,2.0,קרקע,28.9,491000,,,1950.0,,1.0,7702219034,1,657788,False,,הרצלייה,מעפילי מרוקו,,6577-88-3,6577/88,16989.61937716263,32.1756642928,34.8535975381,2004
2004-05-30,2004-05-30,"אלוף יגאל אלון 21, הרצלייה",אלוף יגאל אלון 21,6536-621-8,דירה בבית קומות,4.0,שניה,95.2,905000,,,1979.0,,3.0,7701963290,1,6536621,False,,הרצלייה,אלוף אלון יגאל,,6536-621-8,6536/621,9506.302521008403,32.1690133426,34.847533289,2004
2004-05-27,2004-05-27,"יהודה המכבי 5, הרצלייה",יהודה המכבי 5,6517-114-1,קוטג' חד משפחתי,7.0,ראשונה,300.0,9883000,,,1980.0,,1.0,7703156244,1,6517114,False,,הרצלייה,יהודה המכבי,,6517-114-1,6517/114,32943.333333333336,32.1700619918,34.8020162269,2004
2004-05-25,2004-05-25,"זבולון 2, הרצלייה",זבולון 2,6517-400-51,דירה בבית קומות,2.0,שניה+ביניים,50.35,1237000,,,1990.0,,7.0,7703131750,1,6517400,False,,הרצלייה,זבולון,,6517-400-51,6517/400,24568.023833167823,32.1677311795,34.8004387596,2004
2004-05-24,2004-05-24,"שמעוני דוד 4, הרצלייה",שמעוני דוד 4,6526-190-32,דירה בבית קומות,5.0,שניה,116.0,1315000,,,1993.0,,5.0,7701960256,1,6526190,False,,הרצלייה,שמעוני דוד,,6526-190-32,6526/190,11336.206896551725,32.1706282161,34.8354181619,2004
2004-05-23,2004-05-23,"בר אילן 8, הרצלייה",בר אילן 8,6533-97-4,דירה בבית קומות,3.0,שניה,62.0,736000,,,1972.0,,3.0,7703076250,1,653397,False,,הרצלייה,בר אילן,,6533-97-4,6533/97,11870.967741935485,32.1661489154,34.8413621728,2004
2004-05-20,2004-05-20,"אמה טאובר 2, הרצלייה",אמה טאובר 2,6536-906-4,דירה בבית קומות,4.0,ראשונה,95.0,1101000,,,2003.0,,7.0,7702371030,1,6536906,False,,הרצלייה,טאובר אמה,,6536-906-4,6536/906,11589.473684210529,32.1754439708,34.8493858698,2004
2004-05-19,2004-05-19,"טשרניחובסקי 6, הרצלייה",טשרניחובסקי 6,6530-85-13,דירה בבית קומות,3.0,שניה,62.6,725000,,,1960.0,,3.0,7701824688,1,653085,False,,הרצלייה,טשרניחובסקי,,6530-85-13,6530/85,11581.4696485623,32.1689594683,34.8421075809,2004
2004-05-19,2004-05-19,"העצמאות 11, הרצלייה",העצמאות 11,6538-258-30,דירה בבית קומות,2.0,שניה,50.0,436000,,,1950.0,,3.0,7701722124,1,6538258,False,,הרצלייה,העצמאות,,6538-258-30,6538/258,8720.0,32.1644158432,34.8392073504,2004
2004-05-19,2004-05-19,"יהודה המכבי 16, הרצלייה",יהודה המכבי 16,6517-178-1,קוטג' דו משפחתי,7.0,מרתף+קרקע+ראשונה+גג,310.52,4590000,,,1980.0,,,7701748320,1,6517178,False,13% ב 5 שנים,הרצלייה,יהודה המכבי,2.6,6517-178-1,6517/178,14781.656576065954,32.169403153,34.8011920111,2004
2004-05-18,2004-05-18,"צמרות 10, הרצלייה",צמרות 10,6545-38-235,דירה בבית קומות,4.0,שניה,85.0,1258000,,,2000.0,,29.0,7701939388,1,654538,False,,הרצלייה,צמרות,,6545-38-235,6545/38,14800.0,32.1514074582,34.8458200181,2004
2004-05-16,2004-05-16,"עמיר 32, הרצלייה",עמיר 32,6542-182-16,דירה בבית קומות,5.0,רביעית,124.8,1482000,,,2004.0,,6.0,7702836268,1,6542182,False,,הרצלייה,עמיר,,6542-182-16,6542/182,11875.0,32.1561147053,34.8506235747,2004
2004-05-16,2004-05-16,"בן יהודה 86, הרצלייה",בן יהודה 86,6546-702-6,דירה בבית קומות,4.0,שלישית+גג,118.8,1002000,,,1970.0,,3.0,7701870420,1,6546702,False,,הרצלייה,בן יהודה,,6546-702-6,6546/702,8434.343434343435,32.1553162918,34.8452368735,2004
2004-05-16,2004-05-16,"רמת ים 1, הרצלייה",רמת ים 1,6668-1406-86,דירה בבית קומות,2.0,רביעית,52.3,1014000,,,2000.0,,7.0,7702267356,1,66681406,False,,הרצלייה,רמת ים,,6668-1406-86,6668/1406,19388.14531548757,32.178786113,34.8041369757,2004
2004-05-16,2004-05-16,"הדר 6, הרצלייה",הדר 6,6537-130-26,דירה בבית קומות,4.0,ראשונה,82.5,785000,,,1972.0,,6.0,7701639022,1,6537130,False,,הרצלייה,הדר,,6537-130-26,6537/130,9515.151515151516,32.1681182024,34.8490487257,2004
2004-05-14,2004-05-14,"זלמן שניאור 17, הרצלייה",זלמן שניאור 17,6526-296-23,דירה בבית קומות,6.0,חמישית,149.7,2250000,,,2003.0,,5.0,7702471818,1,6526296,False,,הרצלייה,שניאור זלמן,,6526-296-23,6526/296,15030.06012024048,32.1725107119,34.8374712142,2004
2004-05-14,2004-05-14,"סוקולוב 78, הרצלייה",סוקולוב 78,6537-207-28,דירה בבית קומות,4.0,רביעית,93.0,768000,,,1970.0,,19.0,7701954040,1,6537207,False,,הרצלייה,סוקולוב,,6537-207-28,6537/207,8258.064516129032,32.1668987349,34.8497162102,2004
2004-05-12,2004-12-05,"העוגן 4, הרצלייה",העוגן 4,6516-16-98,דירה בבית קומות,3.0,ראשונה,71.8,1579000,,,2005.0,,6.0,7770943056,1,651616,False,,הרצלייה,העוגן,,6516-16-98,6516/16,21991.643454039,32.1591960165,34.7947789632,2004
2004-05-12,2004-12-05,"טשרניחובסקי 3, הרצלייה",טשרניחובסקי 3,6530-296-4,דירה בבית קומות,4.0,שניה,100.0,1091000,,,2005.0,,5.0,7709733068,1,6530296,False,,הרצלייה,טשרניחובסקי,,6530-296-4,6530/296,10910.0,32.1685576206,34.8419379737,2004
2004-05-11,2004-11-05,"הגליל 2, הרצלייה",הגליל 2,6531-167-1,דירה בבית קומות,3.0,ראשונה,70.0,706000,,,1980.0,,3.0,7770529618,1,6531167,False,,הרצלייה,הגליל,,6531-167-1,6531/167,10085.714285714286,32.1652595126,34.8436585161,2004
2004-05-10,2004-10-05,"שמואל הנגיד 13, הרצלייה",שמואל הנגיד 13,6527-387-7,דירה בבית קומות,4.0,שניה,104.0,884000,,,1980.0,,8.0,7708058522,1,6527387,False,,הרצלייה,שמואל הנגיד,,6527-387-7,6527/387,8500.0,32.1660916541,34.8341140782,2004
2004-05-09,2004-09-05,"תור הזהב 2, הרצלייה",תור הזהב 2,6535-68-11,דירה בבית קומות,4.0,שניה,84.5,636000,,,1965.0,,3.0,7706279488,1,653568,False,,הרצלייה,תור הזהב,,6535-68-11,6535/68,7526.627218934911,32.1637250741,34.8346454674,2004
2004-05-09,2004-09-05,"העוגן 2, הרצלייה",העוגן 2,6516-56-128,דירה בבית קומות,2.0,שניה,50.0,1534000,,,2000.0,,12.0,7707192722,1,651656,False,,הרצלייה,העוגן,,6516-56-128,6516/56,30680.0,32.15935782,34.795784469,2004
2004-05-08,2004-08-05,"מדינת היהודים 60, הרצלייה",מדינת היהודים 60,6518-251-2,חנות,,קרקע,88.3,792000,,,1978.0,,3.0,7706383236,1,6518251,False,,הרצלייה,מדינת היהודים,,6518-251-2,6518/251,8969.42242355606,32.1660346803,34.8093202475,2004
2004-05-08,2004-08-05,"דוד שמעוני 20, הרצלייה",דוד שמעוני 20,6526-295-39,דירה בבית קומות,5.0,שישית,117.9,1534000,,,2006.0,,8.0,7705508334,1,6526295,False,,הרצלייה,שמעוני דוד,,6526-295-39,6526/295,13011.026293469042,32.1725509174,34.8365674126,2004
2004-05-08,2004-08-05,"מדינת היהודים 60, הרצלייה",מדינת היהודים 60,6518-251-1,חנות,,קרקע,180.4,1584000,,,1978.0,,3.0,7706479806,1,6518251,False,,הרצלייה,מדינת היהודים,,6518-251-1,6518/251,8780.487804878048,32.1660346803,34.8093202475,2004
2004-05-05,2004-05-05,"סוקולוב 92, הרצלייה",סוקולוב 92,6537-134-5,דירה בבית קומות,4.0,ראשונה,77.3,685000,,,1974.0,,7.0,7701714798,1,6537134,False,,הרצלייה,סוקולוב,,6537-134-5,6537/134,8861.578266494178,32.1673369644,34.8515782728,2004
2004-05-02,2004-02-05,"צמרות 10, הרצלייה",צמרות 10,6545-38-273,דירה בבית קומות,5.0,אחת עשרה,142.8,2000000,,,2000.0,,29.0,7698353940,1,654538,False,,הרצלייה,צמרות,,6545-38-273,6545/38,14005.602240896358,32.1514074582,34.8458200181,2004
2004-05-01,2004-01-05,"הרב מימון 8, הרצלייה",הרב מימון 8,6527-366-2,,3.0,ראשונה,54.2,585000,,,1973.0,,4.0,7696419802,1,6527366,False,,הרצלייה,הרב מימון,,6527-366-2,6527/366,10793.357933579337,32.165390687,34.8319506378,2004
2004-05-01,2004-01-05,"רמת ים 1, הרצלייה",רמת ים 1,6668-1406-58,דירה בבית קומות,3.0,שלישית+רביעית,67.3,1372000,,,2000.0,,7.0,7698005326,1,66681406,False,,הרצלייה,רמת ים,,6668-1406-58,6668/1406,20386.329866270436,32.178786113,34.8041369757,2004
2004-05-01,2004-01-05,"המסילה 33, הרצלייה",המסילה 33,6520-69-2,,6.0,קרקע ראשונה שניה,196.5,1762000,,,1970.0,,2.0,7696522366,1,652069,False,,הרצלייה,המסילה,,6520-69-2,6520/69,8966.921119592875,32.170434122,34.8175781847,2004
2004-05-01,2004-01-05,"רבנו תם 20, הרצלייה",רבנו תם 20,6527-241-11,,2.0,שניה,44.9,440000,,,1960.0,,3.0,7696656750,1,6527241,True,-1% ב 4.8 שנים,הרצלייה,רבנו תם,-0.21,6527-241-11,6527/241,9799.55456570156,32.1632490351,34.8317561464,2004
2004-04-30,2004-04-30,"הבנים 14, הרצלייה",הבנים 14,6539-37-20,דירה בבית קומות,3.0,ראשונה,65.0,963000,,,2021.0,,6.0,7700819694,1,653937,False,,הרצלייה,הבנים,,6539-37-20,6539/37,14815.384615384615,32.1621141777,34.8458552739,2004
2004-04-30,2004-04-30,"העצמאות 40, הרצלייה",העצמאות 40,6538-474-28,דירה בבית קומות,4.0,שניה,80.64,849000,,,1977.0,,5.0,7701021270,1,6538474,False,,הרצלייה,העצמאות,,6538-474-28,6538/474,10528.27380952381,32.1645261957,34.8419440488,2004
2004-04-30,2004-04-30,,,6529-94-19,דירה בבית קומות,3.0,שניה,80.0,777000,,,1970.0,,,7700622632,2,652994,False,,הרצלייה,הניצנים,,6529-94-19,6529/94,9712.5,32.1674517343,34.8393906663,2004
2004-04-29,2004-04-29,"אלוף יגאל אלון 11, הרצלייה",אלוף יגאל אלון 11,6536-610-12,דירה בבית קומות,6.0,שלישית,118.84,1202000,,,1970.0,,3.0,7700810592,1,6536610,False,,הרצלייה,אלוף אלון יגאל,,6536-610-12,6536/610,10114.43958263211,32.1690776239,34.8455955301,2004
2004-04-29,2004-04-29,"שלמה המלך 16, הרצלייה",שלמה המלך 16,6667-186-1,קוטג' דו משפחתי,9.0,ראשונה,480.0,11482000,,,2003.0,,1.0,7701749652,1,6667186,False,,הרצלייה,שלמה המלך,,6667-186-1,6667/186,23920.83333333333,32.1778964504,34.8114939013,2004
2004-04-29,2004-04-29,"מורדי הגטאות 70, הרצלייה",מורדי הגטאות 70,6558-513-2,משרד,6.0,ראשונה,200.0,1148000,,,2003.0,,1.0,7701690452,1,6558513,False,,הרצלייה,מורדי הגטאות,,6558-513-2,6558/513,5740.0,32.1687216808,34.860535036,2004
2004-04-29,2004-04-29,"רביבים 15, הרצלייה",רביבים 15,6577-54-31,דירה בבית קומות,2.0,ראשונה,39.7,413000,,,1960.0,,3.0,7700787504,1,657754,False,,הרצלייה,רביבים,,6577-54-31,6577/54,10403.022670025188,32.1726079137,34.8526548833,2004
2004-04-28,2004-04-28,"אח""י דקר 5, הרצלייה","אח""י דקר 5",6667-520-1,קוטג' דו משפחתי,7.0,ראשונה,188.0,2679000,,,1968.0,,1.0,7701524322,1,6667520,False,,הרצלייה,"אח""י דקר",,6667-520-1,6667/520,14250.0,32.1728796456,34.8085781595,2004
2004-04-28,2004-04-28,"אליהו גולומב 73, הרצלייה",אליהו גולומב 73,6536-921-1,דירה בבית קומות,4.0,רביעית,120.0,1296000,,,1999.0,,7.0,7700801564,1,6536921,False,,הרצלייה,גולומב אליהו,,6536-921-1,6536/921,10800.0,32.1743031956,34.8504061916,2004
2004-04-28,2004-04-28,"המגינים 18, הרצלייה",המגינים 18,6666-800-2,קוטג' דו משפחתי,6.0,ראשונה,220.0,3449000,,,1991.0,,,7701496202,1,6666800,False,,הרצלייה,המגינים,,6666-800-2,6666/800,15677.272727272728,32.1727827512,34.8119728057,2004
2004-04-26,2004-04-26,"ההסתדרות 27, הרצלייה",ההסתדרות 27,6546-431-2,דירה בבית קומות,4.0,ראשונה,96.06,1008000,,,1992.0,,2.0,7700760568,1,6546431,False,,הרצלייה,ההסתדרות,,6546-431-2,6546/431,10493.441599000624,32.1588274566,34.8462878794,2004
2004-04-25,2004-04-25,"מודיעין 7, הרצלייה",מודיעין 7,6517-105-1,קוטג' דו משפחתי,6.0,מרתף+קרקע+ראשונה,305.3,3106000,,,1980.0,,,7701585372,1,6517105,False,,הרצלייה,מודיעין,,6517-105-1,6517/105,10173.59973796266,32.1673298881,34.8013443703,2004
2004-04-25,2004-04-25,"צמרות 10, הרצלייה",צמרות 10,6545-38-285,קוטג' חד משפחתי,5.0,ארבע עשרה,143.5,2135000,,,2000.0,,29.0,7700839896,1,654538,False,,הרצלייה,צמרות,,6545-38-285,6545/38,14878.048780487805,32.1514074582,34.8458200181,2004
2004-04-25,2004-04-25,"שבט מנשה 22, הרצלייה",שבט מנשה 22,6667-308-3,קוטג' דו משפחתי,6.0,שניה,250.0,3152000,,,1980.0,,1.0,7700948602,1,6667308,False,,הרצלייה,שבט מנשה,,6667-308-3,6667/308,12608.0,32.1751738615,34.8091427729,2004
2004-04-25,2004-04-25,"פנחס רוזן 36, הרצלייה",פנחס רוזן 36,6521-135-3,דירה בבית קומות,4.0,ראשונה+שניה,100.0,1484000,,,2004.0,,2.0,7700831386,1,6521135,False,,הרצלייה,רוזן פנחס,,6521-135-3,6521/135,14840.0,32.1658609223,34.8166302467,2004
2004-04-23,2004-04-23,"השופטים 10, הרצלייה",השופטים 10,6546-774-34,דירה בבית קומות,6.0,תשיעית,236.0,2423000,,,1982.0,,9.0,7701018828,1,6546774,False,,הרצלייה,השופטים,,6546-774-34,6546/774,10266.949152542373,32.1527047579,34.840993215,2004
2004-04-23,2004-04-23,"רמת ים 1, הרצלייה",רמת ים 1,6668-1406-83,דירה בבית קומות,2.0,שלישית,46.35,1166000,,,2000.0,,7.0,7702273498,1,66681406,False,,הרצלייה,רמת ים,,6668-1406-83,6668/1406,25156.418554476808,32.178786113,34.8041369757,2004
2004-04-22,2004-04-22,"השושנים 7, הרצלייה",השושנים 7,6529-243-4,דירה בבית קומות,5.0,שניה,112.2,1330000,,,1982.0,,4.0,7701416800,1,6529243,False,,הרצלייה,השושנים,,6529-243-4,6529/243,11853.832442067736,32.1679410609,34.8391511803,2004
2004-04-22,2004-04-22,"קרן היסוד 43, הרצלייה",קרן היסוד 43,6668-440-1,קוטג' חד משפחתי,8.0,ראשונה,335.0,5784000,,,1980.0,,1.0,7700938834,1,6668440,False,,הרצלייה,קרן היסוד,,6668-440-1,6668/440,17265.671641791047,32.180930052,34.8088325233,2004
2004-04-21,2004-04-21,"הבעל שם טוב 14, הרצלייה",הבעל שם טוב 14,6538-671-17,דירה בבית קומות,4.0,שלישית,122.69,1182000,,,1994.0,,6.0,7701276422,1,6538671,False,,הרצלייה,הבעל שם טוב,,6538-671-17,6538/671,9634.037003830794,32.1628603574,34.8406683261,2004
2004-04-21,2004-04-21,"המקובלים 1, הרצלייה",המקובלים 1,6546-615-23,דירה בבית קומות,6.0,שישית,113.0,1434000,,,1970.0,,9.0,7701027486,1,6546615,False,,הרצלייה,המקובלים,,6546-615-23,6546/615,12690.265486725664,32.1540862735,34.8391595377,2004
2004-04-21,2004-04-21,"אבן שפרוט 15, הרצלייה",אבן שפרוט 15,6527-219-36,דירה בבית קומות,3.0,שלישית,47.0,592000,,,1960.0,,3.0,7700703810,1,6527219,False,48% ב 4 שנים,הרצלייה,אבן שפרוט,12.0,6527-219-36,6527/219,12595.744680851063,32.1663953376,34.8325497552,2004
2004-04-21,2004-04-21,"התבור 4, הרצלייה",התבור 4,6424-99-3,קוטג' דו משפחתי,3.0,,80.0,1182000,,,1973.0,,1.0,7700913748,1,642499,False,,הרצלייה,התבור,,6424-99-3,6424/99,14775.0,32.1605945837,34.83728639,2004
2004-04-21,2004-04-21,"סנש חנה 26, הרצלייה",סנש חנה 26,6424-150-36,דירה בבית קומות,5.0,שישית,122.54,1278000,,,2002.0,,7.0,7700794238,1,6424150,False,,הרצלייה,סנש חנה,,6424-150-36,6424/150,10429.247592622816,32.15900613,34.8391946766,2004
2004-04-21,2004-04-21,"אריה לייב יפה 20, הרצלייה",אריה לייב יפה 20,6536-256-6,דירה בבית קומות,4.0,שלישית,94.8,966000,,,1970.0,,2.0,7700560990,1,6536256,False,,הרצלייה,יפה אריה לייב,,6536-256-6,6536/256,10189.87341772152,32.1709658709,34.8446183433,2004
2004-04-21,2004-04-21,"ברנר 79, הרצלייה",ברנר 79,6541-136-1,קוטג' דו משפחתי,5.0,קרקע ראשונה,103.16,1603000,,,1971.0,,3.0,7700922998,1,6541136,False,,הרצלייה,ברנר,,6541-136-1,6541/136,15538.968592477706,32.1589222775,34.849495581,2004
2004-04-19,2004-04-19,"קבוץ גלויות 52, הרצלייה",קבוץ גלויות 52,6558-864-7,דירה בבית קומות,5.0,קרקע,126.92,1385000,,,2004.0,,2.0,7700559806,1,6558864,False,,הרצלייה,קבוץ גלויות,,6558-864-7,6558/864,10912.385754806175,32.171169697,34.8601428806,2004
2004-04-19,2004-04-19,"דוד אלרואי 32, הרצלייה",דוד אלרואי 32,6424-155-24,קוטג' חד משפחתי,5.0,שישית,109.72,1374000,,,2002.0,,15.0,7700930916,1,6424155,False,,הרצלייה,אלרואי דוד,,6424-155-24,6424/155,12522.785271600438,32.1587407952,34.8382406092,2004
2004-04-18,2004-04-18,"בן סרוק מנחם 20, הרצלייה",בן סרוק מנחם 20,6527-398-9,דירה בבית קומות,3.0,שלישית,65.6,554000,,,1979.0,,4.0,7700198908,1,6527398,False,1% ב 0.8 שנים,הרצלייה,בן סרוק מנחם,1.25,6527-398-9,6527/398,8445.121951219513,32.1653489036,34.8332756181,2004
2004-04-18,2004-04-18,"הלל 7, הרצלייה",הלל 7,6534-176-25,דירת גן,4.0,קרקע,92.91,1083000,,,1996.0,,3.0,7700985232,1,6534176,False,,הרצלייה,הלל,,6534-176-25,6534/176,11656.441717791413,32.1642080908,34.8378579139,2004
2004-04-18,2004-04-18,"חברון 6, הרצלייה",חברון 6,6531-80-10,דירה בבית קומות,2.0,שלישית,54.25,513000,,,1960.0,,3.0,7700151844,1,653180,False,,הרצלייה,חברון,,6531-80-10,6531/80,9456.221198156682,32.165404135,34.8433320273,2004
2004-04-18,2004-04-18,"הדר 2, הרצלייה",הדר 2,6537-125-3,משרד,,ראשונה,222.96,1404000,,,1978.0,,7.0,7701770446,1,6537125,False,,הרצלייה,הדר,,6537-125-3,6537/125,6297.093649085037,32.1675927856,34.8490711816,2004
2004-04-15,2004-04-15,"החרוב 5, הרצלייה",החרוב 5,6669-610-4,דירה בבית קומות,2.0,שניה,39.0,994000,,,1960.0,,2.0,7700482846,1,6669610,False,,הרצלייה,החרוב,,6669-610-4,6669/610,25487.17948717949,32.1878751033,34.8093247246,2004
2004-04-15,2004-04-15,"עמיר 32, הרצלייה",עמיר 32,6542-182-17,דירה בבית קומות,5.0,חמישית,135.3,1969000,,,2004.0,,6.0,7701272722,1,6542182,False,,הרצלייה,עמיר,,6542-182-17,6542/182,14552.845528455284,32.1561147053,34.8506235747,2004
2004-04-15,2004-04-15,"מלכי יהודה 29, הרצלייה",מלכי יהודה 29,6528-119-1,דירה בבית קומות,4.0,ראשונה,100.3,1031000,,,1978.0,,3.0,7700644018,1,6528119,False,,הרצלייה,מלכי יהודה,,6528-119-1,6528/119,10279.162512462612,32.173070387,34.8422844842,2004
2004-04-15,2004-04-15,"אלוף יגאל אלון 24, הרצלייה",אלוף יגאל אלון 24,6532-230-11,דירה בבית קומות,2.0,שניה,57.2,715000,,,1969.0,,3.0,7700635434,1,6532230,False,,הרצלייה,אלוף אלון יגאל,,6532-230-11,6532/230,12500.0,32.1684470274,34.8473235535,2004
2004-04-15,2004-04-15,"בנימין מובשוביץ 2, הרצלייה",בנימין מובשוביץ 2,6540-29-2,קוטג' דו משפחתי,6.0,,150.0,4129000,,,1980.0,,,7700373400,1,654029,False,,הרצלייה,מובשוביץ בנימין,,6540-29-2,6540/29,27526.666666666668,32.1620587672,34.8499626239,2004
2004-04-14,2004-04-14,"הבשן 5, הרצלייה",הבשן 5,6577-167-12,דירה בבית קומות,2.0,שלישית,37.6,316000,,,1960.0,,4.0,7700919890,1,6577167,False,,הרצלייה,הבשן,,6577-167-12,6577/167,8404.255319148935,32.176257674,34.8541728949,2004
2004-04-14,2004-04-14,"הנדיב 57, הרצלייה",הנדיב 57,6527-308-5,דירה בבית קומות,3.0,שניה,54.2,626000,,,1970.0,,4.0,7700462644,1,6527308,False,,הרצלייה,הנדיב,,6527-308-5,6527/308,11549.81549815498,32.1701482735,34.8342689393,2004
2004-04-14,2004-04-14,"מלכי ישראל 19, הרצלייה",מלכי ישראל 19,6528-49-7,דירה בבית קומות,3.0,שלישית,74.62,705000,,,1971.0,,3.0,7700266692,1,652849,False,,הרצלייה,מלכי ישראל,,6528-49-7,6528/49,9447.869203966764,32.1716068004,34.8417110575,2004
2004-04-14,2004-04-14,"גיל 59, הרצלייה",גיל 59,6557-125-1,קוטג' דו משפחתי,5.0,ראשונה,125.0,1448000,,,1950.0,,1.0,7700399744,1,6557125,False,,הרצלייה,גיל,,6557-125-1,6557/125,11584.0,32.1607299469,34.8631623365,2004
2004-04-10,2004-10-04,"צמרות 10, הרצלייה",צמרות 10,6545-38-271,דירה בבית קומות,4.0,אחת עשרה,121.1,2036000,,,2000.0,,29.0,7706919884,1,654538,False,,הרצלייה,צמרות,,6545-38-271,6545/38,16812.551610239472,32.1514074582,34.8458200181,2004
2004-04-08,2004-08-04,"דוד שמעוני 18, הרצלייה",דוד שמעוני 18,6526-295-9,דירה בבית קומות,4.0,שלישית,104.4,1320000,,,2005.0,,8.0,7705435074,1,6526295,False,,הרצלייה,שמעוני דוד,,6526-295-9,6526/295,12643.67816091954,32.1725509174,34.8365674126,2004
2004-04-08,2004-08-04,"בזל 20, הרצלייה",בזל 20,6667-589-3,קוטג' חד משפחתי,7.0,ראשונה,420.0,3711000,,,1984.0,,,7705442400,1,6667589,False,,הרצלייה,בזל,,6667-589-3,6667/589,8835.714285714286,32.1776480234,34.8127939593,2004
2004-04-08,2004-08-04,"הרב מרדכי הלפרין 6, הרצלייה",הרב מרדכי הלפרין 6,6533-169-3,דירה בבית קומות,2.0,שניה,48.0,493000,,,1950.0,,2.0,7705275826,1,6533169,False,,הרצלייה,הרב הלפרין מרדכי,,6533-169-3,6533/169,10270.833333333334,32.1652085064,34.8403254101,2004
2004-04-07,2004-07-04,"צבי מנדלבלט 8, הרצלייה",צבי מנדלבלט 8,6527-342-4,דירה בבית קומות,3.0,רביעית,56.0,548000,1.0,שבעת הכוכבים,1970.0,,3.0,7703507226,1,6527342,False,,הרצלייה,מנדלבלט צבי,,6527-342-4,6527/342,9785.714285714286,32.1672895269,34.832873349,2004
2004-04-07,2004-07-04,"סטרומה 3, הרצלייה",סטרומה 3,6517-153-3,קוטג' חד משפחתי,6.0,ראשונה,273.0,5275000,,,1985.0,,1.0,7705255550,1,6517153,False,,הרצלייה,סטרומה,,6517-153-3,6517/153,19322.34432234432,32.1656429833,34.8014278363,2004
2004-04-05,2004-05-04,"רמת ים 1, הרצלייה",רמת ים 1,6668-1406-98,דירה בבית קומות,3.0,חמישית,70.35,1877000,,,2000.0,,7.0,7701910232,1,66681406,False,,הרצלייה,רמת ים,,6668-1406-98,6668/1406,26680.881307746982,32.178786113,34.8041369757,2004
2004-04-05,2004-05-04,"הקסם 9, הרצלייה",הקסם 9,6546-898-4,דירה בבית קומות,5.0,רביעית,107.51,1376000,,,1999.0,,4.0,7700809482,1,6546898,False,,הרצלייה,הקסם,,6546-898-4,6546/898,12798.809413077852,32.1602676151,34.8412758283,2004
2004-04-05,2004-05-04,"אבן גבירול 37, הרצלייה",אבן גבירול 37,6534-61-27,דירה בבית קומות,2.0,שניה,60.0,741000,,,2022.0,,5.0,7701043100,1,653461,False,,הרצלייה,אבן גבירול,,6534-61-27,6534/61,12350.0,32.1648919786,34.8343918165,2004
2004-04-04,2004-04-04,"החלוץ 27, הרצלייה",החלוץ 27,6530-38-3,דירה בבית קומות,4.0,שניה,103.6,1309000,,,1994.0,,3.0,7700211784,1,653038,False,,הרצלייה,החלוץ,,6530-38-3,6530/38,12635.135135135137,32.1700020862,34.8440105632,2004
2004-04-04,2004-04-04,"החלוץ 27, הרצלייה",החלוץ 27,6530-38-1,מחסנים,,קרקע,35.5,108000,,,1994.0,,3.0,7700209860,1,653038,False,,הרצלייה,החלוץ,,6530-38-1,6530/38,3042.2535211267605,32.1700020862,34.8440105632,2004
2004-04-03,2004-03-04,"סוקולוב 1, הרצלייה",סוקולוב 1,6529-214-24,דירה בבית קומות,3.0,שביעית,68.0,752000,,,1985.0,,10.0,7699289892,1,6529214,False,,הרצלייה,סוקולוב,,6529-214-24,6529/214,11058.823529411764,32.1668269026,34.8388807119,2004
2004-04-03,2004-03-04,"עמיר 32, הרצלייה",עמיר 32,6542-182-19,דירה בבית קומות,5.0,שישית,148.9,2388000,,,2004.0,,6.0,7699427162,1,6542182,False,,הרצלייה,עמיר,,6542-182-19,6542/182,16037.609133646742,32.1561147053,34.8506235747,2004
2004-04-03,2004-03-04,"קיבוץ גלויות 116, הרצלייה",קיבוץ גלויות 116,6558-589-1,קוטג' דו משפחתי,2.0,ראשונה,20.65,833000,,,1954.0,,1.0,7698993226,1,6558589,False,,הרצלייה,קבוץ גלויות,,6558-589-1,6558/589,40338.98305084746,32.1674732281,34.8617188339,2004
2004-04-02,2004-02-04,"אחד העם 18, הרצלייה",אחד העם 18,6532-168-3,,4.0,ראשונה,78.7,838000,,,1972.0,,3.0,7698463238,1,6532168,False,,הרצלייה,אחד העם,,6532-168-3,6532/168,10648.030495552732,32.1677830307,34.8458988278,2004
2004-03-31,2004-03-31,"אלברט איינשטיין 3, הרצלייה",אלברט איינשטיין 3,6668-1427-35,דירה בבית קומות,2.0,קומה ‎1‏,57.4,1379000,,,2003.0,,3.0,7700578084,1,66681427,False,,הרצלייה,איינשטיין,,6668-1427-35,6668/1427,24024.39024390244,32.1755756832,34.802882237,2004
2004-03-31,2004-03-31,"פלמ""ח 23, הרצלייה","פלמ""ח 23",6536-191-5,דירה בבית קומות,3.0,שלישית,91.3,740000,,,2019.0,,4.0,7700051796,1,6536191,False,5% ב 5.4 שנים,הרצלייה,"פלמ""ח",0.93,6536-191-5,6536/191,8105.147864184009,32.1707880767,34.8447972525,2004
2004-03-30,2004-03-30,"התדהר 5, הרצלייה",התדהר 5,6536-112-1,קוטג' דו משפחתי,5.0,"מרתף,קרקע,ראשונה,גג",161.22,1350000,,,1983.0,,,7699861912,1,6536112,False,,הרצלייה,התדהר,,6536-112-1,6536/112,8373.650911797544,32.1764851336,34.8452007907,2004
2004-03-30,2004-03-30,"מלכי יהודה 24, הרצלייה",מלכי יהודה 24,6536-894-15,דירה בבית קומות,4.0,קרקע,110.0,1502000,,,1994.0,,4.0,7699786136,1,6536894,False,24% ב 3 שנים,הרצלייה,מלכי יהודה,8.0,6536-894-15,6536/894,13654.545454545454,32.1721008542,34.8427769301,2004
2004-03-30,2004-03-30,"האשל 43, הרצלייה",האשל 43,6669-127-3,קוטג' דו משפחתי,8.0,מרתף קרקע ראשונה,314.81,4535000,,,1990.0,,,7700429640,1,6669127,False,,הרצלייה,האשל,,6669-127-3,6669/127,14405.51443727963,32.1856025388,34.8105225105,2004
2004-03-28,2004-03-28,"אלכסנדר ינאי 18, הרצלייה",אלכסנדר ינאי 18,6517-265-2,קוטג' דו משפחתי,7.0,שניה,200.0,4860000,,,1987.0,,,7700486546,1,6517265,False,,הרצלייה,אלכסנדר ינאי,,6517-265-2,6517/265,24300.0,32.1686825333,34.8022124931,2004
2004-03-28,2004-03-28,"סוקולוב 73, הרצלייה",סוקולוב 73,6532-112-9,דירה בבית קומות,1.0,ראשונה,34.4,456000,,,1960.0,,3.0,7700470562,1,6532112,False,,הרצלייה,סוקולוב,,6532-112-9,6532/112,13255.813953488372,32.1673739628,34.8470095244,2004
2004-03-25,2004-03-25,"רמת ים 1, הרצלייה",רמת ים 1,6668-1406-5,דירה בבית קומות,3.0,קרקע+ראשונה,70.55,1582000,,,2000.0,,7.0,7700575642,1,66681406,False,,הרצלייה,רמת ים,,6668-1406-5,6668/1406,22423.81289865344,32.178786113,34.8041369757,2004
