DEALDATE,DEALDATETIME,FULLADRESS,DISPLAYADRESS,GUSH,DEALNATUREDESCRIPTION,ASSETROOMNUM,FLOORNO,DEALNATURE,DEALAMOUNT,NEWPROJECTTEXT,PROJECTNAME,BUILDINGYEAR,YEARBUILT,BUILDINGFLOORS,KEYVALUE,TYPE,POLYGON_ID,TREND_IS_NEGATIVE,TREND_FORMAT,city_name,street,presentage per year,GUSH - Copy,Gush_Helka,Price per sqm,lat,lon,Year
2012-12-31,2012-12-31,"אבן גבירול 35, בני ברק",אבן גבירול 35,6122-1091-2,דירה,5.0,ראשונה,110.0,2000000,1.0,פרויקט רמבם,,,6.0,11181260820,1,61221091,False,,בני ברק,אבן גבירול,,6122-1091-2,6122/1091,18181.81818181818,32.0905346151,34.8297976164,2012
2012-12-31,2012-12-31,"מתתיהו 33, בני ברק",מתתיהו 33,6190-884-4,דירה בבית קומות,4.5,ראשונה,75.0,1855000,,,1970.0,,3.0,3277356642,1,6190884,False,,בני ברק,מתתיהו,,6190-884-4,6190/884,24733.33333333333,32.0771617526,34.8393077527,2012
2012-12-31,2012-12-31,"אבן גבירול 35, בני ברק",אבן גבירול 35,6122-1091-1,דירה,4.0,שלישית,75.0,1440000,1.0,פרויקט רמבם,,,6.0,11181260818,1,61221091,False,,בני ברק,אבן גבירול,,6122-1091-1,6122/1091,19200.0,32.0905346151,34.8297976164,2012
2012-12-31,2012-12-31,"רבי ישראל אבו חצירא 8, בני ברק",רבי ישראל אבו חצירא 8,7361-61-3,דירה בבית קומות,3.0,שניה,54.0,930000,,,1960.0,,2.0,3277231739,1,736161,False,,בני ברק,אבו חצירא ישראל,,7361-61-3,7361/61,17222.222222222223,32.0933043421,34.8329966249,2012
2012-12-31,2012-12-31,"גיבורי ישראל 20, בני ברק",גיבורי ישראל 20,6189-1076-8,דירה בבית קומות,5.0,שניה,81.5,1650000,,,1980.0,,5.0,3277249197,1,61891076,False,,בני ברק,גבורי ישראל,,6189-1076-8,6189/1076,20245.39877300613,32.082167365,34.8436529799,2012
2012-12-30,2012-12-30,"ז'בוטינסקי 129, בני ברק",ז'בוטינסקי 129,6195-481-15,דירה בבית קומות,3.0,ב,52.5,870000,,,1960.0,,4.0,3277463362,1,6195481,False,64% ב 4.7 שנים,בני ברק,ז'בוטינסקי,13.62,6195-481-15,6195/481,16571.428571428572,32.0929103078,34.8402591796,2012
2012-12-30,2012-12-30,"יהודית 7, בני ברק",יהודית 7,6188-448-4,דירה בבית קומות,2.0,א,47.0,1050000,,,1960.0,,3.0,3277213092,1,6188448,False,40% ב 3.8 שנים,בני ברק,יהודית,10.53,6188-448-4,6188/448,22340.42553191489,32.0778431681,34.8280786766,2012
2012-12-30,2012-12-30,"אבן שפרוט 7, בני ברק",אבן שפרוט 7,6122-1547-5,דירה בבית קומות,5.0,א,100.0,1400000,,,1960.0,,4.0,3277667406,1,61221547,False,137% ב 7.5 שנים,בני ברק,אבן שפרוט,18.27,6122-1547-5,6122/1547,14000.0,32.0908922998,34.8322578147,2012
2012-12-30,2012-12-30,"חפץ חיים 3, בני ברק",חפץ חיים 3,6122-371-11,דירה בבית קומות,2.0,ב,43.5,1170000,,,1960.0,,3.0,3277107097,1,6122371,False,84% ב 6.6 שנים,בני ברק,חפץ חיים,12.73,6122-371-11,6122/371,26896.55172413793,32.0847916798,34.8328727804,2012
2012-12-30,2012-12-30,"הרב מימון 46, בני ברק",הרב מימון 46,6122-1573-13,דירה בבית קומות,3.0,ב,58.0,1280000,,,1960.0,,3.0,3277454981,1,61221573,False,,בני ברק,הרב מימון,,6122-1573-13,6122/1573,22068.96551724138,32.0886681593,34.8332852401,2012
2012-12-30,2012-12-30,"הנצי""ב 10, בני ברק","הנצי""ב 10",6188-314-5,דירה בבית קומות,5.0,ב,125.0,1565000,,,1950.0,,2.0,3278291399,1,6188314,False,20% ב 1.2 שנים,בני ברק,"הנצי""ב",16.67,6188-314-5,6188/314,12520.0,32.0779564739,34.8308965953,2012
2012-12-29,2012-12-29,"דמשק אליעזר 23, בני ברק",דמשק אליעזר 23,6187-284-7,דירה בבית קומות,2.5,שניה,54.55,1150000,,,1995.0,,5.0,3277449935,1,6187284,False,27% ב 4.3 שנים,בני ברק,דמשק אליעזר,6.28,6187-284-7,6187/284,21081.57653528873,32.0746456528,34.8377667988,2012
2012-12-29,2012-12-29,"גרינברג 3, בני ברק",גרינברג 3,6195-672-57,דירה בבית קומות,2.0,ראשונה,53.96,1175000,,,1980.0,,4.0,3277594703,1,6195672,False,,בני ברק,גרינברג,,6195-672-57,6195/672,21775.389177168272,32.0976279215,34.8434717929,2012
2012-12-27,2012-12-27,"הרב אלחנן וסרמן 3, בני ברק",הרב אלחנן וסרמן 3,6188-193-3,דירה בבית קומות,3.5,א,66.51,1400000,,,1958.0,,4.0,3277213527,1,6188193,False,,בני ברק,הרב וסרמן אלחנן,,6188-193-3,6188/193,21049.46624567734,32.0808628315,34.8317004024,2012
2012-12-27,2012-12-27,"אברהם בן-דוד 16, בני ברק",אברהם בן-דוד 16,6190-63-5,דירה בבית קומות,3.5,שלישית,81.0,1000000,,,1970.0,,4.0,3278213418,1,619063,False,,בני ברק,בן דוד אברהם,,6190-63-5,6190/63,12345.67901234568,32.0763076407,34.8414548546,2012
2012-12-27,2012-12-27,"רבי ישראל אבו חצירא 26, בני ברק",רבי ישראל אבו חצירא 26,7361-11-18,דירה בבית קומות,3.0,חמישית,49.2,975000,,,1970.0,,5.0,3277465943,1,736111,False,139% ב 5.8 שנים,בני ברק,אבו חצירא ישראל,23.97,7361-11-18,7361/11,19817.073170731703,32.0954408268,34.8309642185,2012
2012-12-27,2012-12-27,"ראובן אהרונוביץ 2, בני ברק",ראובן אהרונוביץ 2,6192-475-3,משרד,,ראשונה,1000.0,127500000,,,1990.0,,2.0,3277519361,1,6192475,False,,בני ברק,אהרונוביץ ראובן,,6192-475-3,6192/475,127500.0,32.0920859061,34.8390703417,2012
2012-12-27,2012-12-27,"ראב""ד 12, בני ברק","ראב""ד 12",6122-331-4,דירה בבית קומות,4.0,ראשונה,101.0,1700000,,,2008.0,,2.0,3277424125,1,6122331,False,,בני ברק,"ראב""ד",,6122-331-4,6122/331,16831.68316831683,32.0848217822,34.8320374194,2012
2012-12-26,2012-12-26,"הושע 2, בני ברק",הושע 2,6122-1517-8,דירה בבית קומות,2.0,ג,52.0,1300000,,,1966.0,,3.0,3277466639,1,61221517,False,,בני ברק,הושע,,6122-1517-8,6122/1517,25000.0,32.0884243303,34.8359147283,2012
2012-12-26,2012-12-26,"הרב משולם ראט 9, בני ברק",הרב משולם ראט 9,6195-679-1,דירה בבית קומות,3.5,ראשונה,44.17,1090000,,,1960.0,,3.0,3277648063,1,6195679,False,88% ב 4.9 שנים,בני ברק,הרב ראט משולם,17.96,6195-679-1,6195/679,24677.382839031012,32.0960531808,34.8432089465,2012
2012-12-26,2012-12-26,"הפלמ""ח 28, בני ברק","הפלמ""ח 28",6195-273-17,דירה בבית קומות,2.0,ג,45.0,795000,,,1960.0,,3.0,3277462608,1,6195273,False,10% ב 2 שנים,בני ברק,"הפלמ""ח",5.0,6195-273-17,6195/273,17666.666666666668,32.0950744169,34.8400715496,2012
2012-12-26,2012-12-26,"ירושלים 32, בני ברק",ירושלים 32,6123-153-5,דירה בבית קומות,3.0,ראשונה,50.0,1670000,,,1960.0,,2.0,3277813798,1,6123153,False,,בני ברק,ירושלים,,6123-153-5,6123/153,33400.0,32.0846422106,34.8296200766,2012
2012-12-26,2012-12-26,"צבי 14, בני ברק",צבי 14,6195-705-11,דירה בבית קומות,4.0,שניה,76.46,1200000,,,1972.0,,4.0,3277162835,1,6195705,False,,בני ברק,צבי,,6195-705-11,6195/705,15694.480774261052,32.0975171721,34.8389473974,2012
2012-12-26,2012-12-26,"הרב גוטמכר 2, בני ברק",הרב גוטמכר 2,6192-655-5,קרקע למגורים,,,558.0,5100000,,,2000.0,,1.0,3277698523,1,6192655,False,,בני ברק,גוטמכר,,6192-655-5,6192/655,9139.78494623656,32.0878343057,34.8414134198,2012
2012-12-26,2012-12-26,"בית הלל 7, בני ברק",בית הלל 7,6190-849-6,דירה בבית קומות,3.0,ב,59.0,1380000,,,1970.0,,3.0,3277186499,1,6190849,False,,בני ברק,בית הלל,,6190-849-6,6190/849,23389.830508474577,32.0811692731,34.8356915041,2012
2012-12-25,2012-12-25,"הרב עוזיאל 8, בני ברק",הרב עוזיאל 8,6190-94-2,דירה בבית קומות,4.0,רביעית,99.0,1500000,,,1985.0,,1.0,3277940441,1,619094,False,,בני ברק,הרב עוזיאל,,6190-94-2,6190/94,15151.515151515152,32.0758026487,34.8405732414,2012
2012-12-25,2012-12-25,"יהושע 8, בני ברק",יהושע 8,6123-214-4,דירה בבית קומות,4.0,שניה,90.0,1350000,,,1960.0,,2.0,3277516954,1,6123214,False,,בני ברק,יהושע,,6123-214-4,6123/214,15000.0,32.0854328232,34.8282485913,2012
2012-12-25,2012-12-25,"שמעון הצדיק 7, בני ברק",שמעון הצדיק 7,6192-162-28,דירה בבית קומות,3.0,רביעית,60.0,1280000,,,2004.0,,5.0,3277400925,1,6192162,False,,בני ברק,שמעון הצדיק,,6192-162-28,6192/162,21333.33333333333,32.0865377047,34.8414655066,2012
2012-12-25,2012-12-25,"שבטי ישראל 33, בני ברק",שבטי ישראל 33,6122-807-5,דירה,3.0,שלישית,60.0,1100000,1.0,זבוטינסקי,2013.0,,5.0,11181261025,1,6122807,False,,בני ברק,שבטי ישראל,,6122-807-5,6122/807,18333.33333333333,32.0919616859,34.8330597193,2012
2012-12-25,2012-12-25,"האדמו""ר מויז'ניץ 13, בני ברק","האדמו""ר מויז'ניץ 13",6187-303-6,דירה בבית קומות,3.0,שלישית,56.0,1200000,,,1962.0,,4.0,3277210888,1,6187303,False,,בני ברק,"האדמו""ר מויז'ניץ",,6187-303-6,6187/303,21428.571428571428,32.0733033475,34.8368462089,2012
2012-12-24,2012-12-24,"אברהם בנימין 3, בני ברק",אברהם בנימין 3,6195-600-12,דירה בבית קומות,3.0,2,56.0,840000,,,1970.0,,3.0,3256840505,1,6195600,False,,בני ברק,בנימין אברהם,,6195-600-12,6195/600,15000.0,32.0931910805,34.8398955548,2012
2012-12-24,2012-12-24,"טבריה 4, בני ברק",טבריה 4,6123-672-16,דירה בבית קומות,2.0,א,50.0,1190000,,,1950.0,,3.0,3277369576,1,6123672,False,91% ב 8.2 שנים,בני ברק,טבריה,11.1,6123-672-16,6123/672,23800.0,32.087103811,34.8264221813,2012
2012-12-24,2012-12-24,"ראובן אהרונוביץ 17, בני ברק",ראובן אהרונוביץ 17,6192-42-0,קרקע למגורים,,,2590.0,5637000,,,0.0,,7.0,3278169599,1,619242,False,36% ב 1 שנים,בני ברק,אהרונוביץ ראובן,36.0,6192-42-0,6192/42,2176.4478764478763,32.0912580333,34.8395709566,2012
2012-12-24,2012-12-24,"ז'בוטינסקי 41, בני ברק",ז'בוטינסקי 41,6196-265-15,דירה בבית קומות,2.0,שלישית,58.0,715000,,,1960.0,,2.0,3277142071,1,6196265,False,,בני ברק,ז'בוטינסקי,,6196-265-15,6196/265,12327.586206896553,32.0918086822,34.830218615,2012
2012-12-24,2012-12-24,"קובלסקי 5, בני ברק",קובלסקי 5,6195-807-5,דירה בבית קומות,3.0,שלישית,66.16,955000,,,1970.0,,4.0,3256845928,1,6195807,False,114% ב 14.9 שנים,בני ברק,קובלסקי,7.65,6195-807-5,6195/807,14434.703748488511,32.0978236066,34.8424848415,2012
2012-12-23,2012-12-23,"הירדן 20, בני ברק",הירדן 20,6122-944-11,דירה בבית קומות,4.0,שלישית,76.0,1430000,,,1970.0,,3.0,3256844333,1,6122944,False,,בני ברק,הירדן,,6122-944-11,6122/944,18815.78947368421,32.0918234753,34.8374045056,2012
2012-12-23,2012-12-23,"ביאליק 27, בני ברק",ביאליק 27,6195-136-8,דירה בבית קומות,2.0,,62.0,770000,,,1960.0,,2.0,3277418847,1,6195136,False,,בני ברק,ביאליק,,6195-136-8,6195/136,12419.354838709678,32.0948318578,34.8365883988,2012
2012-12-23,2012-12-23,"בעל שם-טוב 19, בני ברק",בעל שם-טוב 19,6122-390-3,דירה בבית קומות,2.5,ב,48.0,1420000,,,1950.0,,3.0,3277942558,1,6122390,False,,בני ברק,בעל שם טוב,,6122-390-3,6122/390,29583.33333333333,32.0852405753,34.8357372968,2012
2012-12-21,2012-12-21,"דניאל 6, בני ברק",דניאל 6,6124-2-51,דירה בבית קומות,2.0,ג,63.9,1000000,,,1950.0,,3.0,3277019053,1,61242,False,,בני ברק,דניאל,,6124-2-51,6124/2,15649.45226917058,32.0821143003,34.826084785,2012
2012-12-20,2012-12-20,"רוזנהיים 2, בני ברק",רוזנהיים 2,6192-465-8,דירה בבית קומות,3.0,שלישית,79.0,1190000,,,1980.0,,4.0,3277140128,1,6192465,False,,בני ברק,רוזנהיים,,6192-465-8,6192/465,15063.291139240506,32.0876486584,34.8402091875,2012
2012-12-20,2012-12-20,"סנש 26, בני ברק",סנש 26,6188-353-1,דירה בבית קומות,2.5,,68.0,1550000,,,1952.0,,1.0,3256707424,1,6188353,False,,בני ברק,סנש,,6188-353-1,6188/353,22794.117647058825,32.0756350934,34.828443432,2012
2012-12-20,2012-12-20,"הרב קוק 33, בני ברק",הרב קוק 33,6123-1012-30,דירה בבית קומות,5.0,רביעית + גג,96.6,1850000,,,1965.0,,4.0,3277562368,1,61231012,False,,בני ברק,הרב קוק,,6123-1012-30,6123/1012,19151.13871635611,32.0852065406,34.8251338688,2012
2012-12-20,2012-12-20,"אבן גבירול 5, בני ברק",אבן גבירול 5,6122-1524-31,דירה בבית קומות,2.0,ג,45.0,1000000,,,1960.0,,4.0,3256677815,1,61221524,False,,בני ברק,אבן גבירול,,6122-1524-31,6122/1524,22222.222222222223,32.0897987843,34.832898553,2012
2012-12-19,2012-12-19,"עמיאל 7, בני ברק",עמיאל 7,6124-261-3,דירה בבית קומות,2.0,א,36.0,850000,,,1970.0,,3.0,3256797643,1,6124261,False,152% ב 14.6 שנים,בני ברק,עמיאל,10.41,6124-261-3,6124/261,23611.11111111111,32.0787894555,34.8275769293,2012
2012-12-19,2012-12-19,"נחמיה 10, בני ברק",נחמיה 10,6190-459-2,דירה בבית קומות,4.0,א,85.0,1500000,,,1960.0,,3.0,3256600791,1,6190459,False,,בני ברק,נחמיה,,6190-459-2,6190/459,17647.058823529413,32.0793228196,34.8354585403,2012
2012-12-18,2012-12-18,"דוד בן-גוריון 11, בני ברק",דוד בן-גוריון 11,6196-376-151,משרד,,שש עשרה,183.4,2771000,,,2013.0,,22.0,3277687039,1,6196376,False,,בני ברק,בן גוריון דוד,,6196-376-151,6196/376,15109.05125408942,32.09415029,34.8227360192,2012
2012-12-18,2012-12-18,"דב הוז 4, בני ברק",דב הוז 4,6195-617-12,דירה בבית קומות,3.0,שלישית,59.6,650000,,,1970.0,,3.0,3256627558,1,6195617,False,,בני ברק,הוז דב,,6195-617-12,6195/617,10906.040268456376,32.0930551325,34.8371513137,2012
2012-12-18,2012-12-18,"רבי עקיבא 14, בני ברק",רבי עקיבא 14,6123-940-18,דירה בבית קומות,3.0,שניה,64.0,1175000,,,1970.0,,3.0,3256656268,1,6123940,False,,בני ברק,רבי עקיבא,,6123-940-18,6123/940,18359.375,32.0899251784,34.8256355276,2012
2012-12-18,2012-12-18,"יעבץ 24, בני ברק",יעבץ 24,6192-721-2,דירה בבית קומות,5.0,קרקע,100.0,1650000,,,1950.0,2011.0,1.0,3277221705,1,6192721,False,25% ב 0.8 שנים,בני ברק,יעבץ,31.25,6192-721-2,6192/721,16500.0,32.088955253,34.8433836809,2012
2012-12-18,2012-12-18,"נידוני בגדאד 14, בני ברק",נידוני בגדאד 14,6195-543-3,קרקע למגורים,,,498.0,1800000,,,1960.0,,1.0,3277401157,1,6195543,False,,בני ברק,נידוני בגדד,,6195-543-3,6195/543,3614.457831325301,32.0943206899,34.8432199719,2012
2012-12-18,2012-12-18,"המכבים 51, בני ברק",המכבים 51,7361-23-5,דירה בבית קומות,4.0,קומה ‎1‏,101.47,1170000,,,2013.0,,7.0,3256810113,1,736123,False,,בני ברק,המכבים,,7361-23-5,7361/23,11530.501626096384,32.0943366206,34.8325628765,2012
2012-12-18,2012-12-18,"הרב גוטמכר 2, בני ברק",הרב גוטמכר 2,6192-655-4,קרקע למגורים,,,558.0,5100000,,,2000.0,,1.0,3277698755,1,6192655,False,,בני ברק,גוטמכר,,6192-655-4,6192/655,9139.78494623656,32.0878343057,34.8414134198,2012
2012-12-18,2012-12-18,"טבריה 26, בני ברק",טבריה 26,6123-653-2,דירה בבית קומות,3.0,ראשונה,75.35,1300000,,,1984.0,,3.0,3256509644,1,6123653,False,,בני ברק,טבריה,,6123-653-2,6123/653,17252.8201725282,32.0869257459,34.8235624761,2012
2012-12-17,2012-12-17,"ניל""י 3, בני ברק","ניל""י 3",6196-104-249,משרד,,תשיעית,166.0,2076000,,,2013.0,,31.0,3256607983,1,6196104,False,,בני ברק,"ניל""י",,6196-104-249,6196/104,12506.02409638554,32.0944440037,34.8242950858,2012
2012-12-17,2012-12-17,"ראובן אהרונוביץ 17, בני ברק",ראובן אהרונוביץ 17,6192-42-42,דירה בבית קומות,4.0,שלישית,90.0,1440000,,,2013.0,,7.0,3256505555,1,619242,False,,בני ברק,אהרונוביץ ראובן,,6192-42-42,6192/42,16000.0,32.0912580333,34.8395709566,2012
2012-12-17,2012-12-17,"בעל שם-טוב 7, בני ברק",בעל שם-טוב 7,6122-581-4,דירה בבית קומות,2.0,,45.0,860000,,,1950.0,,2.0,3277282228,1,6122581,False,,בני ברק,בעל שם טוב,,6122-581-4,6122/581,19111.11111111111,32.0852553795,34.8342309514,2012
2012-12-16,2012-12-16,"מוהליבר 17, בני ברק",מוהליבר 17,6124-201-7,דירה בבית קומות,3.0,שלישית,64.5,1250000,,,2010.0,,4.0,3256733292,1,6124201,False,,בני ברק,מוהליבר,,6124-201-7,6124/201,19379.84496124031,32.0791205269,34.8285466139,2012
2012-12-16,2012-12-16,"הרב יוסף זוננפלד 15, בני ברק",הרב יוסף זוננפלד 15,6189-1092-10,דירה בבית קומות,4.0,שלישית,98.0,1409000,,,1970.0,,7.0,3277841087,1,61891092,False,,בני ברק,הרב זוננפלד יוסף,,6189-1092-10,6189/1092,14377.551020408164,32.0811309504,34.8437374895,2012
2012-12-16,2012-12-16,"צירלסון 16, בני ברק",צירלסון 16,6192-599-2,דירה בבית קומות,3.0,ראשונה,40.54,590000,,,1997.0,,,3278288064,1,6192599,False,,בני ברק,צירלסון,,6192-599-2,6192/599,14553.527380365073,32.0911196746,34.8412702697,2012
2012-12-14,2012-12-14,"עזרא 10, בני ברק",עזרא 10,6190-832-22,דירה בבית קומות,2.5,ג,37.0,1400000,,,1970.0,,3.0,3277460723,1,6190832,False,,בני ברק,עזרא,,6190-832-22,6190/832,37837.83783783784,32.0811132405,34.8398565154,2012
2012-12-14,2012-12-14,"מנחם בגין 24, בני ברק",מנחם בגין 24,6196-258-19,דירה בבית קומות,2.0,שניה,44.7,820000,,,1960.0,,4.0,3256465883,1,6196258,False,30% ב 3 שנים,בני ברק,בגין מנחם,10.0,6196-258-19,6196/258,18344.519015659956,32.0923482599,34.8294789074,2012
2012-12-13,2012-12-13,"אבטליון 5, בני ברק",אבטליון 5,6122-753-2,דירה בבית קומות,2.0,א,53.0,1300000,,,1960.0,,3.0,3277048227,1,6122753,False,,בני ברק,אבטליון,,6122-753-2,6122/753,24528.30188679245,32.0871763239,34.8317655013,2012
2012-12-13,2012-12-13,"אבטליון 5, בני ברק",אבטליון 5,6122-753-1,דירה בבית קומות,2.0,א,47.0,1010000,,,1960.0,,3.0,3256514922,1,6122753,False,21% ב 3.1 שנים,בני ברק,אבטליון,6.77,6122-753-1,6122/753,21489.36170212766,32.0871763239,34.8317655013,2012
2012-12-13,2012-12-13,"חיים פרל 19, בני ברק",חיים פרל 19,6122-212-2,דירה בבית קומות,4.0,ראשונה,80.0,1408000,,,1970.0,,2.0,3277911731,1,6122212,False,,בני ברק,פרל חיים,,6122-212-2,6122/212,17600.0,32.0908972491,34.8283212828,2012
2012-12-13,2012-12-13,"גניחובסקי 9, בני ברק",גניחובסקי 9,6195-785-10,דירה בבית קומות,4.0,שלישית,83.22,1060000,,,1960.0,,4.0,3256426820,1,6195785,False,,בני ברק,גניחובסקי,,6195-785-10,6195/785,12737.322758952176,32.0987169644,34.8421837984,2012
2012-12-13,2012-12-13,"הירקון 65, בני ברק",הירקון 65,6105-223-12,משרד,,שניה,220.0,1275000,,,1997.0,,4.0,3277729843,1,6105223,False,,בני ברק,הירקון,,6105-223-12,6105/223,5795.454545454545,32.0983861696,34.8319144953,2012
2012-12-12,2012-12-12,"יהודה הנשיא 55, בני ברק",יהודה הנשיא 55,6124-90-7,דירה בבית קומות,3.0,קומה ‎3‏,84.51,1390000,,,2003.0,,4.0,3256595977,1,612490,False,,בני ברק,יהודה הנשיא,,6124-90-7,6124/90,16447.75766181517,32.0798979858,34.8318306274,2012
2012-12-12,2012-12-12,"הרצוג 29, בני ברק",הרצוג 29,6123-392-1,דירה בבית קומות,2.0,א,46.0,1000000,,,1970.0,,3.0,3256487401,1,6123392,False,,בני ברק,הרצוג,,6123-392-1,6123/392,21739.130434782608,32.0879958263,34.8259135628,2012
2012-12-12,2012-12-12,"הרב שטרסר 4, בני ברק",הרב שטרסר 4,6122-1581-4,דירה בבית קומות,3.0,ב,56.0,1305000,,,1970.0,,3.0,3256595745,1,61221581,False,,בני ברק,הרב שטרסר,,6122-1581-4,6122/1581,23303.571428571428,32.0873830466,34.8334783108,2012
2012-12-12,2012-12-12,"יצחק מאיר הכהן 1, בני ברק",יצחק מאיר הכהן 1,6192-1012-8,דירה בבית קומות,3.5,שניה,76.0,1500000,,,1970.0,,3.0,3256660589,1,61921012,False,,בני ברק,יצחק מאיר הכהן,,6192-1012-8,6192/1012,19736.84210526316,32.0848224744,34.8408077785,2012
2012-12-12,2012-12-12,"בעל שם טוב 32, בני ברק",בעל שם טוב 32,6122-399-1,דירה בבית קומות,2.5,ראשונה,55.0,1160000,,,1970.0,,3.0,3256533801,1,6122399,False,,בני ברק,בעל שם טוב,,6122-399-1,6122/399,21090.90909090909,32.0848510419,34.8360170813,2012
2012-12-12,2012-12-12,"אברבנאל 56, בני ברק",אברבנאל 56,6195-742-7,דירה בבית קומות,3.0,רביעית,65.22,910000,,,1970.0,,5.0,3256505787,1,6195742,False,,בני ברק,אברבנאל,,6195-742-7,6195/742,13952.77522232444,32.0958775042,34.8390169112,2012
2012-12-12,2012-12-12,"בעל שם-טוב 7, בני ברק",בעל שם-טוב 7,6122-581-3,משרד,,ראשונה,35.0,2480000,,,1950.0,,2.0,3277799965,1,6122581,False,,בני ברק,בעל שם טוב,,6122-581-3,6122/581,70857.14285714286,32.0852553795,34.8342309514,2012
2012-12-12,2012-12-12,"רבי טרפון 4, בני ברק",רבי טרפון 4,6123-740-13,חנות,,הקרקע,21.24,330000,,,1960.0,,3.0,3277775779,1,6123740,False,10% ב 3.8 שנים,בני ברק,רבי טרפון,2.63,6123-740-13,6123/740,15536.723163841809,32.0868797083,34.8282700092,2012
2012-12-12,2012-12-12,"שלמה בן-יוסף 14, בני ברק",שלמה בן-יוסף 14,6196-297-13,דירה בבית קומות,3.0,שלישית,49.2,830000,,,1970.0,,6.0,3256602908,1,6196297,False,137% ב 7.7 שנים,בני ברק,בן יוסף שלמה,17.79,6196-297-13,6196/297,16869.91869918699,32.0944753452,34.8297458512,2012
2012-12-11,2012-11-12,"חיד""א 9, בני ברק","חיד""א 9",6122-1427-11,דירה בבית קומות,2.0,א,46.0,1090000,,,1960.0,,2.0,3255971549,1,61221427,False,,בני ברק,"חיד""א",,6122-1427-11,6122/1427,23695.652173913044,32.0911089609,34.8362833774,2012
2012-12-11,2012-11-12,"מהרש""ל 13, בני ברק","מהרש""ל 13",6122-455-11,דירה בבית קומות,2.0,ראשונה,50.0,1700000,,,1950.0,,3.0,3256753389,1,6122455,False,,בני ברק,"מהרש""ל",,6122-455-11,6122/455,34000.0,32.0849279084,34.8337853605,2012
2012-12-11,2012-11-12,"הרב קוטלר 10, בני ברק",הרב קוטלר 10,6122-1124-11,דירה בבית קומות,2.0,ג,46.96,1050000,,,1950.0,,3.0,3255715044,1,61221124,False,78% ב 8.2 שנים,בני ברק,הרב קוטלר,9.51,6122-1124-11,6122/1124,22359.454855195912,32.0862841452,34.8341100424,2012
2012-12-09,2012-09-12,"רימון 12, בני ברק",רימון 12,6187-454-13,דירה בבית קומות,2.5,קרקע,44.2,1070000,,,1960.0,,2.0,3254528335,1,6187454,False,72% ב 7.8 שנים,בני ברק,רימון,9.23,6187-454-13,6187/454,24208.14479638009,32.0719646314,34.8375688346,2012
2012-12-09,2012-09-12,"בן גוריון דוד 1, בני ברק",בן גוריון דוד 1,6196-397-15,משרד,,רביעית,175.85,1500000,,,2005.0,,28.0,3254851105,1,6196397,False,,בני ברק,בן גוריון דוד,,6196-397-15,6196/397,8529.997156667614,32.0960371716,34.8220609922,2012
2012-12-09,2012-09-12,"נורוק 14, בני ברק",נורוק 14,6195-677-6,דירה בבית קומות,2.5,ראשונה,44.25,815000,,,1960.0,,3.0,3254985114,1,6195677,False,13% ב 2.5 שנים,בני ברק,נורוק,5.2,6195-677-6,6195/677,18418.0790960452,32.0962422417,34.8429221727,2012
2012-12-09,2012-09-12,"ז'בוטינסקי 2, בני ברק",ז'בוטינסקי 2,6196-153-21,דירה בבית קומות,3.0,רביעית,66.0,1040000,1.0,,1960.0,,7.0,3254334093,1,6196153,False,,בני ברק,ז'בוטינסקי,,6196-153-21,6196/153,15757.575757575758,32.0903892478,34.8229280494,2012
2012-12-08,2012-08-12,"הרב עוזיאל 37, בני ברק",הרב עוזיאל 37,6187-183-2,דירה בבית קומות,3.0,ראשונה,55.6,1230000,,,1991.0,,4.0,3253747713,1,6187183,False,,בני ברק,הרב עוזיאל,,6187-183-2,6187/183,22122.30215827338,32.073379808,34.8401088627,2012
2012-12-07,2012-07-12,"נורוק 14, בני ברק",נורוק 14,6195-677-17,דירה בבית קומות,2.0,שלישית,44.17,930000,,,1960.0,,3.0,3253520150,1,6195677,False,61% ב 3.7 שנים,בני ברק,נורוק,16.49,6195-677-17,6195/677,21055.0147158705,32.0962422417,34.8429221727,2012
2012-12-07,2012-07-12,"חידושי הרי""ם 16, בני ברק","חידושי הרי""ם 16",6190-1025-5,דירה בבית קומות,4.0,שניה,120.0,1500000,,,1970.0,,3.0,3253607063,1,61901025,False,,בני ברק,"חידושי הרי""ם",,6190-1025-5,6190/1025,12500.0,32.0763560547,34.8352172392,2012
2012-12-07,2012-07-12,"ניל""י 3, בני ברק","ניל""י 3",6196-104-47,משרד,,,168.0,2520000,,,2013.0,,31.0,3253121371,1,6196104,False,,בני ברק,"ניל""י",,6196-104-47,6196/104,15000.0,32.0944440037,34.8242950858,2012
2012-12-06,2012-06-12,"התנאים 15, בני ברק",התנאים 15,6123-79-20,דירה בבית קומות,3.0,ב,53.5,1025000,,,1967.0,,3.0,3252501931,1,612379,False,94% ב 8.5 שנים,בני ברק,התנאים,11.06,6123-79-20,6123/79,19158.8785046729,32.0850894229,34.8238678453,2012
2012-12-06,2012-06-12,"ניסנבוים 17, בני ברק",ניסנבוים 17,6124-266-10,דירה בבית קומות,4.0,שלישית,100.0,1492000,,,2011.0,,3.0,3251842529,1,6124266,False,0% ב 0.8 שנים,בני ברק,ניסנבוים,0.0,6124-266-10,6124/266,14920.0,32.0785394741,34.8274384944,2012
2012-12-06,2012-06-12,"דנגור 3, בני ברק",דנגור 3,7361-18-20,דירה בבית קומות,2.0,ראשונה,37.1,400000,,,1960.0,,5.0,3252916341,1,736118,False,,בני ברק,דנגור,,7361-18-20,7361/18,10781.671159029647,32.0952682695,34.8329730016,2012
2012-12-03,2012-03-12,"נורדאו 18, בני ברק",נורדאו 18,6195-74-5,דירה בבית קומות,4.0,ראשונה,120.0,1450000,,,1950.0,,1.0,3250621194,1,619574,False,,בני ברק,נורדאו,,6195-74-5,6195/74,12083.333333333334,32.0935598943,34.8351065487,2012
2012-12-02,2012-02-12,"אוסישקין 17, בני ברק",אוסישקין 17,6195-223-4,דירה בבית קומות,4.0,שניה,100.0,1030000,,,1955.0,,3.0,3249200977,1,6195223,False,,בני ברק,אוסישקין,,6195-223-4,6195/223,10300.0,32.0942441889,34.8385485752,2012
2012-12-02,2012-02-12,"הרב משולם ראט 9, בני ברק",הרב משולם ראט 9,6195-679-11,קוטג' חד משפחתי,2.5,שלישית,44.25,740000,,,1960.0,,3.0,3249299345,1,6195679,False,0% ב 1.8 שנים,בני ברק,הרב ראט משולם,0.0,6195-679-11,6195/679,16723.16384180791,32.0960531808,34.8432089465,2012
2012-12-02,2012-02-12,"הרב קוק 24, בני ברק",הרב קוק 24,6123-763-18,דירה בבית קומות,3.0,ד,61.0,1000000,,,1960.0,,4.0,3249218435,1,6123763,False,,בני ברק,הרב קוק,,6123-763-18,6123/763,16393.44262295082,32.0858748595,34.8256155341,2012
2012-12-02,2012-02-12,"רבי עקיבא 52, בני ברק",רבי עקיבא 52,6123-24-10,דירה בבית קומות,3.0,שניה,69.0,1200000,,,1990.0,,,3249094054,1,612324,False,,בני ברק,רבי עקיבא,,6123-24-10,6123/24,17391.304347826088,32.0873595196,34.8277407783,2012
2012-12-01,2012-01-12,"הרב שפירא 14, בני ברק",הרב שפירא 14,6192-570-24,דירה בבית קומות,4.0,רביעית,79.0,1590000,,,1960.0,,5.0,3248792309,1,6192570,False,,בני ברק,הרב שפירא,,6192-570-24,6192/570,20126.58227848101,32.0895774317,34.8405423392,2012
2012-12-01,2012-01-12,"שלמה בן-יוסף 4, בני ברק",שלמה בן-יוסף 4,7361-95-4,דירה בבית קומות,1.0,שניה,51.6,1400000,,,1970.0,,5.0,3277696580,1,736195,False,,בני ברק,בן יוסף שלמה,,7361-95-4,7361/95,27131.782945736435,32.0935212169,34.8307331238,2012
2012-11-29,2012-11-29,"צבי 20, בני ברק",צבי 20,6195-703-15,דירה בבית קומות,2.5,רביעית,58.2,920000,,,1996.0,,4.0,3256196908,1,6195703,False,,בני ברק,צבי,,6195-703-15,6195/703,15807.560137457043,32.0979355837,34.8390628092,2012
2012-11-29,2012-11-29,"ניל""י 3, בני ברק","ניל""י 3",6196-104-63,משרד,,חמש עשרה,200.0,1982000,,,2013.0,,31.0,3277537283,1,6196104,False,,בני ברק,"ניל""י",,6196-104-63,6196/104,9910.0,32.0944440037,34.8242950858,2012
2012-11-29,2012-11-29,"צירלסון 13, בני ברק",צירלסון 13,6192-589-2,דירה בבית קומות,4.0,קרקע,100.0,1375000,,,2007.0,,1.0,3256516111,1,6192589,False,66% ב 6.4 שנים,בני ברק,צירלסון,10.31,6192-589-2,6192/589,13750.0,32.091798529,34.8414244752,2012
2012-11-28,2012-11-28,"דניאל 30, בני ברק",דניאל 30,6124-104-3,דירה בבית קומות,5.0,שניה ושלישית,136.0,2850000,,,1970.0,,2.0,3256129222,1,6124104,False,20% ב 7 שנים,בני ברק,דניאל,2.86,6124-104-3,6124/104,20955.88235294117,32.080254393,34.8267546601,2012
2012-11-28,2012-11-28,"דון יוסף הנשיא 2, בני ברק",דון יוסף הנשיא 2,6190-829-1,דירה בבית קומות,2.0,א,39.0,1099000,,,1970.0,,3.0,3256305774,1,6190829,False,,בני ברק,דון יוסף הנשיא,,6190-829-1,6190/829,28179.48717948718,32.0817178169,34.8403024311,2012
2012-11-28,2012-11-28,"צירלסון 16, בני ברק",צירלסון 16,6192-599-1,דירה בבית קומות,3.0,,46.48,590000,,,1997.0,,,3278284439,1,6192599,False,,בני ברק,צירלסון,,6192-599-1,6192/599,12693.631669535283,32.0911196746,34.8412702697,2012
2012-11-27,2012-11-27,"האדמו""ר מגור 33, בני ברק","האדמו""ר מגור 33",6190-313-1,דירה בבית קומות,3.0,א,54.5,1225000,,,1950.0,,2.0,3256515618,1,6190313,False,,בני ברק,"האדמו""ר מגור",,6190-313-1,6190/313,22477.064220183485,32.0828098304,34.8378955557,2012
2012-11-27,2012-11-27,"האדמו""ר מקוצק 56, בני ברק","האדמו""ר מקוצק 56",6187-138-6,דירה,4.0,שלישית,73.6,1220000,1.0,האדמור מקוצק 56,2012.0,,4.0,3256233564,1,6187138,False,6% ב 0.5 שנים,בני ברק,"האדמו""ר מקוצק",12.0,6187-138-6,6187/138,16576.08695652174,32.07143199,34.8398021074,2012
2012-11-27,2012-11-27,"יהושע 20, בני ברק",יהושע 20,6123-174-1,דירה בבית קומות,2.5,א,59.2,1100000,,,1940.0,,2.0,3277225997,1,6123174,False,,בני ברק,יהושע,,6123-174-1,6123/174,18581.08108108108,32.0848017679,34.8285825856,2012
2012-11-27,2012-11-27,"ירושלים 4, בני ברק",ירושלים 4,6122-65-4,דירה בבית קומות,4.0,א,64.0,1399000,,,1960.0,,3.0,3256134732,1,612265,False,57% ב 4.6 שנים,בני ברק,ירושלים,12.39,6122-65-4,6122/65,21859.375,32.0872288249,34.8300280048,2012
2012-11-26,2012-11-26,"רבי עקיבא 77, בני ברק",רבי עקיבא 77,6122-913-5,דירה בבית קומות,4.0,שניה,86.02,1120000,,,2011.0,,6.0,3277482937,1,6122913,False,,בני ברק,רבי עקיבא,,6122-913-5,6122/913,13020.227853987446,32.0864407172,34.8310802495,2012
2012-11-26,2012-11-26,"אברבנאל 103, בני ברק",אברבנאל 103,6195-8-7,דירה בבית קומות,3.0,שניה,67.45,950000,,,1992.0,,3.0,3256116288,1,61958,False,99% ב 14.1 שנים,בני ברק,אברבנאל,7.02,6195-8-7,6195/8,14084.50704225352,32.0961012689,34.8358428124,2012
2012-11-26,2012-11-26,"אצ""ל 2, בני ברק","אצ""ל 2",6196-232-1,דירה בבית קומות,3.0,קרקע,58.31,1120000,,,1960.0,,1.0,3256725172,1,6196232,False,,בני ברק,"אצ""ל",,6196-232-1,6196/232,19207.68307322929,32.0930055261,34.8276299286,2012
2012-11-25,2012-11-25,"הלפרין 15, בני ברק",הלפרין 15,6188-109-10,מחסנים,,,150.0,399998,,,2009.0,,5.0,3256619177,1,6188109,False,,בני ברק,הלפרין,,6188-109-10,6188/109,2666.653333333333,32.0826954772,34.8338838266,2012
2012-11-25,2012-11-25,"נורדאו 43, בני ברק",נורדאו 43,6195-29-4,דירה בבית קומות,4.0,שניה,100.39,1065000,,,2006.0,,5.0,3256200765,1,619529,False,40% ב 5.2 שנים,בני ברק,נורדאו,7.69,6195-29-4,6195/29,10608.626357206893,32.0950302823,34.8353512554,2012
2012-11-25,2012-11-25,"דוד המלך 6, בני ברק",דוד המלך 6,6123-573-7,דירה בבית קומות,2.0,א,50.39,950000,,,1955.0,,3.0,3256539543,1,6123573,False,,בני ברק,דוד המלך,,6123-573-7,6123/573,18852.94701329629,32.0833337068,34.8270304752,2012
2012-11-25,2012-11-25,"יצחק שדה 20, בני ברק",יצחק שדה 20,6188-388-2,דירה בבית קומות,7.0,,120.0,2570000,,,1960.0,,,3277454459,1,6188388,False,,בני ברק,שדה יצחק,,6188-388-2,6188/388,21416.666666666668,32.0763435506,34.8312648541,2012
2012-11-25,2012-11-25,"ישמח משה 11, בני ברק",ישמח משה 11,6190-1121-1,דירה בבית קומות,2.5,,52.0,900000,,,1970.0,,,3256258417,1,61901121,False,,בני ברק,ישמח משה,,6190-1121-1,6190/1121,17307.69230769231,32.0816568178,34.8361343031,2012
2012-11-25,2012-11-25,"הלפרין 15, בני ברק",הלפרין 15,6188-109-9,מחסנים,,,,9090000,,,2009.0,,5.0,3256619931,1,6188109,False,,בני ברק,הלפרין,,6188-109-9,6188/109,,32.0826954772,34.8338838266,2012
2012-11-25,2012-11-25,"טבריה 20, בני ברק",טבריה 20,6123-352-5,דירה בבית קומות,4.0,רביעית,116.5,1600000,,,1978.0,,3.0,3256655050,1,6123352,False,68% ב 6.3 שנים,בני ברק,טבריה,10.79,6123-352-5,6123/352,13733.90557939914,32.0869104164,34.8241214724,2012
2012-11-22,2012-11-22,"ירושלים 17, בני ברק",ירושלים 17,6122-866-28,דירה בבית קומות,5.0,שניה,110.0,1700000,,,1992.0,,4.0,3256036364,1,6122866,False,,בני ברק,ירושלים,,6122-866-28,6122/866,15454.545454545454,32.0856525276,34.8302280285,2012
2012-11-22,2012-11-22,"בן זכאי 59, בני ברק",בן זכאי 59,6124-86-2,דירה בבית קומות,3.5,א,74.0,1400000,,,1960.0,,3.0,3277014007,1,612486,False,,בני ברק,בן זכאי,,6124-86-2,6124/86,18918.91891891892,32.0802149731,34.8311463521,2012
2012-11-21,2012-11-21,"בן זכאי 19, בני ברק",בן זכאי 19,6188-498-5,דירה בבית קומות,3.5,קרקע,43.0,1420000,,,1960.0,,3.0,3256271554,1,6188498,False,,בני ברק,בן זכאי,,6188-498-5,6188/498,33023.25581395349,32.0834676912,34.8310398461,2012
2012-11-20,2012-11-20,"רבי אליעזר 6, בני ברק",רבי אליעזר 6,6123-975-8,דירה בבית קומות,4.0,שניה,83.0,1600000,,,1970.0,,4.0,3255970128,1,6123975,False,,בני ברק,רבי אליעזר,,6123-975-8,6123/975,19277.10843373494,32.0866912656,34.8272778462,2012
2012-11-20,2012-11-20,"ז'בוטינסקי 41, בני ברק",ז'בוטינסקי 41,6196-265-16,דירה בבית קומות,2.0,שניה,58.0,738000,,,1960.0,,2.0,3255939504,1,6196265,False,,בני ברק,ז'בוטינסקי,,6196-265-16,6196/265,12724.137931034482,32.0918086822,34.830218615,2012
2012-11-20,2012-11-20,"הרב מצליח 10, בני ברק",הרב מצליח 10,6195-700-13,דירה בבית קומות,3.0,רביעית,58.34,810000,,,1970.0,,4.0,3256607229,1,6195700,False,79% ב 5.5 שנים,בני ברק,הרב מצליח,14.36,6195-700-13,6195/700,13884.12752828248,32.0978152236,34.8398038712,2012
2012-11-20,2012-11-20,"האדמו""ר מגור 2, בני ברק","האדמו""ר מגור 2",6190-340-5,דירה בבית קומות,6.0,א,91.0,3100000,,,1970.0,2012.0,3.0,3256369168,1,6190340,False,,בני ברק,"האדמו""ר מגור",,6190-340-5,6190/340,34065.93406593407,32.0840828402,34.8365350903,2012
2012-11-20,2012-11-20,"אבטליון 14, בני ברק",אבטליון 14,6122-1711-1,דירה בבית קומות,4.0,ראשונה,87.0,1550000,,,1970.0,,3.0,3255744711,1,61221711,False,48% ב 10.5 שנים,בני ברק,אבטליון,4.57,6122-1711-1,6122/1711,17816.091954022988,32.0876324364,34.8323764027,2012
2012-11-19,2012-11-19,"האדמו""ר מקוצק 3, בני ברק","האדמו""ר מקוצק 3",6187-240-7,דירה בבית קומות,4.0,שניה,82.5,1400000,,,1996.0,,3.0,3255937329,1,6187240,False,65% ב 12.2 שנים,בני ברק,"האדמו""ר מקוצק",5.33,6187-240-7,6187/240,16969.696969696968,32.0745451693,34.8411388445,2012
2012-11-19,2012-11-19,"יהודה הנשיא 54, בני ברק",יהודה הנשיא 54,6124-329-8,דירה בבית קומות,3.0,ב,51.0,1200000,,,1960.0,,3.0,3255925381,1,6124329,False,,בני ברק,יהודה הנשיא,,6124-329-8,6124/329,23529.41176470588,32.0792368799,34.8313033243,2012
2012-11-19,2012-11-19,"ביל""ו 9, בני ברק","ביל""ו 9",6122-282-3,דירה בבית קומות,2.0,ב,50.0,1003000,,,1962.0,,3.0,3256527769,1,6122282,False,,בני ברק,"ביל""ו",,6122-282-3,6122/282,20060.0,32.0916144336,34.8342570183,2012
2012-11-19,2012-11-19,"חת""ם סופר 13, בני ברק","חת""ם סופר 13",6122-598-3,דירה בבית קומות,3.0,ראשונה,61.4,1350000,,,2002.0,,4.0,3255714812,1,6122598,False,,בני ברק,"חת""ם סופר",,6122-598-3,6122/598,21986.97068403909,32.0888919338,34.8274947292,2012
2012-11-19,2012-11-19,"האדמו""ר מבלז 9, בני ברק","האדמו""ר מבלז 9",6188-152-1,דירה בבית קומות,4.0,א,97.0,1770000,,,1960.0,,3.0,3256426356,1,6188152,False,,בני ברק,"האדמו""ר מבלז",,6188-152-1,6188/152,18247.42268041237,32.0852601383,34.8310493986,2012
2012-11-19,2012-11-19,"רבי עקיבא 118, בני ברק",רבי עקיבא 118,6122-889-18,דירה בבית קומות,2.0,ג,37.81,925000,,,1950.0,,3.0,3256559118,1,6122889,False,,בני ברק,רבי עקיבא,,6122-889-18,6122/889,24464.427400158685,32.0856135658,34.8344949105,2012
2012-11-19,2012-11-19,"הרצל 73, בני ברק",הרצל 73,6195-75-14,דירה בבית קומות,3.0,שניה,51.0,935000,,,1950.0,,2.0,3255892814,1,619575,False,,בני ברק,הרצל,,6195-75-14,6195/75,18333.33333333333,32.0934802216,34.8354012611,2012
2012-11-18,2012-11-18,"רבי ישראל אבו חצירא 10, בני ברק",רבי ישראל אבו חצירא 10,7361-60-13,דירה בבית קומות,3.0,שניה,43.88,834000,,,1960.0,,3.0,3255966793,1,736160,False,,בני ברק,אבו חצירא ישראל,,7361-60-13,7361/60,19006.38103919781,32.0934887974,34.8328653529,2012
2012-11-18,2012-11-18,"רחל 5, בני ברק",רחל 5,6123-713-38,דירה בבית קומות,2.5,ב,51.0,930000,,,1960.0,,3.0,3255745175,1,6123713,False,,בני ברק,רחל,,6123-713-38,6123/713,18235.29411764706,32.0832520758,34.8256842203,2012
2012-11-18,2012-11-18,"קושניר 16, בני ברק",קושניר 16,6187-209-4,דירה בבית קומות,2.0,שלישית,50.0,3808000,,,1950.0,,3.0,3255802392,1,6187209,False,,בני ברק,קושניר,,6187-209-4,6187/209,76160.0,32.0735183601,34.8410672536,2012
2012-11-18,2012-11-18,"האדמו""ר מרוז'ין 14, בני ברק","האדמו""ר מרוז'ין 14",6123-273-1,קוטג' חד משפחתי,7.0,ראשונה,400.0,5137000,,,1980.0,,1.0,3277007801,1,6123273,False,,בני ברק,"האדמו""ר מרוז'ין",,6123-273-1,6123/273,12842.5,32.0849865789,34.8277233812,2012
2012-11-18,2012-11-18,"נורדאו 11, בני ברק",נורדאו 11,6195-625-3,דירה בבית קומות,2.0,ראשונה,42.0,690000,,,1960.0,,3.0,3255768201,1,6195625,False,,בני ברק,נורדאו,,6195-625-3,6195/625,16428.571428571428,32.0931441972,34.8344859344,2012
2012-11-18,2012-11-18,"ראובן אהרונוביץ 17, בני ברק",ראובן אהרונוביץ 17,6192-42-21,דירה בבית קומות,4.0,חמישית,87.13,1240000,,,2013.0,,7.0,3256173708,1,619242,False,,בני ברק,אהרונוביץ ראובן,,6192-42-21,6192/42,14231.6079421554,32.0912580333,34.8395709566,2012
2012-11-18,2012-11-18,"רבי עקיבא 37, בני ברק",רבי עקיבא 37,6122-31-11,דירה בבית קומות,2.5,א,34.46,950000,,,1955.0,,4.0,3277477659,1,612231,False,0% ב 0.8 שנים,בני ברק,רבי עקיבא,0.0,6122-31-11,6122/31,27568.195008705745,32.0883675872,34.8273451188,2012
2012-11-15,2012-11-15,"בר-אילן 11, בני ברק",בר-אילן 11,6192-566-16,דירה בבית קומות,6.0,א,160.0,1800000,,,1950.0,,1.0,3255733981,1,6192566,False,298% ב 10.5 שנים,בני ברק,בר אילן,28.38,6192-566-16,6192/566,11250.0,32.089331051,34.840317435,2012
2012-11-15,2012-11-15,"לוי יצחק 2, בני ברק",לוי יצחק 2,6192-791-6,דירה בבית קומות,2.5,ב,41.0,1140000,,,1970.0,,3.0,3255880663,1,6192791,False,200% ב 8.3 שנים,בני ברק,לוי יצחק,24.1,6192-791-6,6192/791,27804.878048780487,32.092067283,34.8398800598,2012
2012-11-15,2012-11-15,"הירקון 1, בני ברק",הירקון 1,6196-397-26,משרד,,שישית,267.1,3970000,,,2005.0,,28.0,3256629501,1,6196397,False,,בני ברק,הירקון,,6196-397-26,6196/397,14863.347061025832,32.0960371716,34.8220609922,2012
2012-11-15,2012-11-15,"מינץ 29, בני ברק",מינץ 29,6122-223-3,דירה בבית קומות,4.0,,120.0,1900000,,,1983.0,,3.0,3255685580,1,6122223,False,,בני ברק,מינץ,,6122-223-3,6122/223,15833.333333333334,32.0901890029,34.8269769208,2012
2012-11-15,2012-11-15,"רמז 8, בני ברק",רמז 8,6188-369-6,דירה בבית קומות,3.0,שניה,75.0,1325000,,,2012.0,,2.0,3256087346,1,6188369,False,,בני ברק,רמז,,6188-369-6,6188/369,17666.666666666668,32.0768708625,34.8306275014,2012
2012-11-14,2012-11-14,"רד""ק 10, בני ברק","רד""ק 10",6122-1333-4,דירה בבית קומות,2.0,ב,47.08,1050000,,,1960.0,,3.0,3256024648,1,61221333,False,,בני ברק,"רד""ק",,6122-1333-4,6122/1333,22302.46389124894,32.0882935665,34.8346504412,2012
2012-11-14,2012-11-14,"ראובן אהרונוביץ 44, בני ברק",ראובן אהרונוביץ 44,6192-956-10,דירה בבית קומות,3.0,ראשונה,56.0,850000,,,1970.0,,4.0,3255985643,1,6192956,False,,בני ברק,אהרונוביץ ראובן,,6192-956-10,6192/956,15178.57142857143,32.0861204959,34.8392227896,2012
2012-11-14,2012-11-14,"בית יוסף 2, בני ברק",בית יוסף 2,6192-906-3,דירה בבית קומות,3.0,שניה,63.5,1175000,,,1972.0,,3.0,3256225415,1,6192906,False,,בני ברק,בית יוסף,,6192-906-3,6192/906,18503.93700787401,32.0919225337,34.8403214191,2012
2012-11-14,2012-11-14,"אלישע 17, בני ברק",אלישע 17,6192-880-11,דירה בבית קומות,3.0,א,61.0,1270000,,,1970.0,,3.0,3255939272,1,6192880,False,,בני ברק,אלישע,,6192-880-11,6192/880,20819.67213114754,32.085182275,34.8384255034,2012
2012-11-14,2012-11-14,"הרב בן-יעקב 20, בני ברק",הרב בן-יעקב 20,6190-193-5,דירה בבית קומות,3.0,שלישית,60.5,1775000,,,1970.0,,3.0,3255891625,1,6190193,False,44% ב 7.4 שנים,בני ברק,הרב בן יעקב,5.95,6190-193-5,6190/193,29338.84297520661,32.0776554189,34.8397284238,2012
2012-11-14,2012-11-14,"רבי עקיבא 111, בני ברק",רבי עקיבא 111,6122-1292-2,דירה בבית קומות,2.0,מרתף,48.5,2100000,,,1950.0,,4.0,3255909605,1,61221292,False,37% ב 1.9 שנים,בני ברק,רבי עקיבא,19.47,6122-1292-2,6122/1292,43298.96907216495,32.0859848422,34.8344968579,2012
2012-11-14,2012-11-14,"בן-זכאי 64, בני ברק",בן-זכאי 64,6124-317-21,דירה בבית קומות,3.0,ב,51.5,1235000,,,1960.0,,3.0,3256012410,1,6124317,False,5% ב 2 שנים,בני ברק,בן זכאי,2.5,6124-317-21,6124/317,23980.58252427185,32.0797515328,34.8304537751,2012
2012-11-14,2012-11-14,"ביל""ו 9, בני ברק","ביל""ו 9",6122-282-2,דירה בבית קומות,3.0,א,46.0,770000,,,1962.0,,3.0,3255969896,1,6122282,False,,בני ברק,"ביל""ו",,6122-282-2,6122/282,16739.130434782608,32.0916144336,34.8342570183,2012
2012-11-13,2012-11-13,"ניל""י 3, בני ברק","ניל""י 3",6196-104-62,משרד,,חמישית,100.0,1090000,,,2013.0,,31.0,3256618481,1,6196104,False,,בני ברק,"ניל""י",,6196-104-62,6196/104,10900.0,32.0944440037,34.8242950858,2012
2012-11-13,2012-11-13,"מינץ 29, בני ברק",מינץ 29,6122-223-2,דירה בבית קומות,3.0,שלישית,72.0,1080000,,,1983.0,,3.0,3255844993,1,6122223,False,,בני ברק,מינץ,,6122-223-2,6122/223,15000.0,32.0901890029,34.8269769208,2012
2012-11-13,2012-11-13,"אלישע 19, בני ברק",אלישע 19,6192-788-12,דירה בבית קומות,3.0,ד,59.0,1270000,,,1960.0,,4.0,3255678475,1,6192788,False,178% ב 14.2 שנים,בני ברק,אלישע,12.54,6192-788-12,6192/788,21525.42372881356,32.0853826994,34.8384792829,2012
2012-11-13,2012-11-13,"נחמיה 22, בני ברק",נחמיה 22,6190-481-3,דירה בבית קומות,3.0,ראשונה,74.7,1206000,,,1965.0,,3.0,3256228286,1,6190481,True,-10% ב 1.5 שנים,בני ברק,נחמיה,-6.67,6190-481-3,6190/481,16144.578313253012,32.0789885085,34.8368534038,2012
2012-11-13,2012-11-13,"רלב""ג 8, בני ברק","רלב""ג 8",6188-493-9,דירה בבית קומות,3.0,ב,72.5,1345000,,,1960.0,,3.0,3256265290,1,6188493,False,,בני ברק,"רלב""ג",,6188-493-9,6188/493,18551.72413793104,32.0853016325,34.8315471662,2012
2012-11-12,2012-12-11,"בגנו משה 28, בני ברק",בגנו משה 28,6124-36-5,דירה בבית קומות,3.0,ב,63.0,1335000,,,1963.0,,3.0,3256539775,1,612436,False,,בני ברק,בגנו משה,,6124-36-5,6124/36,21190.47619047619,32.0820798308,34.8278046918,2012
2012-11-12,2012-12-11,"בית יוסף 12, בני ברק",בית יוסף 12,6192-52-23,דירה בבית קומות,4.0,שניה,100.0,1250000,,,2012.0,,6.0,3256714616,1,619252,False,,בני ברק,בית יוסף,,6192-52-23,6192/52,12500.0,32.0912766327,34.8399666373,2012
2012-11-11,2012-11-11,"יונה הנביא 8, בני ברק",יונה הנביא 8,6192-237-9,דירה בבית קומות,5.0,שניה,99.0,1300000,,,1970.0,,4.0,3256403620,1,6192237,False,,בני ברק,יונה הנביא,,6192-237-9,6192/237,13131.31313131313,32.0848350206,34.8380577235,2012
2012-11-11,2012-11-11,"צייטלין 1, בני ברק",צייטלין 1,6122-627-1,דירה בבית קומות,4.0,ראשונה,70.0,1270000,,,1980.0,,4.0,3256514168,1,6122627,False,87% ב 8.4 שנים,בני ברק,צייטלין,10.36,6122-627-1,6122/627,18142.85714285714,32.0916351335,34.8355271261,2012
2012-11-10,2012-10-11,"עמק יזרעאל 18, בני ברק",עמק יזרעאל 18,6105-95-5,דירה בבית קומות,4.0,שלישית,100.0,1190000,,,2011.0,,1.0,3254730755,1,610595,False,,בני ברק,עמק יזרעאל,,6105-95-5,6105/95,11900.0,32.0973913888,34.835369679,2012
2012-11-09,2012-09-11,"שח""ל 22, בני ברק","שח""ל 22",6192-622-39,דירה בבית קומות,3.0,שניה,70.0,1225000,,,2013.0,,,3254883411,1,6192622,False,,בני ברק,"שח""ל",,6192-622-39,6192/622,17500.0,32.091191331,34.8423739816,2012
2012-11-09,2012-09-11,"שמואל הנביא 13, בני ברק",שמואל הנביא 13,6123-142-6,דירה בבית קומות,1.0,ב,22.0,320000,,,1965.0,,3.0,3255103811,1,6123142,False,,בני ברק,שמואל הנביא,,6123-142-6,6123/142,14545.454545454546,32.0896178766,34.8249197056,2012
2012-11-07,2012-07-11,"שלמה בן-יוסף 7, בני ברק",שלמה בן-יוסף 7,6196-271-8,דירה בבית קומות,3.0,ראשונה,49.0,865000,,,1960.0,,3.0,3252866548,1,6196271,False,,בני ברק,בן יוסף שלמה,,6196-271-8,6196/271,17653.061224489797,32.0931773049,34.8303304167,2012
2012-11-07,2012-07-11,"שלמה בן-יוסף 14, בני ברק",שלמה בן-יוסף 14,6196-297-5,דירה בבית קומות,4.5,שלישית,49.2,960000,,,1970.0,,6.0,3252866780,1,6196297,False,,בני ברק,בן יוסף שלמה,,6196-297-5,6196/297,19512.19512195122,32.0944753452,34.8297458512,2012
2012-11-07,2012-07-11,"ראב""ד 22, בני ברק","ראב""ד 22",6188-499-49,דירה בבית קומות,4.0,ב,62.0,1350000,,,1960.0,,3.0,3253127809,1,6188499,False,63% ב 7.7 שנים,בני ברק,"ראב""ד",8.18,6188-499-49,6188/499,21774.1935483871,32.0837350795,34.8316882545,2012
2012-11-07,2012-07-11,"דונולו 14, בני ברק",דונולו 14,6122-1150-11,דירה בבית קומות,2.0,ג,52.0,1050000,,,1960.0,,3.0,3255282219,1,61221150,False,10% ב 3 שנים,בני ברק,דונולו,3.33,6122-1150-11,6122/1150,20192.30769230769,32.0880422068,34.8350052491,2012
2012-11-07,2012-07-11,"קלישר 9, בני ברק",קלישר 9,6192-739-8,קרקע למגורים,2.0,ראשונה,32.95,1400000,,,1951.0,,2.0,3253488569,1,6192739,False,,בני ברק,קלישר,,6192-739-8,6192/739,42488.61911987861,32.0901537504,34.8441921748,2012
2012-11-06,2012-06-11,"קובלסקי 7, בני ברק",קובלסקי 7,6195-806-4,דירה בבית קומות,3.0,שניה,67.4,950000,,,1970.0,,4.0,3251880606,1,6195806,False,32% ב 3.3 שנים,בני ברק,קובלסקי,9.7,6195-806-4,6195/806,14094.955489614242,32.0975000441,34.8422772541,2012
2012-11-03,2012-03-11,"הרב יוסף זוננפלד 3, בני ברק",הרב יוסף זוננפלד 3,6189-1065-4,חנות,,קרקע עליונה,24.3,209000,,,1960.0,,,3250325713,1,61891065,False,,בני ברק,הרב זוננפלד יוסף,,6189-1065-4,6189/1065,8600.823045267489,32.0811008309,34.8418622002,2012
2012-11-01,2012-01-11,"הרב שך 32, בני ברק",הרב שך 32,6122-493-9,דירה בבית קומות,5.0,חמישית,82.0,1700000,,,2004.0,,5.0,3248977039,1,6122493,False,62% ב 7.4 שנים,בני ברק,הרב שך,8.38,6122-493-9,6122/493,20731.70731707317,32.0882914637,34.8358787299,2012
2012-11-01,2012-01-11,"ביאליק 28, בני ברק",ביאליק 28,6195-152-7,דירה בבית קומות,2.5,ב,45.0,800000,,,1960.0,,3.0,3248566254,1,6195152,False,,בני ברק,ביאליק,,6195-152-7,6195/152,17777.777777777777,32.0947540251,34.8369978138,2012
2012-10-31,2012-10-31,"חזון איש 21, בני ברק",חזון איש 21,6190-325-1,דירה בבית קומות,5.0,ראשונה,112.5,1800000,,,1970.0,,3.0,3256395239,1,6190325,False,,בני ברק,חזון איש,,6190-325-1,6190/325,16000.0,32.0832411048,34.8359659571,2012
2012-10-31,2012-10-31,"הרב שר 4, בני ברק",הרב שר 4,6122-1888-1,משרד,,ראשונה,37.0,133000,,,2011.0,,1.0,3255446359,1,61221888,False,,בני ברק,הרב שר,,6122-1888-1,6122/1888,3594.5945945945946,32.0896479058,34.8286702524,2012
2012-10-31,2012-10-31,"רמב""ם 27, בני ברק","רמב""ם 27",6122-1507-4,דירה בבית קומות,2.5,ב,54.0,1200000,,,1965.0,,4.0,3255515495,1,61221507,False,,בני ברק,"רמב""ם",,6122-1507-4,6122/1507,22222.222222222223,32.0895285875,34.8291921913,2012
2012-10-30,2012-10-30,"באר מים חיים 10, בני ברק",באר מים חיים 10,6189-1169-9,דירה בבית קומות,3.0,שלישית,70.56,1260000,,,1975.0,,6.0,3255467906,1,61891169,False,,בני ברק,באר מים חיים,,6189-1169-9,6189/1169,17857.142857142855,32.08291126,34.8414337373,2012
2012-10-30,2012-10-30,"צבי 19, בני ברק",צבי 19,6790-63-19,דירה בבית קומות,4.0,ראשונה,66.0,1300000,,,1997.0,,,3255366928,1,679063,False,,בני ברק,צבי,,6790-63-19,6790/63,19696.969696969696,32.0987907354,34.8384286049,2012
2012-10-30,2012-10-30,"הרב קוק 46, בני ברק",הרב קוק 46,6123-568-4,דירה בבית קומות,2.0,הקרקע,29.0,745000,,,1965.0,,2.0,3255210937,1,6123568,False,101% ב 9.9 שנים,בני ברק,הרב קוק,10.2,6123-568-4,6123/568,25689.655172413797,32.0854922865,34.8231103433,2012
2012-10-29,2012-10-29,"הרב אברמסקי 43, בני ברק",הרב אברמסקי 43,6790-58-25,דירה בבית קומות,4.0,שלישית,76.0,950000,,,1997.0,,,3255728703,1,679058,False,,בני ברק,הרב אברמסקי,,6790-58-25,6790/58,12500.0,32.0994779642,34.8384736772,2012
2012-10-29,2012-10-29,"דנגור 21, בני ברק",דנגור 21,7361-14-18,דירה בבית קומות,3.0,ראשונה,63.1,350000,,,1970.0,,4.0,3284618155,1,736114,False,,בני ברק,דנגור,,7361-14-18,7361/14,5546.75118858954,32.096113807,34.8311534427,2012
2012-10-28,2012-10-28,"ניל""י 3, בני ברק","ניל""י 3",6196-104-61,משרד,,שבע עשרה,222.0,2571200,,,2013.0,,31.0,3256166545,1,6196104,False,,בני ברק,"ניל""י",,6196-104-61,6196/104,11581.981981981982,32.0944440037,34.8242950858,2012
2012-10-28,2012-10-28,"הרב בלוי 4, בני ברק",הרב בלוי 4,6122-563-3,דירה בבית קומות,2.0,"א,ב",54.0,1040000,,,1960.0,,7.0,3256092363,1,6122563,False,,בני ברק,הרב בלוי,,6122-563-3,6122/563,19259.25925925926,32.0866499518,34.8331016956,2012
2012-10-28,2012-10-28,"הר סיני 17, בני ברק",הר סיני 17,6187-195-5,דירה בבית קומות,7.0,שלישית+גג,170.53,2550000,,,1985.0,,6.0,3256262970,1,6187195,False,,בני ברק,הר סיני,,6187-195-5,6187/195,14953.380636838094,32.0741314848,34.8403140383,2012
2012-10-28,2012-10-28,"ניל""י 3, בני ברק","ניל""י 3",6196-104-60,מחסנים,,ראשונה,,74000,,,2013.0,,31.0,3256631647,1,6196104,False,,בני ברק,"ניל""י",,6196-104-60,6196/104,,32.0944440037,34.8242950858,2012
2012-10-28,2012-10-28,"השר יגאל אלון 14, בני ברק",השר יגאל אלון 14,6790-4-36,דירה בבית קומות,3.0,ראשונה,68.6,1300000,,,1970.0,,4.0,3255361476,1,67904,False,152% ב 4.9 שנים,בני ברק,השר אלון יגאל,31.02,6790-4-36,6790/4,18950.437317784257,32.0979243662,34.8365821271,2012
2012-10-26,2012-10-26,"אדמו""רי שאץ 7, בני ברק","אדמו""רי שאץ 7",6187-252-2,דירה בבית קומות,4.0,שניה,108.2,1340000,,,1982.0,,3.0,3256049037,1,6187252,False,,בני ברק,אדמורי שאץ,,6187-252-2,6187/252,12384.473197781885,32.0745427606,34.8417186763,2012
2012-10-25,2012-10-25,"טבריה 10, בני ברק",טבריה 10,6123-949-8,דירה בבית קומות,3.0,שניה,58.0,1250000,,,1970.0,,3.0,3255138205,1,6123949,False,92% ב 7.9 שנים,בני ברק,טבריה,11.65,6123-949-8,6123/949,21551.72413793104,32.0870536349,34.8255416467,2012
2012-10-25,2012-10-25,"הרב יוסף זוננפלד 20, בני ברק",הרב יוסף זוננפלד 20,6189-1089-9,דירה בבית קומות,5.0,שלישית,111.0,1550000,,,1980.0,,5.0,3256029462,1,61891089,False,,בני ברק,הרב זוננפלד יוסף,,6189-1089-9,6189/1089,13963.963963963964,32.0804473275,34.8434636676,2012
2012-10-25,2012-10-25,"הרב שטרסר 11, בני ברק",הרב שטרסר 11,6122-559-20,דירה בבית קומות,3.0,ג,69.5,1420000,,,1957.0,,3.0,3255276999,1,6122559,False,172% ב 14.3 שנים,בני ברק,הרב שטרסר,12.03,6122-559-20,6122/559,20431.654676258997,32.0872064081,34.8327402584,2012
2012-10-25,2012-10-25,"רחל 9, בני ברק",רחל 9,6123-711-13,דירה בבית קומות,5.0,ג,84.0,2450000,,,1970.0,,3.0,3255157142,1,6123711,False,,בני ברק,רחל,,6123-711-13,6123/711,29166.666666666668,32.0835346755,34.8259814609,2012
2012-10-24,2012-10-24,"דניאל 6, בני ברק",דניאל 6,6124-2-45,דירה בבית קומות,2.0,ב,63.9,1000000,,,1950.0,,3.0,3255174310,1,61242,False,128% ב 12.4 שנים,בני ברק,דניאל,10.32,6124-2-45,6124/2,15649.45226917058,32.0821143003,34.826084785,2012
2012-10-24,2012-10-24,"הרב ניסים יצחק 6, בני ברק",הרב ניסים יצחק 6,6187-420-8,דירה בבית קומות,4.0,שלישית וגג,90.0,1790000,,,1985.0,,3.0,3255274853,1,6187420,False,,בני ברק,הרב נסים יצחק,,6187-420-8,6187/420,19888.88888888889,32.0729560527,34.8408823858,2012
2012-10-24,2012-10-24,"עזרא 53, בני ברק",עזרא 53,6187-531-21,דירה בבית קומות,5.0,חמישית,130.59,1450000,,,2013.0,,6.0,3255873935,1,6187531,False,,בני ברק,עזרא,,6187-531-21,6187/531,11103.453556933917,32.0755132447,34.8348685676,2012
2012-10-24,2012-10-24,"האדמו""ר מקוצק 2, בני ברק","האדמו""ר מקוצק 2",6187-414-1,מחסנים,,מרתף,43.6,225000,,,1970.0,,2.0,3255589706,1,6187414,False,12% ב 1.6 שנים,בני ברק,"האדמו""ר מקוצק",7.5,6187-414-1,6187/414,5160.5504587155965,32.0747901906,34.8408453289,2012
2012-10-24,2012-10-24,"ניל""י 3, בני ברק","ניל""י 3",6196-104-58,משרד,,שבע עשרה,154.0,1638000,,,2013.0,,31.0,3256088796,1,6196104,False,,בני ברק,"ניל""י",,6196-104-58,6196/104,10636.363636363636,32.0944440037,34.8242950858,2012
2012-10-24,2012-10-24,"ניל""י 3, בני ברק","ניל""י 3",6196-104-59,משרד,,שבע עשרה,154.0,1838000,,,2013.0,,31.0,3256088332,1,6196104,False,,בני ברק,"ניל""י",,6196-104-59,6196/104,11935.064935064936,32.0944440037,34.8242950858,2012
2012-10-24,2012-10-24,"הרב עוזיאל 7, בני ברק",הרב עוזיאל 7,6190-93-2,דירה בבית קומות,5.0,ראשונה,106.1,1690000,,,1999.0,,3.0,3255276767,1,619093,False,,בני ברק,הרב עוזיאל,,6190-93-2,6190/93,15928.369462770972,32.0757423158,34.8408330598,2012
2012-10-24,2012-10-24,"גורדון 17, בני ברק",גורדון 17,6124-361-1,דירה בבית קומות,4.0,קרקע תחתונה,87.0,2300000,,,1950.0,,4.0,3255600668,1,6124361,False,4% ב 1.6 שנים,בני ברק,גורדון,2.5,6124-361-1,6124/361,26436.7816091954,32.0777617845,34.8315338785,2012
2012-10-23,2012-10-23,"פנקס 4, בני ברק",פנקס 4,6124-339-9,דירה בבית קומות,3.5,שלישית,83.18,1584000,,,1975.0,,4.0,3255534693,1,6124339,False,,בני ברק,פנקס,,6124-339-9,6124/339,19043.039192113487,32.0811736381,34.828915806,2012
2012-10-23,2012-10-23,"הירקון 1, בני ברק",הירקון 1,6196-397-84,משרד,,עשרים וחמש,502.95,10362000,,,2005.0,,28.0,3255642834,1,6196397,False,,בני ברק,הירקון,,6196-397-84,6196/397,20602.44557113033,32.0960371716,34.8220609922,2012
2012-10-23,2012-10-23,"הושע 20, בני ברק",הושע 20,6192-1230-54,דירה בבית קומות,6.0,שניה,150.0,2023000,,,2022.0,,7.0,3255506215,1,61921230,False,,בני ברק,הושע,,6192-1230-54,6192/1230,13486.666666666666,32.087962572,34.8380357775,2012
2012-10-23,2012-10-23,"רבי עקיבא 37, בני ברק",רבי עקיבא 37,6122-31-18,דירה בבית קומות,2.5,ב,37.48,950000,,,1955.0,,4.0,3255352863,1,612231,False,,בני ברק,רבי עקיבא,,6122-31-18,6122/31,25346.851654215585,32.0883675872,34.8273451188,2012
2012-10-23,2012-10-23,"הדסים 2, בני ברק",הדסים 2,6195-566-9,דירה בבית קומות,3.0,ראשונה,75.0,700000,,,2012.0,,4.0,3252028216,1,6195566,False,,בני ברק,הדסים,,6195-566-9,6195/566,9333.333333333334,32.0929711697,34.8426399709,2012
2012-10-22,2012-10-22,"ז'בוטינסקי 4, בני ברק",ז'בוטינסקי 4,6196-28-9,דירה בבית קומות,2.0,א,50.0,978000,,,1950.0,,5.0,3255111148,1,619628,False,,בני ברק,ז'בוטינסקי,,6196-28-9,6196/28,19560.0,32.0906180606,34.8232118133,2012
2012-10-22,2012-10-22,"הרצל 63, בני ברק",הרצל 63,6195-83-1,דירה בבית קומות,3.0,,100.0,1220000,,,1970.0,,4.0,3255875588,1,619583,False,,בני ברק,הרצל,,6195-83-1,6195/83,12200.0,32.0927936208,34.8352166536,2012
2012-10-22,2012-10-22,"בן זכאי 51, בני ברק",בן זכאי 51,6188-186-7,דירה בבית קומות,3.0,ב,62.0,1350000,,,1960.0,,3.0,3255682564,1,6188186,False,,בני ברק,בן זכאי,,6188-186-7,6188/186,21774.1935483871,32.0806860806,34.8312551169,2012
2012-10-22,2012-10-22,"הרב יוסף חיים 3, בני ברק",הרב יוסף חיים 3,6196-238-10,דירה בבית קומות,2.0,ראשונה,58.2,600000,,,1960.0,,2.0,3255672733,1,6196238,False,33% ב 12.3 שנים,בני ברק,הרב יוסף חיים,2.68,6196-238-10,6196/238,10309.278350515464,32.0929666802,34.8289592196,2012
2012-10-21,2012-10-21,"אנילביץ 30, בני ברק",אנילביץ 30,6124-186-2,קרקע למגורים,,,30.0,112000,,,,,,3255223117,1,6124186,False,,בני ברק,אנילביץ,,6124-186-2,6124/186,3733.3333333333335,32.0809185797,34.8297271962,2012
2012-10-21,2012-10-21,"דוד בן-גוריון 11, בני ברק",דוד בן-גוריון 11,6196-376-138,משרד,,שלוש עשרה,178.5,2354000,,,2013.0,,22.0,3255914651,1,6196376,False,,בני ברק,בן גוריון דוד,,6196-376-138,6196/376,13187.675070028012,32.09415029,34.8227360192,2012
2012-10-21,2012-10-21,"בעל שם-טוב 7, בני ברק",בעל שם-טוב 7,6122-581-1,משרד,,ראשונה,30.0,2254000,,,1950.0,,2.0,3256109357,1,6122581,False,,בני ברק,בעל שם טוב,,6122-581-1,6122/581,75133.33333333333,32.0852553795,34.8342309514,2012
2012-10-19,2012-10-19,"יהודה הנשיא 52, בני ברק",יהודה הנשיא 52,6124-329-12,דירה בבית קומות,3.5,ב,69.0,1575000,,,1960.0,,3.0,3254954751,1,6124329,False,,בני ברק,יהודה הנשיא,,6124-329-12,6124/329,22826.08695652174,32.0792368799,34.8313033243,2012
2012-10-18,2012-10-18,"ניל""י 3, בני ברק","ניל""י 3",6196-104-57,חנות,,,52.0,569000,,,2013.0,,31.0,3255187969,1,6196104,False,,בני ברק,"ניל""י",,6196-104-57,6196/104,10942.307692307691,32.0944440037,34.8242950858,2012
2012-10-18,2012-10-18,"הרצל 65, בני ברק",הרצל 65,6195-81-2,קרקע למגורים,,,544.0,1700000,,,0.0,,6.0,3255878227,1,619581,False,,בני ברק,הרצל,,6195-81-2,6195/81,3125.0,32.0930191766,34.8352301272,2012
2012-10-18,2012-10-18,"דנגור 12, בני ברק",דנגור 12,7361-42-8,דירה בבית קומות,3.0,שניה,63.05,877000,,,1960.0,,4.0,3255053757,1,736142,False,81% ב 5.1 שנים,בני ברק,דנגור,15.88,7361-42-8,7361/42,13909.595559080097,32.0962439787,34.8316774332,2012
2012-10-18,2012-10-18,"טרומפלדור 36, בני ברק",טרומפלדור 36,6195-462-3,דירה בבית קומות,2.0,א,41.0,820000,,,1960.0,,3.0,3254950894,1,6195462,False,,בני ברק,טרומפלדור,,6195-462-3,6195/462,20000.0,32.0953763566,34.8369840659,2012
2012-10-18,2012-10-18,"אז""ר 3, בני ברק","אז""ר 3",6122-1350-5,דירה בבית קומות,2.5,ב,46.0,1060000,,,1960.0,,4.0,3255368871,1,61221350,False,,בני ברק,"אז""ר",,6122-1350-5,6122/1350,23043.478260869564,32.0906576601,34.8340755802,2012
2012-10-17,2012-10-17,"הפלמ""ח 10, בני ברק","הפלמ""ח 10",6195-308-5,דירה בבית קומות,2.0,ב,41.0,779000,,,1960.0,,3.0,3277175450,1,6195308,False,221% ב 12.6 שנים,בני ברק,"הפלמ""ח",17.54,6195-308-5,6195/308,19000.0,32.0936524193,34.8396858992,2012
2012-10-17,2012-10-17,"הרצל 63, בני ברק",הרצל 63,6195-83-15,דירה בבית קומות,4.0,ראשונה,120.0,1800000,,,1970.0,,4.0,3255905516,1,619583,False,,בני ברק,הרצל,,6195-83-15,6195/83,15000.0,32.0927936208,34.8352166536,2012
2012-10-17,2012-10-17,"אנילביץ 60, בני ברק",אנילביץ 60,6124-196-20,דירה בבית קומות,2.0,ב,47.3,1050000,,,1960.0,,3.0,3254970991,1,6124196,False,165% ב 12.1 שנים,בני ברק,אנילביץ,13.64,6124-196-20,6124/196,22198.73150105709,32.0792463489,34.8289573533,2012
2012-10-16,2012-10-16,"יהושע 12, בני ברק",יהושע 12,6123-528-9,דירה בבית קומות,3.0,שלישית,62.0,1340000,,,1965.0,,3.0,3254953301,1,6123528,False,,בני ברק,יהושע,,6123-528-9,6123/528,21612.90322580645,32.0852697518,34.8285010721,2012
2012-10-16,2012-10-16,"האדמו""ר מקוצק 46, בני ברק","האדמו""ר מקוצק 46",6187-153-5,דירה בבית קומות,3.0,שניה,58.5,1000000,,,1960.0,,3.0,3255200903,1,6187153,False,,בני ברק,"האדמו""ר מקוצק",,6187-153-5,6187/153,17094.017094017094,32.0721708045,34.83998397,2012
2012-10-15,2012-10-15,"חשב סופר 9, בני ברק",חשב סופר 9,6122-1298-6,דירה בבית קומות,5.0,שלישית +גג,107.4,2000000,,,1988.0,,3.0,3255120747,1,61221298,False,,בני ברק,חשב סופר,,6122-1298-6,6122/1298,18621.973929236497,32.0895342549,34.8351160726,2012
2012-10-14,2012-10-14,"ניל""י 3, בני ברק","ניל""י 3",6196-104-55,מחסנים,,ראשונה,40.0,160000,,,2013.0,,31.0,3255341582,1,6196104,False,,בני ברק,"ניל""י",,6196-104-55,6196/104,4000.0,32.0944440037,34.8242950858,2012
2012-10-14,2012-10-14,"סוקולוב 17, בני ברק",סוקולוב 17,6122-420-7,דירה בבית קומות,2.0,ב,49.0,910000,,,1955.0,,3.0,3255173846,1,6122420,False,,בני ברק,סוקולוב,,6122-420-7,6122/420,18571.42857142857,32.0877189003,34.8335448615,2012
2012-10-13,2012-10-13,"שבטי ישראל 33, בני ברק",שבטי ישראל 33,6122-807-3,דירה,3.0,ראשונה,60.0,1150000,1.0,זבוטינסקי,2013.0,,5.0,11181261023,1,6122807,False,,בני ברק,שבטי ישראל,,6122-807-3,6122/807,19166.666666666668,32.0919616859,34.8330597193,2012
2012-10-12,2012-12-10,"דמשק אליעזר 21, בני ברק",דמשק אליעזר 21,6187-283-1,דירה בבית קומות,1.5,קרקע,40.0,550000,,,1966.0,,3.0,3256833313,1,6187283,False,,בני ברק,דמשק אליעזר,,6187-283-1,6187/283,13750.0,32.0747762928,34.8376092185,2012
2012-10-12,2012-12-10,"רבינא 1, בני ברק",רבינא 1,6190-198-7,דירה בבית קומות,5.0,רביעית,99.0,1780000,,,1970.0,,4.0,3256465651,1,6190198,False,,בני ברק,רבינא,,6190-198-7,6190/198,17979.79797979798,32.0779218363,34.8387971969,2012
2012-10-12,2012-12-10,"חברון 27, בני ברק",חברון 27,6123-877-13,דירה בבית קומות,3.0,ב,69.0,1325000,,,1960.0,,4.0,3256333266,1,6123877,False,26% ב 0.8 שנים,בני ברק,חברון,32.5,6123-877-13,6123/877,19202.89855072464,32.0856081133,34.8258856697,2012
2012-10-12,2012-12-10,"בית יוסף 12, בני ברק",בית יוסף 12,6192-52-9,דירה,4.0,שניה,100.0,1250000,1.0,בית יוסף,,,6.0,11181267064,1,619252,False,,בני ברק,בית יוסף,,6192-52-9,6192/52,12500.0,32.0912766327,34.8399666373,2012
2012-10-12,2012-12-10,"רמב""ם 29, בני ברק","רמב""ם 29",6122-1097-4,דירה בבית קומות,5.0,ב,120.0,1420000,,,1950.0,,3.0,3256633822,1,61221097,False,154% ב 8 שנים,בני ברק,"רמב""ם",19.25,6122-1097-4,6122/1097,11833.333333333334,32.0896390023,34.8293336552,2012
2012-10-12,2012-12-10,"הרב ברוט 16, בני ברק",הרב ברוט 16,7361-71-1,דירה בבית קומות,2.0,ראשונה,31.4,745000,,,1970.0,,4.0,3277137025,1,736171,False,,בני ברק,הרב ברוט,,7361-71-1,7361/71,23726.11464968153,32.0939000082,34.8345429996,2012
2012-10-10,2012-10-10,"גניחובסקי 10, בני ברק",גניחובסקי 10,6195-766-6,דירה בבית קומות,4.0,שניה,82.67,1120000,,,1976.0,,4.0,3254739136,1,6195766,False,,בני ברק,גניחובסקי,,6195-766-6,6195/766,13547.840812870449,32.099202798,34.8421266754,2012
2012-10-10,2012-10-10,"שח""ל 24, בני ברק","שח""ל 24",6192-622-2,דירה בבית קומות,4.0,שלישית,100.0,1470000,,,2013.0,,,3255587821,1,6192622,True,-2% ב 0.5 שנים,בני ברק,"שח""ל",-4.0,6192-622-2,6192/622,14700.0,32.091191331,34.8423739816,2012
2012-10-10,2012-10-10,"ז'בוטינסקי 37, בני ברק",ז'בוטינסקי 37,6196-263-2,דירה בבית קומות,2.0,,50.0,701000,,,1960.0,,3.0,3254999933,1,6196263,False,,בני ברק,ז'בוטינסקי,,6196-263-2,6196/263,14020.0,32.0918032212,34.8297629321,2012
2012-10-10,2012-10-10,"דמשק אליעזר 26, בני ברק",דמשק אליעזר 26,6187-291-2,דירה בבית קומות,3.0,ראשונה,62.0,1360000,,,1970.0,,3.0,3255031514,1,6187291,False,,בני ברק,דמשק אליעזר,,6187-291-2,6187/291,21935.483870967742,32.07301723,34.8370555772,2012
2012-10-09,2012-09-10,"שח""ל 22, בני ברק","שח""ל 22",6192-622-9,דירה,3.0,,70.0,1225000,1.0,,2013.0,,,11181267086,1,6192622,False,,בני ברק,"שח""ל",,6192-622-9,6192/622,17500.0,32.091191331,34.8423739816,2012
2012-10-09,2012-09-10,"הרי גולן 13, בני ברק",הרי גולן 13,6105-91-11,דירה בבית קומות,3.0,,70.0,980000,,,1950.0,,3.0,3254985810,1,610591,False,,בני ברק,הרי גולן,,6105-91-11,6105/91,14000.0,32.0985536312,34.8353337334,2012
2012-10-09,2012-09-10,"שלמה בן-יוסף 16, בני ברק",שלמה בן-יוסף 16,6196-296-18,דירה בבית קומות,4.0,רביעית+גג,96.64,1170000,,,1995.0,,4.0,3254423094,1,6196296,False,,בני ברק,בן יוסף שלמה,,6196-296-18,6196/296,12106.788079470198,32.09470376,34.8295385842,2012
2012-10-09,2012-09-10,"ירושלים 71, רמת גן",ירושלים 71,6159-330-6,דירה בבית קומות,2.0,שניה,52.0,940000,,,1960.0,,2.0,3254242888,1,6159330,False,,בני ברק,ירושלים,,6159-330-6,6159/330,18076.92307692308,32.0824628058,34.8256582062,2012
2012-10-09,2012-09-10,"ז'בוטינסקי 31, בני ברק",ז'בוטינסקי 31,6196-257-1,דירה בבית קומות,4.0,קרקע,75.0,860000,,,1970.0,,2.0,3254386467,1,6196257,False,,בני ברק,ז'בוטינסקי,,6196-257-1,6196/257,11466.666666666666,32.0919521905,34.8290396332,2012
2012-10-08,2012-08-10,"רבי עקיבא 109, בני ברק",רבי עקיבא 109,6122-1291-14,דירה בבית קומות,2.5,ג,48.5,1095000,,,1950.0,,3.0,3253492194,1,61221291,False,101% ב 7 שנים,בני ברק,רבי עקיבא,14.43,6122-1291-14,6122/1291,22577.319587628863,32.0860016929,34.8342978482,2012
2012-10-08,2012-08-10,"חידושי הרי""ם 5, בני ברק","חידושי הרי""ם 5",6190-747-14,דירה בבית קומות,4.0,"גג, גג עליון",100.0,900000,,,1960.0,,4.0,3253710158,1,6190747,True,-10% ב 4.1 שנים,בני ברק,"חידושי הרי""ם",-2.44,6190-747-14,6190/747,9000.0,32.0771559027,34.8359390642,2012
2012-10-08,2012-08-10,"טרומפלדור 20, בני ברק",טרומפלדור 20,6195-114-10,דירה בבית קומות,4.0,גג,64.0,1400000,,,1960.0,,3.0,3254428372,1,6195114,False,,בני ברק,טרומפלדור,,6195-114-10,6195/114,21875.0,32.0953271251,34.8384696781,2012
2012-10-07,2012-07-10,"דוד המלך 5, בני ברק",דוד המלך 5,6123-747-12,דירה בבית קומות,2.0,ב,49.0,860000,,,1960.0,,3.0,3252669377,1,6123747,False,,בני ברק,דוד המלך,,6123-747-12,6123/747,17551.020408163266,32.0837570523,34.8269374875,2012
2012-10-07,2012-07-10,"קהילות יעקב 11, בני ברק",קהילות יעקב 11,6190-112-3,דירה בבית קומות,4.0,ראשונה,95.3,1420000,,,1985.0,,3.0,3252661054,1,6190112,False,,בני ברק,קהילות יעקב,,6190-112-3,6190/112,14900.314795383,32.0756016291,34.8400549169,2012
2012-10-07,2012-07-10,"ירושלים 62, בני ברק",ירושלים 62,6123-782-10,דירה בבית קומות,4.0,ב,79.0,1140000,,,1960.0,,4.0,3252808896,1,6123782,False,,בני ברק,ירושלים,,6123-782-10,6123/782,14430.379746835442,32.0832514712,34.827282209,2012
2012-10-07,2012-07-10,"המכבים 58, בני ברק",המכבים 58,7361-68-37,דירה בבית קומות,3.0,ראשונה,63.85,855000,,,1970.0,,5.0,3252756957,1,736168,False,71% ב 5.2 שנים,בני ברק,המכבים,13.65,7361-68-37,7361/68,13390.759592795614,32.0938743749,34.8330627528,2012
2012-10-07,2012-07-10,"אוסישקין 8, בני ברק",אוסישקין 8,6195-241-9,דירה בבית קומות,3.5,שלישית,64.05,350000,,,1960.0,,6.0,3253502982,1,6195241,False,89% ב 6 שנים,בני ברק,אוסישקין,14.83,6195-241-9,6195/241,5464.480874316941,32.0933765393,34.8388725059,2012
2012-10-07,2012-07-10,"ניל""י 3, בני ברק","ניל""י 3",6196-104-254,משרד,,,222.0,1892000,,,2013.0,,31.0,3252740688,1,6196104,False,,בני ברק,"ניל""י",,6196-104-254,6196/104,8522.522522522522,32.0944440037,34.8242950858,2012
2012-10-06,2012-06-10,"יצחק שדה 5, בני ברק",יצחק שדה 5,6188-412-1,קרקע למגורים,,,2450.0,4875000,,,,,,3252650034,1,6188412,False,,בני ברק,שדה יצחק,,6188-412-1,6188/412,1989.795918367347,32.0769387235,34.8302231383,2012
2012-10-06,2012-06-10,"חזון איש 58, בני ברק",חזון איש 58,6188-603-104,דירה בבית קומות,4.0,קומה ‎7‏,78.0,1425000,,,2011.0,,8.0,3252125105,1,6188603,False,,בני ברק,חזון איש,,6188-603-104,6188/603,18269.23076923077,32.0784674795,34.8335517769,2012
2012-10-06,2012-06-10,"גניחובסקי 11, בני ברק",גניחובסקי 11,6195-784-5,דירה בבית קומות,3.0,שניה,58.2,1250000,,,1970.0,,4.0,3251902124,1,6195784,False,,בני ברק,גניחובסקי,,6195-784-5,6195/784,21477.66323024055,32.0987829969,34.8419184799,2012
2012-10-06,2012-06-10,"הרב עוזיאל 16, בני ברק",הרב עוזיאל 16,6187-122-9,דירה בבית קומות,6.0,שלישית + גג,110.0,1900000,,,1997.0,,3.0,3251857580,1,6187122,False,,בני ברק,הרב עוזיאל,,6187-122-9,6187/122,17272.727272727272,32.0750706314,34.8402528967,2012
2012-10-06,2012-06-10,"הרב עוזיאל 16, בני ברק",הרב עוזיאל 16,6187-122-6,דירה בבית קומות,5.0,שניה,91.0,1650000,,,1997.0,,3.0,3251855724,1,6187122,False,,בני ברק,הרב עוזיאל,,6187-122-6,6187/122,18131.86813186813,32.0750706314,34.8402528967,2012
2012-10-06,2012-06-10,"סוקולוב 32, בני ברק",סוקולוב 32,6122-635-6,דירה בבית קומות,4.0,שלישית,71.5,1500000,,,2009.0,,5.0,3252286142,1,6122635,False,,בני ברק,סוקולוב,,6122-635-6,6122/635,20979.020979020977,32.0892642059,34.8341497579,2012
2012-10-06,2012-06-10,"סוקולוב 17, בני ברק",סוקולוב 17,6122-420-4,דירה בבית קומות,2.0,א,49.0,850000,,,1955.0,,3.0,3251889915,1,6122420,False,,בני ברק,סוקולוב,,6122-420-4,6122/420,17346.938775510203,32.0877189003,34.8335448615,2012
2012-10-06,2012-06-10,"נורוק 32, בני ברק",נורוק 32,6195-672-2,דירה בבית קומות,4.0,קרקע,100.0,1025000,,,1960.0,,2.0,3252516518,1,6195672,False,,בני ברק,נורוק,,6195-672-2,6195/672,10250.0,32.0976279215,34.8434717929,2012
2012-10-05,2012-05-10,"הרצל 69, בני ברק",הרצל 69,6195-77-9,דירה בבית קומות,4.0,רביעית,76.0,1270000,,,2010.0,,5.0,3251520977,1,619577,False,,בני ברק,הרצל,,6195-77-9,6195/77,16710.526315789473,32.0933276224,34.8353450581,2012
2012-10-05,2012-05-10,"רבי עקיבא 7, בני ברק",רבי עקיבא 7,6122-850-9,דירה בבית קומות,5.0,קרקע עליונה,103.3,1285000,,,2008.0,,5.0,3251813355,1,6122850,False,,בני ברק,רבי עקיבא,,6122-850-9,6122/850,12439.496611810262,32.0907198657,34.8257415885,2012
2012-10-05,2012-05-10,"הפלמ""ח 18, בני ברק","הפלמ""ח 18",6195-305-6,דירה בבית קומות,3.0,א,47.0,860000,,,1960.0,,2.0,3251519295,1,6195305,False,60% ב 5.3 שנים,בני ברק,"הפלמ""ח",11.32,6195-305-6,6195/305,18297.87234042553,32.0941709105,34.8398374314,2012
2012-10-05,2012-05-10,"קובלסקי 1, בני ברק",קובלסקי 1,6195-802-9,דירה בבית קומות,4.0,שלישית,95.8,1200000,,,1970.0,,6.0,3251762866,1,6195802,False,,בני ברק,קובלסקי,,6195-802-9,6195/802,12526.096033402922,32.0976128828,34.8428119851,2012
2012-10-03,2012-03-10,"חגי 8, בני ברק",חגי 8,6122-506-8,דירה בבית קומות,6.0,רביעית,113.06,2450000,,,2003.0,,4.0,3249881462,1,6122506,False,51% ב 4.7 שנים,בני ברק,חגי,10.85,6122-506-8,6122/506,21669.909782416416,32.0876833258,34.836337014,2012
2012-10-02,2012-02-10,"צבי 14, בני ברק",צבי 14,6195-705-15,דירה בבית קומות,4.0,רביעית,76.46,1015000,,,1972.0,,4.0,3249256512,1,6195705,False,111% ב 8.1 שנים,בני ברק,צבי,13.7,6195-705-15,6195/705,13274.91498822914,32.0975171721,34.8389473974,2012
2012-10-02,2012-02-10,"רבינא 12, בני ברק",רבינא 12,6190-996-14,קוטג' חד משפחתי,4.0,ראשונה,92.0,1380000,,,1950.0,,5.0,3249251002,1,6190996,False,,בני ברק,רבינא,,6190-996-14,6190/996,15000.0,32.0772260319,34.8381187269,2012
2012-10-01,2012-01-10,"הרצל 98, בני ברק",הרצל 98,6195-359-10,דירה בבית קומות,4.0,קומה ‎3‏,80.3,1100000,,,2012.0,,6.0,3248256911,1,6195359,False,,בני ברק,הרצל,,6195-359-10,6195/359,13698.6301369863,32.0946784423,34.8362204763,2012
2012-10-01,2012-01-10,"חזון איש 58, בני ברק",חזון איש 58,6188-603-125,קוטג' חד משפחתי,3.0,קומה ‎7‏,68.0,1280000,,,2011.0,,8.0,3248376072,1,6188603,False,,בני ברק,חזון איש,,6188-603-125,6188/603,18823.529411764703,32.0784674795,34.8335517769,2012
2012-10-01,2012-01-10,"גורדון 1, בני ברק",גורדון 1,6188-326-6,חנות,,ראשונה,25.0,370000,,,1950.0,,2.0,3248529598,1,6188326,False,,בני ברק,גורדון,,6188-326-6,6188/326,14800.0,32.0775088554,34.8291388016,2012
2012-09-27,2012-09-27,"יואל 20, בני ברק",יואל 20,6122-1554-2,דירה בבית קומות,3.0,ראשונה,61.6,1250000,,,1970.0,,3.0,3254837243,1,61221554,False,64% ב 7.5 שנים,בני ברק,יואל,8.53,6122-1554-2,6122/1554,20292.20779220779,32.0905332727,34.8367820548,2012
2012-09-27,2012-09-27,"מיכה 5, בני ברק",מיכה 5,6192-831-6,דירה בבית קומות,3.0,ב,57.0,1350000,,,1960.0,,3.0,3254516184,1,6192831,False,,בני ברק,מיכה,,6192-831-6,6192/831,23684.21052631579,32.0863748083,34.8372109967,2012
2012-09-27,2012-09-27,"בן זכאי 19, בני ברק",בן זכאי 19,6188-498-7,דירה בבית קומות,5.0,ראשונה,125.0,1500000,,,1960.0,,3.0,3254980822,1,6188498,False,108% ב 10.3 שנים,בני ברק,בן זכאי,10.49,6188-498-7,6188/498,12000.0,32.0834676912,34.8310398461,2012
2012-09-27,2012-09-27,"ניל""י 3, בני ברק","ניל""י 3",6196-104-251,מחסנים,,ראשונה,,178000,,,2013.0,,31.0,3255231498,1,6196104,False,,בני ברק,"ניל""י",,6196-104-251,6196/104,,32.0944440037,34.8242950858,2012
2012-09-24,2012-09-24,"גרינברג 1, בני ברק",גרינברג 1,6195-672-85,דירה בבית קומות,5.0,רביעית,85.0,1055000,,,1970.0,,4.0,3254724549,1,6195672,False,35% ב 3.4 שנים,בני ברק,גרינברג,10.29,6195-672-85,6195/672,12411.764705882351,32.0976279215,34.8434717929,2012
2012-09-24,2012-09-24,"אור החיים 45, בני ברק",אור החיים 45,6190-345-3,דירה בבית קומות,4.0,א,86.0,1959000,,,1960.0,,3.0,3254964292,1,6190345,False,78% ב 3.5 שנים,בני ברק,אור החיים,22.29,6190-345-3,6190/345,22779.06976744186,32.0837491533,34.8369787999,2012
2012-09-24,2012-09-24,"ניל""י 3, בני ברק","ניל""י 3",6196-104-253,חניה,,,,207000,,,0.0,,31.0,3255749728,1,6196104,False,,בני ברק,"ניל""י",,6196-104-253,6196/104,,32.0944440037,34.8242950858,2012
2012-09-24,2012-09-24,"מוהליבר 18, בני ברק",מוהליבר 18,6124-263-6,דירה בבית קומות,5.0,שניה,120.0,2180000,,,1990.0,,4.0,3254617800,1,6124263,False,,בני ברק,מוהליבר,,6124-263-6,6124/263,18166.666666666668,32.0788950035,34.8281761148,2012
2012-09-24,2012-09-24,"זכריה 6, בני ברק",זכריה 6,6122-1615-8,דירה בבית קומות,3.0,ב,60.0,1292000,,,1970.0,,3.0,3254638187,1,61221615,False,,בני ברק,זכריה,,6122-1615-8,6122/1615,21533.33333333333,32.0861733276,34.8362986917,2012
2012-09-24,2012-09-24,"מנחם 21, בני ברק",מנחם 21,6196-349-3,דירה בבית קומות,5.0,שניה,104.5,1795000,,,1986.0,,5.0,3254637955,1,6196349,False,,בני ברק,מנחם,,6196-349-3,6196/349,17177.033492822968,32.0885151075,34.8240274033,2012
2012-09-24,2012-09-24,"ביאליק 30, בני ברק",ביאליק 30,6195-151-8,דירה בבית קומות,3.0,שלישית,56.7,920000,,,1970.0,,3.0,3254779330,1,6195151,False,50% ב 4.5 שנים,בני ברק,ביאליק,11.11,6195-151-8,6195/151,16225.749559082891,32.0949067307,34.8370458748,2012
2012-09-24,2012-09-24,"בן-פתחיה 23, בני ברק",בן-פתחיה 23,6122-215-13,דירה בבית קומות,2.0,ב,44.0,950000,,,1960.0,,4.0,3255120051,1,6122215,False,11% ב 2.9 שנים,בני ברק,בן פתחיה,3.79,6122-215-13,6122/215,21590.90909090909,32.0906547326,34.8291732763,2012
2012-09-23,2012-09-23,"האדמו""ר מקוצק 4, בני ברק","האדמו""ר מקוצק 4",6187-236-3,דירה בבית קומות,6.0,שלישית,115.0,7285000,,,1960.0,,2.0,3254690097,1,6187236,False,,בני ברק,"האדמו""ר מקוצק",,6187-236-3,6187/236,63347.82608695652,32.0746701188,34.8408090584,2012
2012-09-23,2012-09-23,"רלב""ג 11, בני ברק","רלב""ג 11",6122-1384-5,דירה בבית קומות,2.5,א',71.0,1350000,,,1960.0,,5.0,3254577896,1,61221384,False,,בני ברק,"רלב""ג",,6122-1384-5,6122/1384,19014.08450704225,32.0857582361,34.8313315013,2012
2012-09-23,2012-09-23,"ניל""י 3, בני ברק","ניל""י 3",6196-104-54,משרד,,,41.0,525000,,,2013.0,,31.0,3255189187,1,6196104,False,,בני ברק,"ניל""י",,6196-104-54,6196/104,12804.878048780489,32.0944440037,34.8242950858,2012
2012-09-23,2012-09-23,"גיבורי ישראל 22, בני ברק",גיבורי ישראל 22,6189-1075-8,דירה בבית קומות,4.0,שניה,101.0,1500000,,,1976.0,,4.0,3254551825,1,61891075,False,,בני ברק,גבורי ישראל,,6189-1075-8,6189/1075,14851.485148514852,32.0822974281,34.8438835339,2012
2012-09-20,2012-09-20,"מוהליבר 14, בני ברק",מוהליבר 14,6124-257-3,קרקע למגורים,,ב,60.8,2352000,,,0.0,,7.0,3254832429,1,6124257,False,,בני ברק,מוהליבר,,6124-257-3,6124/257,38684.210526315794,32.0792811101,34.8280560318,2012
2012-09-20,2012-09-20,"ניל""י 3, בני ברק","ניל""י 3",6196-104-53,משרד,,,42.0,530000,,,2013.0,,31.0,3255193711,1,6196104,False,,בני ברק,"ניל""י",,6196-104-53,6196/104,12619.047619047618,32.0944440037,34.8242950858,2012
2012-09-20,2012-09-20,"בית יוסף 3, בני ברק",בית יוסף 3,6192-70-1,דירה בבית קומות,6.0,שניה,140.0,5697000,,,1975.0,,3.0,3255349470,1,619270,False,,בני ברק,בית יוסף,,6192-70-1,6192/70,40692.857142857145,32.0915459638,34.8406469144,2012
2012-09-20,2012-09-20,"השר יגאל אלון 14, בני ברק",השר יגאל אלון 14,6790-4-19,דירה בבית קומות,3.0,ראשונה,68.6,900000,,,1970.0,,4.0,3254339603,1,67904,False,,בני ברק,השר אלון יגאל,,6790-4-19,6790/4,13119.533527696794,32.0979243662,34.8365821271,2012
2012-09-19,2012-09-19,"הרב פתאיה 3, בני ברק",הרב פתאיה 3,6196-154-3,דירה בבית קומות,3.0,שניה,59.8,840000,,,1960.0,,4.0,3254710426,1,6196154,False,,בני ברק,הרב פתאיה,,6196-154-3,6196/154,14046.822742474917,32.0956085687,34.8292088031,2012
2012-09-19,2012-09-19,"מוהליבר 7, בני ברק",מוהליבר 7,6124-286-8,דירה בבית קומות,2.0,ג,48.0,1220000,,,1960.0,,4.0,3254884339,1,6124286,False,0% ב 1.5 שנים,בני ברק,מוהליבר,0.0,6124-286-8,6124/286,25416.666666666668,32.0799280869,34.8283599144,2012
2012-09-19,2012-09-19,"ניל""י 3, בני ברק","ניל""י 3",6196-104-51,מחסנים,,ראשונה,,236000,,,2013.0,,31.0,3256406027,1,6196104,False,,בני ברק,"ניל""י",,6196-104-51,6196/104,,32.0944440037,34.8242950858,2012
2012-09-19,2012-09-19,"רבי ישראל אבו חצירא 28, בני ברק",רבי ישראל אבו חצירא 28,7361-12-10,דירה בבית קומות,3.0,שלישית,55.0,843000,,,1960.0,,4.0,3254386003,1,736112,False,,בני ברק,אבו חצירא ישראל,,7361-12-10,7361/12,15327.272727272728,32.095628177,34.8311272364,2012
2012-09-19,2012-09-19,"ניל""י 3, בני ברק","ניל""י 3",6196-104-52,משרד,,,42.0,533000,,,2013.0,,31.0,3255195161,1,6196104,False,,בני ברק,"ניל""י",,6196-104-52,6196/104,12690.47619047619,32.0944440037,34.8242950858,2012
2012-09-19,2012-09-19,"רחל 7, בני ברק",רחל 7,6123-712-28,דירה בבית קומות,2.0,ד,46.5,650000,,,1960.0,,4.0,3254433882,1,6123712,False,87% ב 12.1 שנים,בני ברק,רחל,7.19,6123-712-28,6123/712,13978.494623655914,32.0835027991,34.8256844646,2012
2012-09-14,2012-09-14,"וינרב 5, בני ברק",וינרב 5,6195-754-5,דירה בבית קומות,4.0,שלישית,89.18,1070000,,,1960.0,,4.0,3254527871,1,6195754,False,,בני ברק,וינרב,,6195-754-5,6195/754,11998.205875756896,32.0962334781,34.8414386807,2012
2012-09-13,2012-09-13,"מהרש""ל 13, בני ברק","מהרש""ל 13",6122-455-12,דירה בבית קומות,2.0,שלישית,60.0,1599999,,,1950.0,,3.0,3254736497,1,6122455,False,,בני ברק,"מהרש""ל",,6122-455-12,6122/455,26666.65,32.0849279084,34.8337853605,2012
2012-09-13,2012-09-13,"חי טייב 4, בני ברק",חי טייב 4,6790-28-8,דירה בבית קומות,4.0,ראשונה,80.5,1150000,,,1990.0,,5.0,3254684355,1,679028,False,,בני ברק,חי טייב,,6790-28-8,6790/28,14285.714285714286,32.0971197922,34.8382866196,2012
2012-09-13,2012-09-13,"דמשק אליעזר 27, בני ברק",דמשק אליעזר 27,6187-285-13,דירה בבית קומות,2.0,חמישית,54.0,1350000,,,2008.0,,5.0,3254491766,1,6187285,False,,בני ברק,דמשק אליעזר,,6187-285-13,6187/285,25000.0,32.0742035765,34.8379758816,2012
2012-09-12,2012-12-09,"הרב מלצר 21, בני ברק",הרב מלצר 21,6190-1042-14,דירה בבית קומות,4.0,רביעית + גג,120.8,2000000,,,1987.0,,4.0,3256729899,1,61901042,False,,בני ברק,הרב מלצר,,6190-1042-14,6190/1042,16556.29139072848,32.0824304577,34.8395949196,2012
2012-09-11,2012-11-09,"גולומב 11, בני ברק",גולומב 11,6188-396-3,דירה בבית קומות,2.0,ראשונה,45.0,182000,,,1950.0,,2.0,3255683985,1,6188396,False,,בני ברק,גולומב,,6188-396-3,6188/396,4044.444444444444,32.0759708862,34.8304528407,2012
2012-09-10,2012-10-09,"גרונר 53, בני ברק",גרונר 53,6196-2-160,דירה בבית קומות,6.0,ראשונה,125.0,2124000,,,1960.0,,6.0,3255699993,1,61962,False,,בני ברק,גרונר,,6196-2-160,6196/2,16992.0,32.0945520656,34.8279724928,2012
2012-09-10,2012-10-09,"מנחם 27, בני ברק",מנחם 27,6196-351-12,דירה בבית קומות,3.0,שלישית,71.19,300000,,,1990.0,,4.0,3254867403,1,6196351,False,,בני ברק,מנחם,,6196-351-12,6196/351,4214.075010535188,32.0884424332,34.8229824489,2012
2012-09-10,2012-10-09,"הפלמ""ח 16, בני ברק","הפלמ""ח 16",6195-306-11,דירה בבית קומות,3.0,ב,50.0,900000,,,1960.0,,2.0,3254532192,1,6195306,False,78% ב 6.8 שנים,בני ברק,"הפלמ""ח",11.47,6195-306-11,6195/306,18000.0,32.0940054231,34.8397880648,2012
2012-09-10,2012-10-09,"עמי 7, בני ברק",עמי 7,6123-892-6,דירה בבית קומות,3.5,ב,80.0,1460000,,,1969.0,,3.0,3255038706,1,6123892,False,,בני ברק,עמי,,6123-892-6,6123/892,18250.0,32.0862967351,34.8241552547,2012
2012-09-10,2012-10-09,"שח""ל 22, בני ברק","שח""ל 22",6192-622-10,דירה,2.0,,47.0,600000,1.0,,2013.0,,,11181267069,1,6192622,False,,בני ברק,"שח""ל",,6192-622-10,6192/622,12765.95744680851,32.091191331,34.8423739816,2012
2012-09-09,2012-09-09,"השריונאים 3, בני ברק",השריונאים 3,6192-814-42,דירה בבית קומות,3.0,ג,63.0,900000,,,1960.0,,4.0,3254715704,1,6192814,False,,בני ברק,השריונאים,,6192-814-42,6192/814,14285.714285714286,32.0843365915,34.8416314745,2012
2012-09-09,2012-09-09,"נחמן מברסלב 9, בני ברק",נחמן מברסלב 9,6190-779-44,דירה בבית קומות,3.0,ב,46.73,1145000,,,1965.0,,3.0,3254919081,1,6190779,False,,בני ברק,נחמן מברסלב,,6190-779-44,6190/779,24502.46094585919,32.0803788671,34.8372298638,2012
2012-09-09,2012-09-09,"יהושע 4, בני ברק",יהושע 4,6123-212-9,דירה בבית קומות,3.0,שלישית,59.78,1250000,,,1965.0,,4.0,3254625717,1,6123212,False,,בני ברק,יהושע,,6123-212-9,6123/212,20910.003345600537,32.0855946302,34.8279738705,2012
2012-09-09,2012-09-09,"אנילביץ 72, בני ברק",אנילביץ 72,6124-215-7,דירה בבית קומות,4.0,קרקע,87.3,1415000,,,1995.0,,6.0,3254431011,1,6124215,False,,בני ברק,אנילביץ,,6124-215-7,6124/215,16208.476517754869,32.0795464127,34.8298482704,2012
2012-09-09,2012-09-09,"הרב שך 17, בני ברק",הרב שך 17,6122-1149-2,דירה בבית קומות,4.0,ראשונה,88.7,1290000,,,1982.0,,3.0,3255818400,1,61221149,False,,בני ברק,הרב שך,,6122-1149-2,6122/1149,14543.404735062006,32.0880143661,34.8353576784,2012
2012-09-08,2012-08-09,"בן גוריון דוד 1, בני ברק",בן גוריון דוד 1,6196-397-0,מחסנים,,עשרים ושמונה,5887.0,50000,,,2005.0,,28.0,3253366537,1,6196397,False,,בני ברק,בן גוריון דוד,,6196-397-0,6196/397,8.493290300662476,32.0960371716,34.8220609922,2012
2012-09-08,2012-08-09,"בן זכאי 32, בני ברק",בן זכאי 32,6188-173-4,דירה בבית קומות,4.0,שניה,96.5,1800000,,,1970.0,,3.0,3253492426,1,6188173,False,,בני ברק,בן זכאי,,6188-173-4,6188/173,18652.84974093264,32.0821400783,34.8307305588,2012
2012-09-08,2012-08-09,"עלי הכהן 22, בני ברק",עלי הכהן 22,6196-35-8,דירה בבית קומות,4.0,ב,75.0,1190000,,,1970.0,,3.0,3253647257,1,619635,False,,בני ברק,עלי הכהן,,6196-35-8,6196/35,15866.666666666666,32.0903111177,34.8232279824,2012
2012-09-08,2012-08-09,"השר יגאל אלון 15, בני ברק",השר יגאל אלון 15,6790-14-14,דירה בבית קומות,3.5,רביעית,71.54,1100000,,,1980.0,,4.0,3253447244,1,679014,False,,בני ברק,השר אלון יגאל,,6790-14-14,6790/14,15376.013419066256,32.0972870433,34.8358221298,2012
2012-09-08,2012-08-09,"המכבים 83, בני ברק",המכבים 83,7361-134-22,דירה בבית קומות,3.0,שניה,45.8,750000,,,1960.0,,4.0,3253526878,1,7361134,False,,בני ברק,המכבים,,7361-134-22,7361/134,16375.545851528384,32.0978584834,34.8334579301,2012
2012-09-07,2012-07-09,"אברהם בנימין 15, בני ברק",אברהם בנימין 15,6195-322-2,דירה בבית קומות,3.5,שלישית,90.0,1170000,,,2010.0,,3.0,3252670363,1,6195322,False,,בני ברק,בנימין אברהם,,6195-322-2,6195/322,13000.0,32.0941133065,34.8401074648,2012
2012-09-07,2012-07-09,"חתם סופר 5, בני ברק",חתם סופר 5,6122-1834-21,דירה בבית קומות,4.5,שלישי רביעית,110.0,1700000,,,1980.0,,5.0,3253076798,1,61221834,False,,בני ברק,"חת""ם סופר",,6122-1834-21,6122/1834,15454.545454545454,32.0896157002,34.8271957963,2012
2012-09-07,2012-07-09,"דמשק אליעזר 21, בני ברק",דמשק אליעזר 21,6187-283-5,דירה בבית קומות,3.0,ב,59.0,1410000,,,1966.0,,3.0,3252764874,1,6187283,False,,בני ברק,דמשק אליעזר,,6187-283-5,6187/283,23898.305084745763,32.0747762928,34.8376092185,2012
2012-09-07,2012-07-09,"גניחובסקי 4, בני ברק",גניחובסקי 4,6195-763-12,דירה בבית קומות,3.0,שלישית,61.32,920000,,,1960.0,,3.0,3252755565,1,6195763,False,87% ב 9.5 שנים,בני ברק,גניחובסקי,9.16,6195-763-12,6195/763,15003.261578604044,32.0990182106,34.8430502863,2012
2012-09-05,2012-05-09,"טבריה 33, בני ברק",טבריה 33,6123-108-90,דירה בבית קומות,2.5,ב,49.5,925000,,,1960.0,,4.0,3252075080,1,6123108,False,,בני ברק,טבריה,,6123-108-90,6123/108,18686.868686868685,32.086328674,34.8228325011,2012
2012-09-05,2012-05-09,"דוד בן-גוריון 11, בני ברק",דוד בן-גוריון 11,6196-376-89,משרד,,שניה,241.5,2636000,,,2013.0,,22.0,3251746104,1,6196376,False,,בני ברק,בן גוריון דוד,,6196-376-89,6196/376,10915.11387163561,32.09415029,34.8227360192,2012
2012-09-05,2012-05-09,"יהודה הנשיא 26, בני ברק",יהודה הנשיא 26,6188-442-12,דירה בבית קומות,2.0,ג,49.0,1030000,,,1970.0,,3.0,3251504940,1,6188442,False,68% ב 4.1 שנים,בני ברק,יהודה הנשיא,16.59,6188-442-12,6188/442,21020.408163265307,32.0782774956,34.8280835653,2012
2012-09-02,2012-02-09,"עזרא 40, בני ברק",עזרא 40,6190-853-4,דירה בבית קומות,2.5,ב,54.0,1100000,,,1970.0,,3.0,3249218899,1,6190853,False,,בני ברק,עזרא,,6190-853-4,6190/853,20370.37037037037,32.0785061352,34.837360741,2012
2012-09-02,2012-02-09,"אהבת שלום 8, בני ברק",אהבת שלום 8,6190-548-2,דירה בבית קומות,4.0,א,100.0,1450000,,,1950.0,,4.0,3249614662,1,6190548,False,,בני ברק,אהבת שלום,,6190-548-2,6190/548,14500.0,32.0763583151,34.8362513511,2012
2012-09-02,2012-02-09,"אחיה השילוני 6, בני ברק",אחיה השילוני 6,6196-194-8,דירה בבית קומות,2.0,שניה,56.0,710000,,,1970.0,,2.0,3249483756,1,6196194,False,,בני ברק,אחיה השילוני,,6196-194-8,6196/194,12678.57142857143,32.0893761861,34.8243285502,2012
2012-09-02,2012-02-09,"דוד בן-גוריון 11, בני ברק",דוד בן-גוריון 11,6196-376-153,משרד,,שש עשרה,101.8,2105000,,,2013.0,,22.0,3249829262,1,6196376,False,,בני ברק,בן גוריון דוד,,6196-376-153,6196/376,20677.79960707269,32.09415029,34.8227360192,2012
2012-09-02,2012-02-09,"רמב""ם 7, בני ברק","רמב""ם 7",6122-962-1,דירה בבית קומות,2.5,א,52.0,1143000,,,1971.0,,3.0,3249253641,1,6122962,False,,בני ברק,"רמב""ם",,6122-962-1,6122/962,21980.76923076923,32.0883375412,34.829808471,2012
2012-09-02,2012-02-09,"הירדן 6, בני ברק",הירדן 6,6122-1376-15,דירה בבית קומות,3.0,א,39.0,980000,,,1960.0,,4.0,3249255294,1,61221376,False,,בני ברק,הירדן,,6122-1376-15,6122/1376,25128.20512820513,32.0918123056,34.8356323094,2012
2012-09-01,2012-01-09,"האדמו""ר מקוצק 56, בני ברק","האדמו""ר מקוצק 56",6187-138-4,דירה,4.0,,92.0,1200000,1.0,האדמור מקוצק 56,2012.0,,4.0,11181266532,1,6187138,False,,בני ברק,"האדמו""ר מקוצק",,6187-138-4,6187/138,13043.478260869566,32.07143199,34.8398021074,2012
2012-09-01,2012-01-09,"חברון 12, בני ברק",חברון 12,6123-997-4,דירה בבית קומות,3.5,ראשונה,91.0,1195000,,,1970.0,,4.0,3248239859,1,6123997,False,,בני ברק,חברון,,6123-997-4,6123/997,13131.868131868132,32.0841866205,34.8263830186,2012
2012-09-01,2012-01-09,"רבי עקיבא 78, בני ברק",רבי עקיבא 78,6123-52-15,משרד,,שלישית,69.0,1000000,,,1986.0,,4.0,3248323872,1,612352,False,,בני ברק,רבי עקיבא,,6123-52-15,6123/52,14492.753623188406,32.0861899588,34.8295715166,2012
2012-08-31,2012-08-31,"גניחובסקי 32, בני ברק",גניחובסקי 32,6195-777-10,דירה בבית קומות,3.0,שלישית,58.34,920000,,,1970.0,,5.0,3254152698,1,6195777,False,137% ב 11.8 שנים,בני ברק,גניחובסקי,11.61,6195-777-10,6195/777,15769.626328419608,32.0993918694,34.8390595708,2012
2012-08-30,2012-08-30,"משפחת מקובר 15, בני ברק",משפחת מקובר 15,6123-246-5,דירה בבית קומות,4.0,,100.0,900000,,,2011.0,,1.0,3254670232,1,6123246,False,,בני ברק,משפחת מקובר,,6123-246-5,6123/246,9000.0,32.0843935098,34.826948602,2012
2012-08-30,2012-08-30,"אוסישקין 8, בני ברק",אוסישקין 8,6195-241-13,דירה בבית קומות,3.5,רביעית,79.66,410000,,,2014.0,,6.0,3254169982,1,6195241,False,,בני ברק,אוסישקין,,6195-241-13,6195/241,5146.874215415516,32.0933765393,34.8388725059,2012
2012-08-30,2012-08-30,"הרב מצליח 2, בני ברק",הרב מצליח 2,6195-696-15,דירה בבית קומות,3.0,רביעית,58.34,860000,,,1970.0,,4.0,3254135240,1,6195696,False,132% ב 6 שנים,בני ברק,הרב מצליח,22.0,6195-696-15,6195/696,14741.17243743572,32.0969966178,34.8397545272,2012
2012-08-30,2012-08-30,"חזון איש 58, בני ברק",חזון איש 58,6188-603-105,דירה בבית קומות,4.0,קומה ‎7‏,75.0,1710000,,,2011.0,,8.0,3253978524,1,6188603,False,,בני ברק,חזון איש,,6188-603-105,6188/603,22800.0,32.0784674795,34.8335517769,2012
2012-08-29,2012-08-29,"משפחת מקובר 15, בני ברק",משפחת מקובר 15,6123-246-2,דירה,4.0,,80.0,900000,1.0,הרב שמידמן 18,,,1.0,11181261047,1,6123246,False,,בני ברק,משפחת מקובר,,6123-246-2,6123/246,11250.0,32.0843935098,34.826948602,2012
2012-08-29,2012-08-29,"ירושלים 41, בני ברק",ירושלים 41,6124-47-17,דירה בבית קומות,2.0,ד,46.5,987000,,,1960.0,,4.0,3254135994,1,612447,False,,בני ברק,ירושלים,,6124-47-17,6124/47,21225.8064516129,32.0831525667,34.8293934044,2012
2012-08-29,2012-08-29,"ירושלים 55, בני ברק",ירושלים 55,6124-32-15,דירה בבית קומות,2.0,ג,50.2,1090000,,,1960.0,,3.0,3254443191,1,612432,False,128% ב 8.6 שנים,בני ברק,ירושלים,14.88,6124-32-15,6124/32,21713.147410358564,32.082752298,34.8275046875,2012
2012-08-29,2012-08-29,"מלאכי 3, בני ברק",מלאכי 3,6192-274-7,דירה בבית קומות,3.5,ג,58.0,1270000,,,1950.0,,3.0,3254298191,1,6192274,False,,בני ברק,מלאכי,,6192-274-7,6192/274,21896.55172413793,32.0851269987,34.8389575498,2012
2012-08-29,2012-08-29,"השר יגאל אלון 20, בני ברק",השר יגאל אלון 20,6790-5-4,דירה בבית קומות,3.0,ראשונה,67.0,955000,,,1970.0,,4.0,3254042150,1,67905,False,,בני ברק,השר אלון יגאל,,6790-5-4,6790/5,14253.731343283582,32.0985287205,34.8365917305,2012
2012-08-29,2012-08-29,"ז'בוטינסקי 85, בני ברק",ז'בוטינסקי 85,6195-148-17,דירה בבית קומות,2.0,ב,50.0,650000,,,1950.0,,2.0,3253972550,1,6195148,False,,בני ברק,ז'בוטינסקי,,6195-148-17,6195/148,13000.0,32.0929194251,34.8358940947,2012
2012-08-29,2012-08-29,"המכבים 58, בני ברק",המכבים 58,7361-68-12,דירה בבית קומות,3.0,שלישית,60.05,820000,,,1970.0,,5.0,3253913274,1,736168,False,56% ב 4.3 שנים,בני ברק,המכבים,13.02,7361-68-12,7361/68,13655.287260616156,32.0938743749,34.8330627528,2012
2012-08-29,2012-08-29,"אהבת שלום 4, בני ברק",אהבת שלום 4,6190-547-10,דירה בבית קומות,3.0,ב,81.0,250000,,,1950.0,,3.0,3254542690,1,6190547,False,,בני ברק,אהבת שלום,,6190-547-10,6190/547,3086.41975308642,32.0766170979,34.8365305767,2012
2012-08-29,2012-08-29,"בן-פתחיה 38, בני ברק",בן-פתחיה 38,6122-1346-9,דירה בבית קומות,2.0,ב,47.0,925000,,,1960.0,,4.0,3254126859,1,61221346,False,,בני ברק,בן פתחיה,,6122-1346-9,6122/1346,19680.85106382979,32.0911349372,34.829542186,2012
2012-08-28,2012-08-28,"טבריה 25, בני ברק",טבריה 25,6123-631-20,דירה בבית קומות,2.0,,63.0,125000,,,2023.0,,5.0,3254018747,1,6123631,False,,בני ברק,טבריה,,6123-631-20,6123/631,1984.126984126984,32.0865727019,34.8236038456,2012
2012-08-28,2012-08-28,"אברבנאל 68, בני ברק",אברבנאל 68,6790-19-12,דירה בבית קומות,4.0,שלישית,85.0,1069000,,,1989.0,,4.0,3254245295,1,679019,False,,בני ברק,אברבנאל,,6790-19-12,6790/19,12576.470588235294,32.0962851685,34.8370729043,2012
2012-08-28,2012-08-28,"רבי עקיבא 31, בני ברק",רבי עקיבא 31,6122-1603-11,דירה בבית קומות,3.0,ב,54.0,1020000,,,1970.0,,4.0,3254368313,1,61221603,False,10% ב 1.6 שנים,בני ברק,רבי עקיבא,6.25,6122-1603-11,6122/1603,18888.88888888889,32.0887671723,34.8270946125,2012
2012-08-28,2012-08-28,"הרב נסים יצחק 19, בני ברק",הרב נסים יצחק 19,6187-40-1,מחסנים,,מרתף,40.0,200000,,,1960.0,,4.0,3254764743,1,618740,False,,בני ברק,הרב נסים יצחק,,6187-40-1,6187/40,5000.0,32.0731488861,34.8387873058,2012
2012-08-28,2012-08-28,"אלישע 28, בני ברק",אלישע 28,6192-294-18,דירה בבית קומות,5.0,שישית,127.0,1800000,,,2007.0,,6.0,3254073528,1,6192294,False,73% ב 5.7 שנים,בני ברק,אלישע,12.81,6192-294-18,6192/294,14173.228346456694,32.0870299406,34.8389173435,2012
2012-08-28,2012-08-28,"חשב סופר 25, בני ברק",חשב סופר 25,6192-483-22,דירה בבית קומות,2.0,שלישית,50.0,610000,,,1970.0,2012.0,4.0,3253957470,1,6192483,False,,בני ברק,חשב סופר,,6192-483-22,6192/483,12200.0,32.0893203183,34.8368632925,2012
2012-08-27,2012-08-27,"הרצוג 33, בני ברק",הרצוג 33,6123-899-6,דירה בבית קומות,3.0,ב,75.0,1460000,,,1960.0,,3.0,3253999839,1,6123899,False,,בני ברק,הרצוג,,6123-899-6,6123/899,19466.666666666668,32.0877913647,34.8258148239,2012
2012-08-27,2012-08-27,"חשב סופר 25, בני ברק",חשב סופר 25,6192-483-12,דירה,2.0,שלישית,44.0,600000,1.0,השלושה,1970.0,,4.0,11181267034,1,6192483,False,,בני ברק,חשב סופר,,6192-483-12,6192/483,13636.363636363636,32.0893203183,34.8368632925,2012
2012-08-26,2012-08-26,"אברבנאל 52, בני ברק",אברבנאל 52,6195-741-14,דירה בבית קומות,3.0,שלישית,65.22,1050000,,,1970.0,,4.0,3253818009,1,6195741,False,43% ב 3.1 שנים,בני ברק,אברבנאל,13.87,6195-741-14,6195/741,16099.35602575897,32.0958256467,34.8394667496,2012
2012-08-26,2012-08-26,"הראשונים 8, בני ברק",הראשונים 8,6122-216-14,דירה בבית קומות,2.5,ב,42.0,915000,,,1960.0,,3.0,3253736229,1,6122216,False,150% ב 11.7 שנים,בני ברק,הראשונים,12.82,6122-216-14,6122/216,21785.714285714286,32.0905037494,34.8263590824,2012
2012-08-24,2012-08-24,"שלוש השעות 21, בני ברק",שלוש השעות 21,6105-81-1,דירה בבית קומות,3.0,ראשונה,70.0,1370000,,,1969.0,,1.0,3254971223,1,610581,False,,בני ברק,שלוש השעות,,6105-81-1,6105/81,19571.42857142857,32.0978619605,34.8341042153,2012
2012-08-23,2012-08-23,"הרב שך 40, בני ברק",הרב שך 40,6122-1460-3,דירה בבית קומות,3.0,א,52.7,541000,,,1970.0,,3.0,3254949473,1,61221460,True,-15% ב 12.3 שנים,בני ברק,הרב שך,-1.22,6122-1460-3,6122/1460,10265.654648956355,32.0889322469,34.8360044058,2012
2012-08-23,2012-08-23,"נויפלד 31, בני ברק",נויפלד 31,6195-727-16,דירה בבית קומות,3.0,רביעית,69.04,935000,,,1970.0,,4.0,3253773030,1,6195727,False,,בני ברק,נויפלד,,6195-727-16,6195/727,13542.873696407878,32.0966491053,34.8389207207,2012
2012-08-23,2012-08-23,"ירושלים 55, בני ברק",ירושלים 55,6124-32-5,דירה בבית קומות,2.0,א,46.75,1030000,,,1960.0,,3.0,3254049110,1,612432,False,,בני ברק,ירושלים,,6124-32-5,6124/32,22032.08556149733,32.082752298,34.8275046875,2012
2012-08-23,2012-08-23,"עמק יזרעאל 31, בני ברק",עמק יזרעאל 31,6105-112-6,דירה בבית קומות,4.0,שניה,80.0,1300000,,,1991.0,,3.0,3254218528,1,6105112,False,,בני ברק,עמק יזרעאל,,6105-112-6,6105/112,16250.0,32.0988843558,34.8348695578,2012
2012-08-22,2012-08-22,"בן-פתחיה 38, בני ברק",בן-פתחיה 38,6122-1346-25,דירה בבית קומות,2.0,ד,47.0,950000,,,1960.0,,4.0,3253806293,1,61221346,False,1% ב 1.4 שנים,בני ברק,בן פתחיה,0.71,6122-1346-25,6122/1346,20212.76595744681,32.0911349372,34.829542186,2012
2012-08-22,2012-08-22,"יהודה הנשיא 17, בני ברק",יהודה הנשיא 17,6124-267-3,דירה בבית קומות,3.0,ראשונה,70.28,1110000,,,1970.0,,3.0,3254015644,1,6124267,False,,בני ברק,יהודה הנשיא,,6124-267-3,6124/267,15793.966989186112,32.078480302,34.8271763891,2012
2012-08-21,2012-08-21,"אלקבץ 11, בני ברק",אלקבץ 11,6192-25-11,דירה בבית קומות,3.0,שלישית,49.0,780000,,,1960.0,,6.0,3253777119,1,619225,False,,בני ברק,אלקבץ,,6192-25-11,6192/25,15918.367346938776,32.0923839755,34.8408360435,2012
2012-08-21,2012-08-21,"האדמו""ר מויז'ניץ 12, בני ברק","האדמו""ר מויז'ניץ 12",6187-399-3,דירה בבית קומות,3.0,ראשונה,70.0,1300000,,,1970.0,,3.0,3254091711,1,6187399,False,,בני ברק,"האדמו""ר מויז'ניץ",,6187-399-3,6187/399,18571.42857142857,32.0740043998,34.8364950219,2012
2012-08-20,2012-08-20,"ז'בוטינסקי 125, בני ברק",ז'בוטינסקי 125,6195-637-11,דירה בבית קומות,3.0,שלישית,64.0,936000,,,1970.0,,4.0,3254133587,1,6195637,False,164% ב 10.2 שנים,בני ברק,ז'בוטינסקי,16.08,6195-637-11,6195/637,14625.0,32.0929510058,34.8398155169,2012
2012-08-19,2012-08-19,"הרב שך 43, בני ברק",הרב שך 43,6122-1847-3,דירה בבית קומות,4.0,שניה,73.0,1500000,,,1990.0,,3.0,3253686668,1,61221847,False,69% ב 5.9 שנים,בני ברק,הרב שך,11.69,6122-1847-3,6122/1847,20547.945205479453,32.0908114226,34.8352194106,2012
2012-08-17,2012-08-17,"רד""ק 3, בני ברק","רד""ק 3",6122-1424-3,דירה בבית קומות,3.0,א,67.1,1440000,,,1960.0,,3.0,3253520672,1,61221424,False,115% ב 6 שנים,בני ברק,"רד""ק",19.17,6122-1424-3,6122/1424,21460.50670640835,32.0886195603,34.8343078677,2012
2012-08-16,2012-08-16,"רמב""ם 1, בני ברק","רמב""ם 1",6122-965-2,דירה בבית קומות,1.0,המרתף,30.16,590000,,,1956.0,,3.0,3254047225,1,6122965,False,,בני ברק,"רמב""ם",,6122-965-2,6122/965,19562.334217506632,32.0879099293,34.8301044154,2012
2012-08-16,2012-08-16,"שמחוני 6, בני ברק",שמחוני 6,6188-451-12,דירה בבית קומות,2.5,ג,53.0,980000,,,1950.0,,3.0,3253739854,1,6188451,False,94% ב 6.2 שנים,בני ברק,שמחוני,15.16,6188-451-12,6188/451,18490.56603773585,32.077584816,34.8280834635,2012
2012-08-15,2012-08-15,"נורדאו 34, בני ברק",נורדאו 34,6195-42-4,דירה בבית קומות,4.0,שניה,88.22,1040000,,,1994.0,,3.0,3254139329,1,619542,False,30% ב 4 שנים,בני ברק,נורדאו,7.5,6195-42-4,6195/42,11788.710043074134,32.0945239893,34.8355034532,2012
2012-08-15,2012-08-15,"יחזקאל 4, בני ברק",יחזקאל 4,6123-651-14,דירה בבית קומות,2.5,ג,59.0,1090000,,,1955.0,,3.0,3253675242,1,6123651,False,,בני ברק,יחזקאל,,6123-651-14,6123/651,18474.57627118644,32.0882491448,34.8265977164,2012
2012-08-15,2012-08-15,"אברהם בנימין 13, בני ברק",אברהם בנימין 13,6195-321-2,דירה בבית קומות,1.5,א,36.0,735000,,,1960.0,,3.0,3253671153,1,6195321,False,219% ב 8 שנים,בני ברק,בנימין אברהם,27.38,6195-321-2,6195/321,20416.666666666668,32.0939465468,34.8400621598,2012
2012-08-14,2012-08-14,"משה בנגו 17, בני ברק",משה בנגו 17,6124-27-9,דירה בבית קומות,3.0,ג,59.17,1100000,,,1957.0,,3.0,3254048646,1,612427,False,,בני ברק,בגנו משה,,6124-27-9,6124/27,18590.501943552477,32.0826669667,34.8281115055,2012
2012-08-14,2012-08-14,"חשב סופר 25, בני ברק",חשב סופר 25,6192-483-23,דירה בבית קומות,2.0,ראשונה,44.0,650000,,,1970.0,2012.0,4.0,3253644154,1,6192483,False,,בני ברק,חשב סופר,,6192-483-23,6192/483,14772.727272727272,32.0893203183,34.8368632925,2012
2012-08-14,2012-08-14,"הרב פתיה 12, בני ברק",הרב פתיה 12,6196-292-13,דירה בבית קומות,3.0,רביעית,55.4,790000,,,1970.0,,4.0,3253622375,1,6196292,False,,בני ברק,הרב פתאיה,,6196-292-13,6196/292,14259.927797833936,32.0955366898,34.8299450847,2012
2012-08-14,2012-08-14,"וולפסון 20, בני ברק",וולפסון 20,6123-538-8,דירה בבית קומות,3.0,ג,54.0,1270000,,,1960.0,,3.0,3253627392,1,6123538,False,,בני ברק,וולפסון,,6123-538-8,6123/538,23518.51851851852,32.0837201002,34.8301826729,2012
2012-08-13,2012-08-13,"חשב סופר 25, בני ברק",חשב סופר 25,6192-483-11,דירה,2.0,ראשונה,44.0,650000,1.0,השלושה,1970.0,,4.0,11181267033,1,6192483,False,,בני ברק,חשב סופר,,6192-483-11,6192/483,14772.727272727272,32.0893203183,34.8368632925,2012
2012-08-13,2012-08-13,"הר הבית 7, בני ברק",הר הבית 7,6122-998-1,דירה בבית קומות,4.0,א,75.0,1358000,,,1970.0,,3.0,3254096264,1,6122998,False,4% ב 1.7 שנים,בני ברק,הר הבית,2.35,6122-998-1,6122/998,18106.666666666668,32.0891490675,34.8290968937,2012
2012-08-11,2012-11-08,"אברבנאל 78, בני ברק",אברבנאל 78,6105-98-9,דירה בבית קומות,3.0,שניה,32.26,780000,,,1960.0,,2.0,3255927730,1,610598,False,62% ב 3.9 שנים,בני ברק,אברבנאל,15.9,6105-98-9,6105/98,24178.54928704278,32.0965788226,34.8353955582,2012
2012-08-11,2012-11-08,"סוקולוב 20, בני ברק",סוקולוב 20,6122-899-8,דירה בבית קומות,2.5,ב,51.0,1180000,,,1960.0,,3.0,3255977494,1,6122899,False,,בני ברק,סוקולוב,,6122-899-8,6122/899,23137.254901960783,32.0881225675,34.8341277503,2012
2012-08-08,2012-08-08,"רבי עקיבא 58, בני ברק",רבי עקיבא 58,6123-28-21,דירה בבית קומות,3.0,שלישית,59.1,1230000,,,1960.0,,8.0,3253431671,1,612328,False,107% ב 11 שנים,בני ברק,רבי עקיבא,9.73,6123-28-21,6123/28,20812.18274111675,32.0870708691,34.828221243,2012
2012-08-08,2012-08-08,"סוקולוב 16, בני ברק",סוקולוב 16,6122-1141-8,דירה בבית קומות,3.0,ג,60.5,1400000,,,1966.0,,3.0,3253760850,1,61221141,False,,בני ברק,סוקולוב,,6122-1141-8,6122/1141,23140.495867768597,32.0876421953,34.8340695782,2012
2012-08-08,2012-08-08,"סוקולוב 47, בני ברק",סוקולוב 47,6122-1545-30,דירה בבית קומות,2.0,ב,45.56,970000,,,1960.0,,4.0,3253478825,1,61221545,False,78% ב 8.1 שנים,בני ברק,סוקולוב,9.63,6122-1545-30,6122/1545,21290.605794556628,32.0912028726,34.8332735176,2012
2012-08-08,2012-08-08,"מירון 12, בני ברק",מירון 12,6123-854-11,דירה בבית קומות,3.5,ג,61.7,1095000,,,1960.0,,3.0,3255533475,1,6123854,False,,בני ברק,מירון,,6123-854-11,6123/854,17747.163695299838,32.0874294911,34.8237419,2012
2012-08-07,2012-07-08,"ירמיהו 6, בני ברק",ירמיהו 6,6123-303-8,דירה בבית קומות,2.0,ג,50.0,875000,,,1960.0,,3.0,3252756261,1,6123303,False,,בני ברק,ירמיהו,,6123-303-8,6123/303,17500.0,32.088642873,34.8259860847,2012
2012-08-05,2012-05-08,"ראובן אהרונוביץ 17, בני ברק",ראובן אהרונוביץ 17,6192-42-7,דירה בבית קומות,4.0,שניה,90.0,1250000,,,2013.0,,7.0,3251136698,1,619242,False,,בני ברק,אהרונוביץ ראובן,,6192-42-7,6192/42,13888.888888888889,32.0912580333,34.8395709566,2012
2012-08-05,2012-05-08,"הרב שך 29, בני ברק",הרב שך 29,6122-1445-3,דירה בבית קומות,3.0,א,58.0,1190000,,,1960.0,,3.0,3251291529,1,61221445,False,,בני ברק,הרב שך,,6122-1445-3,6122/1445,20517.241379310344,32.0894474898,34.8355485516,2012
2012-08-05,2012-05-08,"יואל 17, בני ברק",יואל 17,6122-1119-16,דירה בבית קומות,3.0,רביעית,65.0,1278000,,,2005.0,,5.0,3251194350,1,61221119,False,93% ב 5.7 שנים,בני ברק,יואל,16.32,6122-1119-16,6122/1119,19661.53846153846,32.0899004253,34.8362636523,2012
2012-08-05,2012-05-08,"ההגנה 6, בני ברק",ההגנה 6,6195-103-2,דירה בבית קומות,4.0,א,77.0,1100000,,,1973.0,,3.0,3251451087,1,6195103,False,28% ב 2 שנים,בני ברק,ההגנה,14.0,6195-103-2,6195/103,14285.714285714286,32.0956198639,34.8375968086,2012
2012-08-05,2012-05-08,"בר-כוכבא 3, בני ברק",בר-כוכבא 3,6196-143-22,דירה בבית קומות,2.5,א,58.73,520000,,,1965.0,,3.0,3251174543,1,6196143,False,,בני ברק,בר כוכבא,,6196-143-22,6196/143,8854.077983994552,32.0915679626,34.8235783736,2012
2012-08-05,2012-05-08,"בן-זכאי 64, בני ברק",בן-זכאי 64,6124-317-24,דירה בבית קומות,3.0,ב,61.0,1320000,,,1960.0,,3.0,3251026701,1,6124317,False,,בני ברק,בן זכאי,,6124-317-24,6124/317,21639.34426229508,32.0797515328,34.8304537751,2012
2012-08-05,2012-05-08,"הרב מימון 44, בני ברק",הרב מימון 44,6122-1574-14,דירה בבית קומות,3.0,ב,50.0,1190000,,,1960.0,,4.0,3251187013,1,61221574,False,138% ב 11.5 שנים,בני ברק,הרב מימון,12.0,6122-1574-14,6122/1574,23800.0,32.0885105198,34.8333725576,2012
2012-08-03,2012-03-08,"ז'בוטינסקי 2, בני ברק",ז'בוטינסקי 2,6196-153-18,דירה בבית קומות,3.0,רביעית,62.0,900000,1.0,,1960.0,,7.0,3250330034,1,6196153,False,,בני ברק,ז'בוטינסקי,,6196-153-18,6196/153,14516.129032258064,32.0903892478,34.8229280494,2012
2012-08-02,2012-02-08,"ראב""ד 22, בני ברק","ראב""ד 22",6188-499-75,דירה בבית קומות,2.0,ג,42.5,1100000,,,1960.0,,3.0,3249126824,1,6188499,False,,בני ברק,"ראב""ד",,6188-499-75,6188/499,25882.352941176472,32.0837350795,34.8316882545,2012
2012-08-01,2012-01-08,"הרב ברוט 7, בני ברק",הרב ברוט 7,7361-65-1,דירה בבית קומות,3.5,קרקע,72.66,900000,,,2027.0,,2.0,3248292755,1,736165,False,117% ב 5.5 שנים,בני ברק,הרב ברוט,21.27,7361-65-1,7361/65,12386.457473162676,32.0936539117,34.8338461864,2012
2012-08-01,2012-01-08,"רבי טרפון 6, בני ברק",רבי טרפון 6,6123-30-3,דירה בבית קומות,3.0,ראשונה,62.9,1255000,,,2002.0,,4.0,3248327207,1,612330,False,86% ב 9 שנים,בני ברק,רבי טרפון,9.56,6123-30-3,6123/30,19952.305246422893,32.0867944865,34.8280566841,2012
2012-07-31,2012-07-31,"ז'בוטינסקי 41, בני ברק",ז'בוטינסקי 41,6196-265-17,דירה בבית קומות,2.0,,58.0,720000,,,1960.0,,2.0,3253132391,1,6196265,False,,בני ברק,ז'בוטינסקי,,6196-265-17,6196/265,12413.793103448275,32.0918086822,34.830218615,2012
2012-07-31,2012-07-31,"יהודה הנשיא 20, בני ברק",יהודה הנשיא 20,6188-523-1,דירה בבית קומות,4.0,א,78.0,1660000,,,1960.0,,3.0,3253299837,1,6188523,False,,בני ברק,יהודה הנשיא,,6188-523-1,6188/523,21282.05128205128,32.0780720605,34.8272939152,2012
2012-07-31,2012-07-31,"הרצוג 43, בני ברק",הרצוג 43,6123-16-6,דירה בבית קומות,2.5,א,,1375000,,,1960.0,,4.0,3253787675,1,612316,False,,בני ברק,הרצוג,,6123-16-6,6123/16,,32.0866340472,34.8259731807,2012
2012-07-31,2012-07-31,"חזון איש 58, בני ברק",חזון איש 58,6188-603-70,דירה בבית קומות,3.0,קומה ‎7‏,65.0,1225000,,,2011.0,,8.0,3253533142,1,6188603,False,,בני ברק,חזון איש,,6188-603-70,6188/603,18846.153846153848,32.0784674795,34.8335517769,2012
2012-07-31,2012-07-31,"החלוצים 4, בני ברק",החלוצים 4,6195-405-3,דירה בבית קומות,2.0,קרקע,43.1,1800000,,,1950.0,,2.0,3253388142,1,6195405,False,,בני ברק,החלוצים,,6195-405-3,6195/405,41763.34106728538,32.0933764989,34.8411181347,2012
2012-07-31,2012-07-31,"האדמו""רים מספינקא 3, בני ברק","האדמו""רים מספינקא 3",6122-953-3,דירה בבית קומות,2.5,א,49.0,1250000,,,1968.0,,3.0,3253873312,1,6122953,False,,בני ברק,"האדמורי""ם מספינקא",,6122-953-3,6122/953,25510.20408163265,32.086975722,34.8350645805,2012
2012-07-31,2012-07-31,"חברון 13, בני ברק",חברון 13,6123-624-6,דירה בבית קומות,2.0,ב,54.0,964000,,,1950.0,,4.0,3253763286,1,6123624,False,,בני ברק,חברון,,6123-624-6,6123/624,17851.85185185185,32.0842170823,34.8259985326,2012
2012-07-31,2012-07-31,"גניחובסקי 32, בני ברק",גניחובסקי 32,6195-777-5,דירה בבית קומות,3.0,שניה,58.34,936000,,,1970.0,,5.0,3253164610,1,6195777,False,105% ב 9.2 שנים,בני ברק,גניחובסקי,11.41,6195-777-5,6195/777,16043.880699348643,32.0993918694,34.8390595708,2012
2012-07-30,2012-07-30,"השניים 19, בני ברק",השניים 19,6195-164-6,דירה בבית קומות,3.0,שניה,66.3,960000,,,1970.0,,3.0,3253228062,1,6195164,False,75% ב 7 שנים,בני ברק,השניים,10.71,6195-164-6,6195/164,14479.638009049777,32.0940823204,34.8369171203,2012
2012-07-30,2012-07-30,"שלמה בן-יוסף 1, בני ברק",שלמה בן-יוסף 1,6196-276-3,דירה בבית קומות,2.0,שניה,40.9,800000,,,1960.0,,3.0,3253562548,1,6196276,False,187% ב 6.6 שנים,בני ברק,בן יוסף שלמה,28.33,6196-276-3,6196/276,19559.902200489,32.0926853868,34.8308472853,2012
2012-07-30,2012-07-30,"שלמה בן-יוסף 12, בני ברק",שלמה בן-יוסף 12,6196-298-20,דירה בבית קומות,3.0,שישית,49.2,880000,,,1970.0,,6.0,3253791532,1,6196298,False,,בני ברק,בן יוסף שלמה,,6196-298-20,6196/298,17886.178861788616,32.0942585506,34.8299479906,2012
2012-07-30,2012-07-30,"זכריה 6, בני ברק",זכריה 6,6122-1615-6,דירה בבית קומות,3.0,א,60.0,1237000,,,1970.0,,3.0,3253276869,1,61221615,False,,בני ברק,זכריה,,6122-1615-6,6122/1615,20616.666666666668,32.0861733276,34.8362986917,2012
2012-07-30,2012-07-30,"חזון איש 58, בני ברק",חזון איש 58,6188-603-71,דירה בבית קומות,4.0,קומה ‎7‏,81.0,1525000,,,2011.0,,8.0,3253532388,1,6188603,False,,בני ברק,חזון איש,,6188-603-71,6188/603,18827.16049382716,32.0784674795,34.8335517769,2012
2012-07-30,2012-07-30,"חרל""פ 8, בני ברק","חרל""פ 8",6123-919-6,דירה בבית קומות,3.0,ג,71.0,1380000,,,1970.0,,4.0,3253076566,1,6123919,False,,בני ברק,"חרל""פ",,6123-919-6,6123/919,19436.61971830986,32.0859759311,34.8234415925,2012
2012-07-30,2012-07-30,"שבטי ישראל 15, בני ברק",שבטי ישראל 15,6122-1443-21,דירה בבית קומות,2.0,ד,45.49,940000,,,1960.0,,4.0,3253564491,1,61221443,False,127% ב 8 שנים,בני ברק,שבטי ישראל,15.88,6122-1443-21,6122/1443,20663.882171905912,32.0913568531,34.8313503666,2012
2012-07-30,2012-07-30,"רש""י 22, בני ברק","רש""י 22",6188-49-2,דירה בבית קומות,3.0,,80.0,3200000,,,1950.0,,1.0,3253435006,1,618849,False,,בני ברק,"רש""י",,6188-49-2,6188/49,40000.0,32.0836976219,34.8349023681,2012
2012-07-27,2012-07-27,"אברבנאל 103, בני ברק",אברבנאל 103,6195-8-10,דירה בבית קומות,4.0,שלישית +גג,92.18,1400000,,,1992.0,,3.0,3253088050,1,61958,False,88% ב 8 שנים,בני ברק,אברבנאל,11.0,6195-8-10,6195/8,15187.676285528312,32.0961012689,34.8358428124,2012
2012-07-26,2012-07-26,"הבנים 5, בני ברק",הבנים 5,6123-731-5,דירה בבית קומות,2.0,,60.0,820000,,,1960.0,,3.0,3253173281,1,6123731,False,,בני ברק,הבנים,,6123-731-5,6123/731,13666.666666666666,32.0849953695,34.8248803682,2012
2012-07-25,2012-07-25,"בית יוסף 5, בני ברק",בית יוסף 5,6192-71-1,דירה בבית קומות,3.0,,60.0,1050000,,,2009.0,,5.0,3253758965,1,619271,False,,בני ברק,בית יוסף,,6192-71-1,6192/71,17500.0,32.0914251371,34.8405820385,2012
2012-07-24,2012-07-24,"ירושלים 65, בני ברק",ירושלים 65,6124-277-8,דירה בבית קומות,3.0,ב,60.0,1225000,,,1965.0,,4.0,3253117746,1,6124277,False,,בני ברק,ירושלים,,6124-277-8,6124/277,20416.666666666668,32.0825413637,34.826275113,2012
2012-07-22,2012-07-22,"בית יוסף 12, בני ברק",בית יוסף 12,6192-52-8,דירה,4.0,שישית,100.0,1250000,1.0,בית יוסף,,,6.0,11181267063,1,619252,False,,בני ברק,בית יוסף,,6192-52-8,6192/52,12500.0,32.0912766327,34.8399666373,2012
