DEALDATE,DEALDATETIME,FULLADRESS,DISPLAYADRESS,GUSH,DEALNATUREDESCRIPTION,ASSETROOMNUM,FLOORNO,DEALNATURE,DEALAMOUNT,NEWPROJECTTEXT,PROJECTNAME,BUILDINGYEAR,YEARBUILT,BUILDINGFLOORS,KEYVALUE,TYPE,POLYGON_ID,TREND_IS_NEGATIVE,TREND_FORMAT,city_name,street,presentage per year,GUSH - Copy,Gush_Helka,Price per sqm,lat,lon,Year
2014-12-31,2014-12-31,"ניצנים 2, אשקלון",ניצנים 2,3020-11-7,דירה בבית קומות,3.0,רביעית,61.0,447000,,,1970.0,,4.0,10352398500,1,302011,False,,אשקלון,ניצנים,,3020-11-7,3020/11,7327.868852459016,31.6548655627,34.5543341952,2014
2014-12-31,2014-12-31,"מגידו 3, אשקלון",מגידו 3,2507-6-23,דירה בבית קומות,4.0,חמישית,88.1,910000,,,2002.0,,15.0,10350494820,1,25076,False,92% ב 12.7 שנים,אשקלון,מגידו,7.24,2507-6-23,2507/6,10329.17139614075,31.6663950193,34.5747620238,2014
2014-12-31,2014-12-31,"הציונות 69, אשקלון",הציונות 69,2557-46-24,דירה בבית קומות,4.0,שישית,99.25,1120000,,,2001.0,,9.0,10350522990,1,255746,False,33% ב 4.1 שנים,אשקלון,הציונות,8.05,2557-46-24,2557/46,11284.63476070529,31.6884233444,34.5809567493,2014
2014-12-31,2014-12-31,"יונתן נתניהו 14, אשקלון",יונתן נתניהו 14,2557-47-96,דירה בבית קומות,4.0,אחת עשרה,107.25,1100000,,,2013.0,,14.0,10352604420,1,255747,False,,אשקלון,נתניהו יונתן,,2557-47-96,2557/47,10256.410256410256,31.689138359,34.5797084707,2014
2014-12-31,2014-12-31,"מודיעין 5, אשקלון",מודיעין 5,1940-68-43,דירה,5.0,שניה,125.0,1455000,1.0,גני אפגד,2021.0,,16.0,11181201484,1,194068,False,,אשקלון,מודיעין,,1940-68-43,1940/68,11640.0,31.6775411974,34.5579888036,2014
2014-12-31,2014-12-31,"מודיעין 5, אשקלון",מודיעין 5,1940-68-42,דירה,4.0,תשיעית,92.0,995000,1.0,גני אפגד,2021.0,,16.0,11181201483,1,194068,False,,אשקלון,מודיעין,,1940-68-42,1940/68,10815.217391304348,31.6775411974,34.5579888036,2014
2014-12-30,2014-12-30,"הנוער העובד 11, אשקלון",הנוער העובד 11,2390-47-22,דירה בבית קומות,4.0,שישית,73.2,705000,,,1990.0,,9.0,10351901790,1,239047,False,,אשקלון,הנוער העובד,,2390-47-22,2390/47,9631.147540983606,31.6612201561,34.5708418173,2014
2014-12-30,2014-12-30,"הטייסים 73, אשקלון",הטייסים 73,1941-109-16,דירה בבית קומות,4.0,רביעית,92.1,950000,,,2005.0,,10.0,10351644930,1,1941109,False,0% ב 0.5 שנים,אשקלון,הטייסים,0.0,1941-109-16,1941/109,10314.875135722044,31.6764766656,34.5606701547,2014
2014-12-30,2014-12-30,"תנובת השדה 3, אשקלון",תנובת השדה 3,2753-147-100,דירה בבית קומות,4.0,,106.0,1167000,,,2014.0,,11.0,10350539370,1,2753147,False,,אשקלון,תנובת השדה,,2753-147-100,2753/147,11009.433962264153,31.6913392392,34.5789345239,2014
2014-12-30,2014-12-30,"העצמאות 74, אשקלון",העצמאות 74,2872-51-1,בית בודד,4.0,ראשונה,120.0,2200000,,,1964.0,,1.0,10351564740,1,287251,False,,אשקלון,העצמאות,,2872-51-1,2872/51,18333.33333333333,31.6792451648,34.573218912,2014
2014-12-30,2014-12-30,"משה יוליש 7, אשקלון",משה יוליש 7,3020-9-22,דירה בבית קומות,4.0,שלישית,79.8,580000,,,1970.0,,4.0,10354338810,1,30209,False,84% ב 4.5 שנים,אשקלון,יוליש משה,18.67,3020-9-22,3020/9,7268.170426065163,31.6565812155,34.5541539799,2014
2014-12-30,2014-12-30,"אילת 12, אשקלון",אילת 12,2872-24-1,קוטג' חד משפחתי,6.0,ראשונה,230.0,2425000,,,1968.0,,1.0,10352789190,1,287224,False,,אשקלון,אילת,,2872-24-1,2872/24,10543.478260869566,31.6766545256,34.5723568115,2014
2014-12-30,2014-12-30,"הגת 13, אשקלון",הגת 13,2753-153-5,דירה,5.0,שישית,132.0,1260000,1.0,כרמי יצחק,2016.0,,9.0,11181207909,1,2753153,False,,אשקלון,הגת,,2753-153-5,2753/153,9545.454545454546,31.6918760386,34.5790445962,2014
2014-12-29,2014-12-29,"גדעון בן-יואש 40, אשקלון",גדעון בן-יואש 40,1937-423-5,דירה בבית קומות,4.0,שניה,107.9,740000,,,1990.0,,6.0,10352302830,1,1937423,False,29% ב 4.5 שנים,אשקלון,גדעון בן יואש,6.44,1937-423-5,1937/423,6858.20203892493,31.6897894672,34.572320252,2014
2014-12-29,2014-12-29,"אריה בן-אליעזר 11, אשקלון",אריה בן-אליעזר 11,1934-101-1,דירה בבית קומות,4.0,ראשונה,93.0,900000,,,1994.0,,9.0,10350143640,1,1934101,False,,אשקלון,בן אליעזר אריה,,1934-101-1,1934/101,9677.41935483871,31.6842937501,34.5760804375,2014
2014-12-29,2014-12-29,"חודשי השנה 13, אשקלון",חודשי השנה 13,2855-45-31,דירה בבית קומות,4.0,חמישית,110.0,1025000,,,2011.0,,,10353191490,1,285545,False,,אשקלון,חודשי השנה,,2855-45-31,2855/45,9318.181818181818,31.6745165194,34.5768200324,2014
2014-12-29,2014-12-29,"השקמה 58, אשקלון",השקמה 58,1959-35-1,קוטג' דו משפחתי,4.0,ראשונה,75.35,1800000,,,1900.0,,1.0,10352027430,1,195935,False,,אשקלון,השקמה,,1959-35-1,1959/35,23888.520238885205,31.6795656953,34.5668539511,2014
2014-12-29,2014-12-29,"אריה 10, אשקלון",אריה 10,1296-9-39,דירה בבית קומות,3.5,שניה,70.75,700000,,,1990.0,,8.0,10350232740,1,12969,False,,אשקלון,אריה,,1296-9-39,1296/9,9893.992932862193,31.6634124972,34.5764498925,2014
2014-12-29,2014-12-29,"מנחם בגין 15, אשקלון",מנחם בגין 15,3052-37-14,דירה בבית קומות,3.0,ראשונה,63.0,710000,,,1992.0,,3.0,10350643320,1,305237,False,18% ב 4 שנים,אשקלון,בגין מנחם,4.5,3052-37-14,3052/37,11269.84126984127,31.6745723736,34.5808312662,2014
2014-12-29,2014-12-29,"תנובת השדה 3, אשקלון",תנובת השדה 3,2753-147-81,דירה,4.0,תשיעית,116.0,1150000,1.0,נאות יצחק שלב ג',,,11.0,11181207856,1,2753147,False,,אשקלון,תנובת השדה,,2753-147-81,2753/147,9913.793103448275,31.6913392392,34.5789345239,2014
2014-12-28,2014-12-28,"הטייסים 73, אשקלון",הטייסים 73,1941-109-1,דירה בבית קומות,4.0,ראשונה,91.2,1000000,,,2005.0,,10.0,10350447300,1,1941109,False,73% ב 7 שנים,אשקלון,הטייסים,10.43,1941-109-1,1941/109,10964.912280701754,31.6764766656,34.5606701547,2014
2014-12-28,2014-12-28,"בן-גוריון 9, אשקלון",בן-גוריון 9,1962-110-15,דירה בבית קומות,3.0,שניה,64.1,600000,,,1970.0,,3.0,10353761100,1,1962110,False,98% ב 10.3 שנים,אשקלון,בן גוריון,9.51,1962-110-15,1962/110,9360.3744149766,31.6630646259,34.5648519475,2014
2014-12-28,2014-12-28,"אב 14, אשקלון",אב 14,1353-35-13,דירה בבית קומות,3.0,שניה,66.8,700000,,,1993.0,,3.0,10350551880,1,135335,False,,אשקלון,אב,,1353-35-13,1353/35,10479.041916167664,31.6728297013,34.5834688888,2014
2014-12-28,2014-12-28,"הציונות 63, אשקלון",הציונות 63,2557-49-43,דירה בבית קומות,4.0,ראשונה,95.42,940000,,,2007.0,,9.0,10281423690,1,255749,False,56% ב 5.2 שנים,אשקלון,הציונות,10.77,2557-49-43,2557/49,9851.18423810522,31.687315494,34.5805544564,2014
2014-12-28,2014-12-28,"תנובת השדה 3, אשקלון",תנובת השדה 3,2753-145-15,דירה בבית קומות,5.0,רביעית,132.55,1365000,,,2010.0,,11.0,10350140580,1,2753145,False,54% ב 4.7 שנים,אשקלון,הבוסתן,11.49,2753-145-15,2753/145,10298.000754432289,31.6911827399,34.5780591139,2014
2014-12-28,2014-12-28,"משה ובר 1, אשקלון",משה ובר 1,2855-35-12,דירה בבית קומות,5.0,רביעית,119.4,1165000,,,2005.0,,9.0,10350970830,1,285535,False,,אשקלון,ובר משה,,2855-35-12,2855/35,9757.1189279732,31.67559247,34.5750723066,2014
2014-12-28,2014-12-28,"יצחק בן-צבי 67, אשקלון",יצחק בן-צבי 67,1932-90-25,דירה בבית קומות,4.0,קרקע,103.43,1140000,,,1980.0,,2.0,10351543860,1,193290,False,79% ב 11.4 שנים,אשקלון,בן צבי יצחק,6.93,1932-90-25,1932/90,11021.947210673883,31.6738638506,34.57149482,2014
2014-12-28,2014-12-28,"ברייר דב 1, אשקלון",ברייר דב 1,1942-177-180,דירה בבית קומות,3.5,חמישית,90.0,880000,,,2000.0,,9.0,10352342070,1,1942177,False,,אשקלון,ברייר דב,,1942-177-180,1942/177,9777.777777777776,31.6694499419,34.5675342214,2014
2014-12-28,2014-12-28,"פקיעין 8, אשקלון",פקיעין 8,2507-23-32,דירה בבית קומות,4.0,ראשונה,79.35,875000,,,1998.0,,7.0,10351596690,1,250723,False,,אשקלון,פקיעין,,2507-23-32,2507/23,11027.095148078137,31.666227997,34.5772294581,2014
2014-12-28,2014-12-28,"נווה שלום 20, אשקלון",נווה שלום 20,1296-42-64,דירה בבית קומות,5.0,שמינית ותשיעית,131.2,950000,,,1992.0,,8.0,10350102690,1,129642,False,,אשקלון,נווה שלום,,1296-42-64,1296/42,7240.853658536586,31.6624106315,34.5794228872,2014
2014-12-25,2014-12-25,"ישעיהו 40, אשקלון",ישעיהו 40,1654-11-3,דירה בבית קומות,1.5,ראשונה,25.0,370000,,,1980.0,,1.0,10352799540,1,165411,False,,אשקלון,ישעיהו,,1654-11-3,1654/11,14800.0,31.6605215086,34.5789643315,2014
2014-12-25,2014-12-25,"הרב דוד בוזגלו 3, אשקלון",הרב דוד בוזגלו 3,1936-297-1,בית בודד,6.0,ראשונה,226.0,3000000,,,1800.0,,1.0,10351688760,1,1936297,False,,אשקלון,הרב בוזגלו דוד,,1936-297-1,1936/297,13274.33628318584,31.6935133233,34.5722925006,2014
2014-12-25,2014-12-25,"ז'בוטינסקי 7, אשקלון",ז'בוטינסקי 7,1996-156-12,דירה בבית קומות,3.0,ראשונה,66.1,465000,,,1970.0,,3.0,10350077490,1,1996156,False,,אשקלון,ז'בוטינסקי,,1996-156-12,1996/156,7034.79576399395,31.6549063323,34.561029253,2014
2014-12-25,2014-12-25,"איילה 29, אשקלון",איילה 29,1296-10-10,דירה בבית קומות,4.0,שניה,82.65,815000,,,1990.0,,9.0,10350070920,1,129610,False,94% ב 6.5 שנים,אשקלון,איילה,14.46,1296-10-10,1296/10,9860.859044162127,31.6629030049,34.5747284228,2014
2014-12-25,2014-12-25,"שני אליהו 5, אשקלון",שני אליהו 5,3012-35-27,דירה בבית קומות,4.0,שניה,79.8,595000,,,1977.0,,4.0,10350206010,1,301235,False,,אשקלון,שני אליהו,,3012-35-27,3012/35,7456.140350877194,31.6518833802,34.5534403825,2014
2014-12-24,2014-12-24,"השייטת 9, אשקלון",השייטת 9,1941-108-17,דירה בבית קומות,5.0,קומה ‎4‏,125.0,1687000,,,2009.0,,5.0,10351881090,1,1941108,False,,אשקלון,השייטת,,1941-108-17,1941/108,13496.0,31.6769801855,34.5610979463,2014
2014-12-24,2014-12-24,"יפה נוף 4, אשקלון",יפה נוף 4,1940-69-19,דירה בבית קומות,4.0,קומה ‎3‏,87.0,1250000,,,2014.0,,14.0,10350219420,1,194069,False,,אשקלון,יפה נוף,,1940-69-19,1940/69,14367.816091954022,31.6777094006,34.5566319839,2014
2014-12-24,2014-12-24,"שיבת ציון 27, אשקלון",שיבת ציון 27,1655-6-1,קוטג' דו משפחתי,4.0,קרקע,61.0,1000000,,,1967.0,,1.0,10351044270,1,16556,False,124% ב 9.2 שנים,אשקלון,שיבת ציון,13.48,1655-6-1,1655/6,16393.44262295082,31.6566493837,34.5808982272,2014
2014-12-24,2014-12-24,"חודשי השנה 12, אשקלון",חודשי השנה 12,2855-49-6,דירה בבית קומות,4.0,ראשונה,114.8,1000000,,,2012.0,,9.0,10352784780,1,285549,False,25% ב 2.2 שנים,אשקלון,חודשי השנה,11.36,2855-49-6,2855/49,8710.801393728223,31.6734615192,34.5765063262,2014
2014-12-23,2014-12-23,"ביכורי ענבים 27, אשקלון",ביכורי ענבים 27,2754-155-69,דירה בבית קומות,5.0,שמינית,164.0,1505000,,,2014.0,,10.0,10281431880,1,2754155,False,,אשקלון,ביכורי ענבים,,2754-155-69,2754/155,9176.829268292682,31.6905818725,34.5849589842,2014
2014-12-23,2014-12-23,"ביכורי ענבים 51, אשקלון",ביכורי ענבים 51,2754-163-41,דירה בבית קומות,5.0,שניה,137.0,1170000,,,2006.0,,8.0,10280855790,1,2754163,False,,אשקלון,ביכורי ענבים,,2754-163-41,2754/163,8540.14598540146,31.6912671137,34.5829775673,2014
2014-12-23,2014-12-23,"השומר הצעיר 7, אשקלון",השומר הצעיר 7,2391-84-14,דירה בבית קומות,4.0,רביעית,79.5,765000,,,1994.0,,9.0,10280977470,1,239184,False,,אשקלון,השומר הצעיר,,2391-84-14,2391/84,9622.641509433965,31.6567042858,34.5709674117,2014
2014-12-23,2014-12-23,"מנשה 25, אשקלון",מנשה 25,1207-190-1,קוטג' דו משפחתי,5.0,קרקע וראשונה,199.0,1000000,,,1987.0,,2.0,10351044990,1,1207190,False,,אשקלון,מנשה,,1207-190-1,1207/190,5025.125628140703,31.6542871399,34.5847203346,2014
2014-12-23,2014-12-23,"משה יוליש 8, אשקלון",משה יוליש 8,3019-10-3,דירה בבית קומות,4.0,ראשונה,80.8,560000,,,1970.0,,8.0,10350301680,1,301910,False,25% ב 2.4 שנים,אשקלון,יוליש משה,10.42,3019-10-3,3019/10,6930.693069306931,31.6569052524,34.5552342884,2014
2014-12-22,2014-12-22,"הגת 13, אשקלון",הגת 13,2753-153-178,דירה בבית קומות,5.0,תשיעית,164.0,2000000,,,2016.0,,9.0,10350210510,1,2753153,False,,אשקלון,הגת,,2753-153-178,2753/153,12195.121951219511,31.6918760386,34.5790445962,2014
2014-12-22,2014-12-22,"אשתאול 3, אשקלון",אשתאול 3,2869-30-1,דירה בבית קומות,4.0,שביעית,70.0,780000,,,1995.0,,3.0,10350076770,1,286930,False,,אשקלון,אשתאול,,2869-30-1,2869/30,11142.857142857143,31.6674116605,34.5583458064,2014
2014-12-22,2014-12-22,"יעקב מרידור 1, אשקלון",יעקב מרידור 1,2904-36-77,תעשיה,,"קרקע, ראשונה",29.0,213000,,,2013.0,,9.0,10281520260,1,290436,False,,אשקלון,מרידור יעקב,,2904-36-77,2904/36,7344.827586206897,31.6787703751,34.5790713772,2014
2014-12-22,2014-12-22,"הר תבור 2, אשקלון",הר תבור 2,1934-196-1,קוטג' חד משפחתי,6.0,,160.0,1875000,,,1986.0,,2.0,10350021780,1,1934196,False,,אשקלון,הר תבור,,1934-196-1,1934/196,11718.75,31.6822994426,34.5746778215,2014
2014-12-22,2014-12-22,"נווה שלום 6, אשקלון",נווה שלום 6,1296-13-63,דירה בבית קומות,3.0,חמישית,71.4,680000,,,1992.0,,5.0,10350759870,1,129613,False,50% ב 14.8 שנים,אשקלון,נווה שלום,3.38,1296-13-63,1296/13,9523.809523809525,31.6624648909,34.5763778817,2014
2014-12-21,2014-12-21,"הגת 2, אשקלון",הגת 2,2753-135-23,דירה בבית קומות,5.0,שמינית,123.0,1395000,,,2012.0,,9.0,10352997000,1,2753135,False,11% ב 1.5 שנים,אשקלון,הגת,7.33,2753-135-23,2753/135,11341.463414634149,31.693949299,34.5784899632,2014
2014-12-21,2014-12-21,"הגת 13, אשקלון",הגת 13,2753-153-4,דירה,5.0,תשיעית,164.0,2000000,1.0,כרמי יצחק,2016.0,,9.0,11181207898,1,2753153,False,,אשקלון,הגת,,2753-153-4,2753/153,12195.121951219511,31.6918760386,34.5790445962,2014
2014-12-21,2014-12-21,"יהודה הלוי 32, אשקלון",יהודה הלוי 32,1962-144-77,דירה בבית קומות,3.0,שישית,67.0,689000,,,2010.0,,9.0,10350028530,1,1962144,False,40% ב 1.5 שנים,אשקלון,יהודה הלוי,26.67,1962-144-77,1962/144,10283.58208955224,31.6582905527,34.5635557647,2014
2014-12-21,2014-12-21,"גבעתי 37, אשקלון",גבעתי 37,2871-19-1,קוטג' דו משפחתי,5.0,קרקע וראשונה,154.0,2200000,,,1990.0,,2.0,10350253620,1,287119,False,57% ב 5.5 שנים,אשקלון,גבעתי,10.36,2871-19-1,2871/19,14285.714285714286,31.6808590094,34.5648515406,2014
2014-12-21,2014-12-21,"יונתן נתניהו 14, אשקלון",יונתן נתניהו 14,2557-47-88,דירה בבית קומות,4.0,תשיעית,107.25,1080000,,,2013.0,,14.0,10351612350,1,255747,False,,אשקלון,נתניהו יונתן,,2557-47-88,2557/47,10069.93006993007,31.689138359,34.5797084707,2014
2014-12-21,2014-12-21,"הלולב 4, אשקלון",הלולב 4,1961-81-1,קוטג' דו משפחתי,3.0,ראשונה,60.35,1290000,,,1957.0,,1.0,10350170370,1,196181,False,,אשקלון,הלולב,,1961-81-1,1961/81,21375.310687655343,31.6716291555,34.5659197864,2014
2014-12-21,2014-12-21,"אלי כהן 5, אשקלון",אלי כהן 5,1942-136-26,דירה בבית קומות,4.0,רביעית,95.04,580000,,,1970.0,,4.0,10350361080,1,1942136,False,43% ב 16.1 שנים,אשקלון,אלי כהן,2.67,1942-136-26,1942/136,6102.693602693602,31.6667624632,34.5648207351,2014
2014-12-21,2014-12-21,"השומר הצעיר 16, אשקלון",השומר הצעיר 16,2391-79-8,דירה בבית קומות,4.0,שניה,85.35,660000,,,1990.0,,6.0,10351424520,1,239179,False,72% ב 8.8 שנים,אשקלון,השומר הצעיר,8.18,2391-79-8,2391/79,7732.86467486819,31.6569000801,34.5717351472,2014
2014-12-18,2014-12-18,"ביאליק 6, אשקלון",ביאליק 6,1963-86-27,דירה בבית קומות,3.5,שביעית,84.1,680000,,,1980.0,,7.0,10280961270,1,196386,False,7% ב 4 שנים,אשקלון,ביאליק,1.75,1963-86-27,1963/86,8085.612366230678,31.6616137198,34.5696701151,2014
2014-12-18,2014-12-18,"הסוכנות היהודית 6, אשקלון",הסוכנות היהודית 6,2391-83-1,דירה בבית קומות,3.0,ראשונה,63.65,640000,,,1992.0,,8.0,10350058320,1,239183,False,,אשקלון,הסוכנות היהודית,,2391-83-1,2391/83,10054.988216810683,31.6571113724,34.5701554579,2014
2014-12-18,2014-12-18,"ביכורי ענבים 27, אשקלון",ביכורי ענבים 27,2754-155-70,דירה בבית קומות,4.0,שניה,112.0,1095000,,,2014.0,,10.0,10350520110,1,2754155,False,,אשקלון,ביכורי ענבים,,2754-155-70,2754/155,9776.785714285714,31.6905818725,34.5849589842,2014
2014-12-18,2014-12-18,"יעקב מרידור 11, אשקלון",יעקב מרידור 11,2904-81-7,דירה בבית קומות,5.0,קומה ‎2‏,125.9,1214000,,,2015.0,,10.0,10351867680,1,290481,False,,אשקלון,מרידור יעקב,,2904-81-7,2904/81,9642.573471008736,31.680192209,34.5780865821,2014
2014-12-18,2014-12-18,"תנובת השדה 3, אשקלון",תנובת השדה 3,2753-147-101,דירה בבית קומות,4.0,שלישית,107.0,1180000,,,2013.0,,11.0,10350229050,1,2753147,False,,אשקלון,תנובת השדה,,2753-147-101,2753/147,11028.03738317757,31.6913392392,34.5789345239,2014
2014-12-18,2014-12-18,"יעקב מרידור 13, אשקלון",יעקב מרידור 13,2904-81-96,דירה בבית קומות,4.0,קומה ‎6‏,107.1,1169000,,,2015.0,,10.0,10351848510,1,290481,False,,אשקלון,מרידור יעקב,,2904-81-96,2904/81,10915.032679738562,31.680192209,34.5780865821,2014
2014-12-17,2014-12-17,"היין 20, אשקלון",היין 20,2754-33-73,דירה בבית קומות,5.0,עשירית,160.8,2000000,,,2010.0,,10.0,10350393120,1,275433,False,18% ב 1.8 שנים,אשקלון,היין,10.0,2754-33-73,2754/33,12437.810945273632,31.694127024,34.5824593689,2014
2014-12-17,2014-12-17,"אשתאול 1, אשקלון",אשתאול 1,2869-28-26,דירה,5.0,שש עשרה,155.0,1080000,1.0,High מול הים אשקלון,2000.0,,20.0,11181209222,1,286928,False,,אשקלון,אשתאול,,2869-28-26,2869/28,6967.741935483871,31.667375096,34.5578269375,2014
2014-12-17,2014-12-17,"בנימין 20, אשקלון",בנימין 20,1658-76-16,דירה בבית קומות,3.0,רביעית,58.0,370000,,,1970.0,,4.0,10281541770,1,165876,False,8% ב 0.5 שנים,אשקלון,בנימין,16.0,1658-76-16,1658/76,6379.310344827586,31.6504443455,34.587210108,2014
2014-12-17,2014-12-17,,,1225-6-207,דירה בבית קומות,4.0,תשיעית,112.0,1080000,,,2010.0,,,10280743650,2,12256,False,,אשקלון,לוחמי הגטאות,,1225-6-207,1225/6,9642.857142857143,,,2014
2014-12-17,2014-12-17,"הציונות 67, אשקלון",הציונות 67,2557-46-64,דירה בבית קומות,4.0,שביעית,99.25,1070000,,,2004.0,,9.0,10280629980,1,255746,False,76% ב 6.5 שנים,אשקלון,הציונות,11.69,2557-46-64,2557/46,10780.856423173804,31.6884233444,34.5809567493,2014
2014-12-17,2014-12-17,"פעמונית 1, אשקלון",פעמונית 1,1941-120-10,בית בודד,5.0,ראשונה,270.0,2600000,,,1970.0,2013.0,1.0,10350666990,1,1941120,False,,אשקלון,פעמונית,,1941-120-10,1941/120,9629.62962962963,31.6736959305,34.5615414255,2014
2014-12-17,2014-12-17,"השומר הצעיר 2, אשקלון",השומר הצעיר 2,2391-11-19,דירה בבית קומות,5.0,שישית,86.1,850000,,,1992.0,,6.0,10351215000,1,239111,False,,אשקלון,השומר הצעיר,,2391-11-19,2391/11,9872.241579558651,31.6563969694,34.5696641192,2014
2014-12-17,2014-12-17,"תנובת השדה 3, אשקלון",תנובת השדה 3,2753-147-102,דירה בבית קומות,4.0,ראשונה,107.0,1165000,,,2013.0,,11.0,10350220140,1,2753147,False,,אשקלון,תנובת השדה,,2753-147-102,2753/147,10887.85046728972,31.6913392392,34.5789345239,2014
2014-12-17,2014-12-17,"תנובת השדה 3, אשקלון",תנובת השדה 3,2753-147-80,דירה,4.0,חמישית,106.0,1160000,1.0,נאות יצחק שלב ג',,,11.0,11181207855,1,2753147,False,,אשקלון,תנובת השדה,,2753-147-80,2753/147,10943.396226415094,31.6913392392,34.5789345239,2014
2014-12-16,2014-12-16,,,1225-6-130,דירה,4.0,שמינית,125.0,1080000,1.0,פארק רלון,,,,11181184230,2,12256,False,,אשקלון,לוחמי הגטאות,,1225-6-130,1225/6,8640.0,,,2014
2014-12-16,2014-12-16,"תנובת השדה 3, אשקלון",תנובת השדה 3,2753-147-79,דירה,4.0,שניה,126.0,165000,1.0,נאות יצחק שלב ג',,,11.0,11181207853,1,2753147,False,,אשקלון,תנובת השדה,,2753-147-79,2753/147,1309.5238095238096,31.6913392392,34.5789345239,2014
2014-12-16,2014-12-16,"סיוון 14, אשקלון",סיוון 14,1353-69-5,דירה בבית קומות,2.0,שניה,48.7,550000,,,1993.0,,3.0,10350109440,1,135369,False,3% ב 2.2 שנים,אשקלון,סיון,1.36,1353-69-5,1353/69,11293.634496919918,31.6715441229,34.5793073999,2014
2014-12-16,2014-12-16,"בלפור 21, אשקלון",בלפור 21,2556-5-1,דירה בבית קומות,6.0,קומה ‎0‏,175.2,1570000,,,2007.0,,7.0,10350128700,1,25565,False,61% ב 7.1 שנים,אשקלון,בלפור,8.59,2556-5-1,2556/5,8961.187214611873,31.6899253599,34.5764557699,2014
2014-12-16,2014-12-16,"מנחם בגין 17, אשקלון",מנחם בגין 17,3052-36-11,דירה בבית קומות,3.0,שלישית,59.0,620000,,,1990.0,,3.0,10351534320,1,305236,False,,אשקלון,בגין מנחם,,3052-36-11,3052/36,10508.474576271186,31.6743311185,34.5817005617,2014
2014-12-16,2014-12-16,"מודיעין 5, אשקלון",מודיעין 5,1940-68-243,דירה בבית קומות,3.0,עשירית,110.0,1000000,,,2021.0,,16.0,10350342720,1,194068,False,,אשקלון,מודיעין,,1940-68-243,1940/68,9090.90909090909,31.6775411974,34.5579888036,2014
2014-12-16,2014-12-16,"הטייסים 14, אשקלון",הטייסים 14,2870-13-2,דירה בבית קומות,6.0,ראשונה,225.0,2730000,,,2005.0,,1.0,10281210660,1,287013,False,,אשקלון,הטייסים,,2870-13-2,2870/13,12133.333333333334,31.6825757172,34.5646202474,2014
2014-12-16,2014-12-16,"תנובת השדה 3, אשקלון",תנובת השדה 3,2753-147-103,דירה בבית קומות,5.0,רביעית,126.0,1207000,,,2013.0,,11.0,10280653110,1,2753147,False,,אשקלון,תנובת השדה,,2753-147-103,2753/147,9579.36507936508,31.6913392392,34.5789345239,2014
2014-12-16,2014-12-16,"גדוד הפורצים 6, אשקלון",גדוד הפורצים 6,1998-24-5,דירה בבית קומות,3.0,שלישית,58.5,485000,,,1970.0,,4.0,10352304270,1,199824,False,,אשקלון,גדוד הפורצים,,1998-24-5,1998/24,8290.598290598291,31.6532928732,34.5565758306,2014
2014-12-15,2014-12-15,"היין 6, אשקלון",היין 6,2753-139-27,דירה בבית קומות,4.0,שביעית,104.0,1055000,,,2009.0,,9.0,10350537210,1,2753139,False,42% ב 5.2 שנים,אשקלון,היין,8.08,2753-139-27,2753/139,10144.23076923077,31.6930961658,34.5790848334,2014
2014-12-15,2014-12-15,"בלפור 37, אשקלון",בלפור 37,2557-45-45,דירה בבית קומות,5.0,שניה,126.9,1155000,,,2010.0,,9.0,10280845440,1,255745,False,47% ב 5.2 שנים,אשקלון,בלפור,9.04,2557-45-45,2557/45,9101.654846335698,31.6899535556,34.5795538906,2014
2014-12-15,2014-12-15,"ז'בוטינסקי 2, אשקלון",ז'בוטינסקי 2,1996-18-1,דירה בבית קומות,4.0,ראשונה,78.0,567000,,,1960.0,,3.0,10280412540,1,199618,False,,אשקלון,ז'בוטינסקי,,1996-18-1,1996/18,7269.2307692307695,31.6559077026,34.5605837773,2014
2014-12-15,2014-12-15,"יונתן נתניהו 14, אשקלון",יונתן נתניהו 14,2557-47-84,דירה בבית קומות,4.0,שמינית,107.25,1070000,,,2013.0,,14.0,10351607130,1,255747,False,,אשקלון,נתניהו יונתן,,2557-47-84,2557/47,9976.689976689977,31.689138359,34.5797084707,2014
2014-12-15,2014-12-15,"תנובת השדה 3, אשקלון",תנובת השדה 3,2753-147-78,דירה,5.0,שמינית,126.0,1207000,1.0,נאות יצחק שלב ג',,,11.0,11181207852,1,2753147,False,,אשקלון,תנובת השדה,,2753-147-78,2753/147,9579.36507936508,31.6913392392,34.5789345239,2014
2014-12-15,2014-12-15,"מודיעין 5, אשקלון",מודיעין 5,1940-68-41,דירה,3.0,עשירית,82.0,1000000,1.0,גני אפגד,2021.0,,16.0,11181201482,1,194068,False,,אשקלון,מודיעין,,1940-68-41,1940/68,12195.121951219511,31.6775411974,34.5579888036,2014
2014-12-15,2014-12-15,"הוורדים 16, אשקלון",הוורדים 16,1960-110-2,קוטג' דו משפחתי,4.0,ראשונה,70.45,1550000,,,1950.0,,1.0,10280904030,1,1960110,False,84% ב 14 שנים,אשקלון,הוורדים,6.0,1960-110-2,1960/110,22001.419446415897,31.6745597395,34.5677649859,2014
2014-12-14,2014-12-14,"נחמיה 4, אשקלון",נחמיה 4,1208-120-1,קוטג' דו משפחתי,5.0,קרקע,130.0,890000,,,1900.0,,1.0,10350232020,1,1208120,False,,אשקלון,נחמיה,,1208-120-1,1208/120,6846.153846153846,31.6589016292,34.5869268838,2014
2014-12-14,2014-12-14,"אריה בן-אליעזר 5, אשקלון",אריה בן-אליעזר 5,1934-98-19,דירה בבית קומות,4.0,ראשונה,101.0,860000,,,1992.0,,3.0,10280418390,1,193498,False,,אשקלון,בן אליעזר אריה,,1934-98-19,1934/98,8514.851485148514,31.6849029271,34.5767754973,2014
2014-12-14,2014-12-14,"אברהם בלסבלג 8, אשקלון",אברהם בלסבלג 8,2556-18-29,דירה בבית קומות,4.0,תשיעית,108.36,1050000,,,2005.0,,14.0,10280384190,1,255618,False,56% ב 6.3 שנים,אשקלון,בלסבלג אברהם,8.89,2556-18-29,2556/18,9689.922480620156,31.6886398621,34.5774466841,2014
2014-12-14,2014-12-14,"מגידו 8, אשקלון",מגידו 8,2507-11-29,דירה בבית קומות,4.0,שניה,79.9,850000,,,2000.0,,7.0,10280731680,1,250711,False,49% ב 6 שנים,אשקלון,מגידו,8.17,2507-11-29,2507/11,10638.297872340425,31.6682058038,34.5765726364,2014
2014-12-14,2014-12-14,"יונתן נתניהו 14, אשקלון",יונתן נתניהו 14,2557-47-73,דירה בבית קומות,4.0,חמישית,107.25,1000000,,,2013.0,,14.0,10351625490,1,255747,False,,אשקלון,נתניהו יונתן,,2557-47-73,2557/47,9324.009324009325,31.689138359,34.5797084707,2014
2014-12-14,2014-12-14,"הציונות 74, אשקלון",הציונות 74,2557-7-33,דירה בבית קומות,4.0,ראשונה,102.3,1000000,,,2005.0,,7.0,10280696940,1,25577,False,85% ב 7.5 שנים,אשקלון,נבון אופירה,11.33,2557-7-33,2557/7,9775.171065493649,31.6872524378,34.5813422138,2014
2014-12-14,2014-12-14,"יהודה הלוי 6, אשקלון",יהודה הלוי 6,1963-16-3,דירה בבית קומות,2.0,ראשונה,30.0,440000,,,1960.0,,1.0,10350268380,1,196316,False,,אשקלון,יהודה הלוי,,1963-16-3,1963/16,14666.666666666666,31.6581464198,34.5664101161,2014
2014-12-14,2014-12-14,"ירושלים 137, אשקלון",ירושלים 137,1935-191-36,דירה בבית קומות,5.0,שניה,125.0,1000000,,,2008.0,,5.0,10350152550,1,1935191,False,,אשקלון,ירושלים,,1935-191-36,1935/191,8000.0,31.6953826329,34.5774718751,2014
2014-12-14,2014-12-14,"גולני 2, אשקלון",גולני 2,2870-48-2,בית בודד,8.0,,563.0,6300000,,,2010.0,,1.0,10280112480,1,287048,False,,אשקלון,גולני,,2870-48-2,2870/48,11190.053285968028,31.6795566409,34.562014557,2014
2014-12-12,2014-12-12,"ים המלח 11, אשקלון",ים המלח 11,1938-308-1,קוטג' דו משפחתי,5.0,ראשונה,254.0,4000000,,,2001.0,,1.0,10351740690,1,1938308,False,,אשקלון,ים המלח,,1938-308-1,1938/308,15748.031496062991,31.6853957806,34.5652186726,2014
2014-12-11,2014-11-12,"ביאליק 291, אשקלון",ביאליק 291,1996-17-3,דירה בבית קומות,2.0,ראשונה,30.7,350000,,,1970.0,,4.0,10279220040,1,199617,False,0% ב 2.6 שנים,אשקלון,ביאליק,0.0,1996-17-3,1996/17,11400.651465798046,31.656056284,34.5603568733,2014
2014-12-11,2014-11-12,"דוד רזיאל 26, אשקלון",דוד רזיאל 26,2383-39-3,דירה בבית קומות,3.0,קרקע,63.4,430000,,,1970.0,,3.0,10278541980,1,238339,False,,אשקלון,רזיאל דוד,,2383-39-3,2383/39,6782.334384858044,31.6692556199,34.5943251207,2014
2014-12-11,2014-11-12,"הקיקיון 13, אשקלון",הקיקיון 13,1942-153-21,דירה בבית קומות,4.0,שישית,105.51,950000,,,1995.0,,7.0,10278852390,1,1942153,False,,אשקלון,הקיקיון,,1942-153-21,1942/153,9003.885887593593,31.6670143665,34.5674459479,2014
2014-12-11,2014-11-12,,,1225-6-214,דירה בבית קומות,4.0,רביעית,106.0,993000,,,2010.0,,,10278792360,2,12256,False,,אשקלון,לוחמי הגטאות,,1225-6-214,1225/6,9367.924528301886,,,2014
2014-12-10,2014-10-12,"שילה 1, אשקלון",שילה 1,2869-8-82,דירה בבית קומות,4.0,אחת עשרה,85.0,765000,,,2000.0,,13.0,10276506990,1,28698,False,,אשקלון,שילה,,2869-8-82,2869/8,9000.0,31.6698945024,34.5563490531,2014
2014-12-10,2014-10-12,"ירושלים 137, אשקלון",ירושלים 137,1935-191-39,דירה בבית קומות,4.0,שלישית,118.0,1065000,,,2008.0,,5.0,10276343010,1,1935191,False,,אשקלון,ירושלים,,1935-191-39,1935/191,9025.42372881356,31.6953826329,34.5774718751,2014
2014-12-10,2014-10-12,"תשרי 17, אשקלון",תשרי 17,1353-43-4,דירה בבית קומות,3.0,ראשונה,67.4,690000,,,1993.0,,3.0,10276449210,1,135343,False,84% ב 12.5 שנים,אשקלון,תשרי,6.72,1353-43-4,1353/43,10237.388724035609,31.6725464595,34.5846268558,2014
2014-12-09,2014-09-12,"הציונות 65, אשקלון",הציונות 65,2557-46-108,דירה בבית קומות,5.0,תשיעית,157.3,1710000,,,2005.0,,9.0,10274753340,1,255746,False,26% ב 5.5 שנים,אשקלון,הציונות,4.73,2557-46-108,2557/46,10870.947234583597,31.6884233444,34.5809567493,2014
2014-12-09,2014-09-12,"בני עקיבא 11, אשקלון",בני עקיבא 11,2390-9-32,דירה בבית קומות,3.0,רביעית,62.34,650000,,,1992.0,,6.0,10274756310,1,23909,False,18% ב 2.1 שנים,אשקלון,בני עקיבא,8.57,2390-9-32,2390/9,10426.692332370869,31.6592326092,34.5707112811,2014
2014-12-08,2014-08-12,"השייטת 4, אשקלון",השייטת 4,1941-111-145,דירה בבית קומות,5.0,שמינית,134.14,1297000,,,2010.0,,10.0,10273848930,1,1941111,False,,אשקלון,השייטת,,1941-111-145,1941/111,9669.002534665276,31.6751537579,34.5595724786,2014
2014-12-08,2014-08-12,"יהדות ספרד 21, אשקלון",יהדות ספרד 21,3047-58-9,דירה בבית קומות,3.0,שניה,63.95,675000,,,1992.0,,2.0,10273409280,1,304758,False,86% ב 7.3 שנים,אשקלון,יהדות ספרד,11.78,3047-58-9,3047/58,10555.121188428458,31.6761134364,34.5841217773,2014
2014-12-08,2014-08-12,"ביכורי ענבים 47, אשקלון",ביכורי ענבים 47,2754-161-14,דירה בבית קומות,5.0,קומה ‎4‏,136.7,1175000,,,2008.0,,7.0,10273612590,1,2754161,False,56% ב 4.8 שנים,אשקלון,ביכורי ענבים,11.67,2754-161-14,2754/161,8595.464520848574,31.6904970392,34.582663538,2014
2014-12-06,2014-06-12,"תמוז 11, אשקלון",תמוז 11,1239-91-12,דירה בבית קומות,3.0,חמישית,66.7,795000,,,2003.0,,5.0,10271421630,1,123991,True,-3% ב 1.5 שנים,אשקלון,תמוז,-2.0,1239-91-12,1239/91,11919.04047976012,31.6727564425,34.5783849348,2014
2014-12-06,2014-06-12,"העונות 3, אשקלון",העונות 3,2856-40-26,דירה בבית קומות,4.0,שלישית,107.4,1100000,,,2010.0,,6.0,10269851850,1,285640,False,50% ב 3.5 שנים,אשקלון,העונות,14.29,2856-40-26,2856/40,10242.085661080077,31.6708763442,34.5754183117,2014
2014-12-06,2014-06-12,"נווה שלום 8, אשקלון",נווה שלום 8,1296-13-34,דירה בבית קומות,3.0,רביעית,76.3,640000,,,1990.0,,6.0,10269755280,1,129613,False,,אשקלון,נווה שלום,,1296-13-34,1296/13,8387.942332896462,31.6624648909,34.5763778817,2014
2014-12-06,2014-06-12,"יורם ורון 4, אשקלון",יורם ורון 4,1942-183-116,דירה בבית קומות,5.0,חמישית,150.0,1250000,,,2008.0,,10.0,10271294550,1,1942183,False,,אשקלון,ורון יורם,,1942-183-116,1942/183,8333.333333333334,31.6680529916,34.5697984785,2014
2014-12-06,2014-06-12,,,1225-6-233,דירה בבית קומות,4.0,שביעית,120.0,980000,,,2010.0,,,10269300960,2,12256,False,,אשקלון,לוחמי הגטאות,,1225-6-233,1225/6,8166.666666666667,,,2014
2014-12-05,2014-05-12,"מודיעין 5, אשקלון",מודיעין 5,1940-68-22,דירה,4.0,שישית,102.0,1160591,1.0,גני אפגד,2021.0,,16.0,11181201462,1,194068,False,,אשקלון,מודיעין,,1940-68-22,1940/68,11378.343137254902,31.6775411974,34.5579888036,2014
2014-12-05,2014-05-12,"מונטיפיורי 14, אשקלון",מונטיפיורי 14,2878-5-25,דירה בבית קומות,3.5,שלישית,80.0,600000,,,1970.0,,4.0,10269007560,1,28785,False,50% ב 3.7 שנים,אשקלון,מונטיפיורי,13.51,2878-5-25,2878/5,7500.0,31.6811894141,34.5757110842,2014
2014-12-04,2014-04-12,"שיבת ציון 8, אשקלון",שיבת ציון 8,1207-161-8,דירה בבית קומות,3.0,ראשונה,52.0,490000,,,1970.0,,1.0,10272449160,1,1207161,False,,אשקלון,שיבת ציון,,1207-161-8,1207/161,9423.076923076924,31.6566082448,34.585394054,2014
2014-12-04,2014-04-12,,,1225-6-101,דירה,5.0,שלישית,107.0,1090000,1.0,פארק רלון,,,,11181184198,2,12256,False,,אשקלון,לוחמי הגטאות,,1225-6-101,1225/6,10186.915887850468,,,2014
2014-12-03,2014-03-12,"אברהם בלסבלג 2, אשקלון",אברהם בלסבלג 2,2556-20-54,דירה בבית קומות,5.0,חמש עשרה,139.9,1900000,,,2013.0,,15.0,10265644260,1,255620,False,,אשקלון,בלסבלג אברהם,,2556-20-54,2556/20,13581.129378127232,31.6879534516,34.5768535402,2014
2014-12-03,2014-03-12,"מונטיפיורי 13, אשקלון",מונטיפיורי 13,2878-2-14,דירה בבית קומות,3.5,רביעית,80.0,665000,,,1970.0,,4.0,10265267700,1,28782,False,83% ב 13.9 שנים,אשקלון,מונטיפיורי,5.97,2878-2-14,2878/2,8312.5,31.6815624204,34.5764533417,2014
2014-12-03,2014-03-12,"דרום אפריקה 66, אשקלון",דרום אפריקה 66,2870-132-3,בית בודד,6.0,שניה,170.0,4200000,,,1970.0,,2.0,10265529150,1,2870132,False,,אשקלון,דרום אפריקה,,2870-132-3,2870/132,24705.88235294117,31.6789301212,34.5649142697,2014
2014-12-02,2014-02-12,"יעקב מרידור 1, אשקלון",יעקב מרידור 1,2904-36-46,דירה בבית קומות,5.0,רביעית,122.7,1000000,,,2013.0,,9.0,10263199770,1,290436,False,,אשקלון,מרידור יעקב,,2904-36-46,2904/36,8149.959250203748,31.6787703751,34.5790713772,2014
2014-12-02,2014-02-12,"יעקב מרידור 1, אשקלון",יעקב מרידור 1,2904-36-44,דירה בבית קומות,5.0,שלישית,122.7,980000,,,2013.0,,9.0,10263335580,1,290436,False,,אשקלון,מרידור יעקב,,2904-36-44,2904/36,7986.960065199673,31.6787703751,34.5790713772,2014
2014-12-02,2014-02-12,"הקיקיון 2, אשקלון",הקיקיון 2,1942-98-12,דירה בבית קומות,4.0,שלישית,89.7,615000,,,1970.0,,3.0,10264272750,1,194298,False,113% ב 6.7 שנים,אשקלון,הקיקיון,16.87,1942-98-12,1942/98,6856.1872909699,31.6682486973,34.566187926,2014
2014-12-02,2014-02-12,"יורם ורון 1, אשקלון",יורם ורון 1,1942-186-39,דירה בבית קומות,5.0,עשירית,139.35,1059000,,,2011.0,,12.0,10263127230,1,1942186,False,,אשקלון,ורון יורם,,1942-186-39,1942/186,7599.56942949408,31.6682903925,34.5687222583,2014
2014-12-02,2014-02-12,"ההסתדרות 47, אשקלון",ההסתדרות 47,1996-20-6,דירה בבית קומות,3.0,ראשונה,34.8,540000,,,1970.0,,3.0,10262895300,1,199620,False,86% ב 13 שנים,אשקלון,ההסתדרות,6.62,1996-20-6,1996/20,15517.241379310346,31.6561753772,34.559466287,2014
2014-12-02,2014-02-12,"שיבת ציון 25, אשקלון",שיבת ציון 25,1655-7-2,קוטג' דו משפחתי,3.0,קרקע,54.0,650000,,,1960.0,,1.0,10265091030,1,16557,False,,אשקלון,שיבת ציון,,1655-7-2,1655/7,12037.037037037036,31.6566450684,34.5811222058,2014
2014-12-01,2014-01-12,"רחבעם זאבי 16, אשקלון",רחבעם זאבי 16,1935-188-30,דירה בבית קומות,5.0,שניה,111.0,1100000,,,2007.0,,5.0,10261028700,1,1935188,False,61% ב 6 שנים,אשקלון,זאבי רחבעם,10.17,1935-188-30,1935/188,9909.90990990991,31.6964536928,34.5773872813,2014
2014-12-01,2014-01-12,"יעקב מרידור 1, אשקלון",יעקב מרידור 1,2904-36-35,דירה בבית קומות,4.0,שמינית,100.1,880000,,,2013.0,,9.0,10261557360,1,290436,False,,אשקלון,מרידור יעקב,,2904-36-35,2904/36,8791.208791208792,31.6787703751,34.5790713772,2014
2014-11-30,2014-11-30,"נווה שלום 25, אשקלון",נווה שלום 25,1297-7-42,דירה בבית קומות,5.0,שניה,104.4,700000,,,1995.0,,9.0,10279785870,1,12977,False,67% ב 16.3 שנים,אשקלון,נווה שלום,4.11,1297-7-42,1297/7,6704.980842911877,31.6632556324,34.5810585914,2014
2014-11-30,2014-11-30,"מודיעין 5, אשקלון",מודיעין 5,1940-68-39,דירה,4.0,רביעית,102.0,1200000,1.0,גני אפגד,2021.0,,16.0,11181201479,1,194068,False,,אשקלון,מודיעין,,1940-68-39,1940/68,11764.70588235294,31.6775411974,34.5579888036,2014
2014-11-30,2014-11-30,,,1942-177-58,דירה בבית קומות,4.0,שניה,100.0,870000,,,2000.0,,9.0,10280891430,2,1942177,False,,אשקלון,הרב נורוק,,1942-177-58,1942/177,8700.0,31.6694499419,34.5675342214,2014
2014-11-30,2014-11-30,"הציונות 76, אשקלון",הציונות 76,2557-7-17,דירה בבית קומות,4.0,רביעית,102.15,1000000,,,2005.0,,7.0,10280123730,1,25577,False,,אשקלון,נבון אופירה,,2557-7-17,2557/7,9789.52520802741,31.6872524378,34.5813422138,2014
2014-11-30,2014-11-30,"אריה 10, אשקלון",אריה 10,1296-9-53,דירה בבית קומות,3.0,שישית,63.4,685000,,,1990.0,,8.0,10280108790,1,12969,False,85% ב 6.5 שנים,אשקלון,אריה,13.08,1296-9-53,1296/9,10804.41640378549,31.6634124972,34.5764498925,2014
2014-11-30,2014-11-30,"תנובת השדה 3, אשקלון",תנובת השדה 3,2753-147-105,דירה בבית קומות,4.0,שביעית,107.0,1244000,,,2013.0,,11.0,10280236500,1,2753147,False,,אשקלון,תנובת השדה,,2753-147-105,2753/147,11626.168224299065,31.6913392392,34.5789345239,2014
2014-11-30,2014-11-30,"שילה 2, אשקלון",שילה 2,2869-54-143,דירה בבית קומות,4.0,שש עשרה,104.6,1121000,,,2011.0,,20.0,10280788200,1,286954,False,,אשקלון,שילה,,2869-54-143,2869/54,10717.017208413004,31.6692019396,34.5566279356,2014
2014-11-30,2014-11-30,"יוספטל 4, אשקלון",יוספטל 4,1996-148-4,דירה בבית קומות,2.0,ראשונה,38.7,300000,,,1960.0,,2.0,10279789560,1,1996148,False,163% ב 8.5 שנים,אשקלון,יוספטל,19.18,1996-148-4,1996/148,7751.937984496123,31.6549401557,34.5621842081,2014
2014-11-30,2014-11-30,"שילה 2, אשקלון",שילה 2,2869-54-61,דירה בבית קומות,4.0,חמש עשרה,104.6,1111000,,,2011.0,,20.0,10280787480,1,286954,False,,אשקלון,שילה,,2869-54-61,2869/54,10621.414913957937,31.6692019396,34.5566279356,2014
2014-11-30,2014-11-30,"יעקב מרידור 13, אשקלון",יעקב מרידור 13,2904-81-68,דירה בבית קומות,5.0,קומה ‎5‏,125.6,1259000,,,2015.0,,10.0,10351870740,1,290481,False,,אשקלון,מרידור יעקב,,2904-81-68,2904/81,10023.885350318473,31.680192209,34.5780865821,2014
2014-11-29,2014-11-29,"תנובת השדה 3, אשקלון",תנובת השדה 3,2753-147-74,דירה,4.0,תשיעית,106.0,1223000,1.0,נאות יצחק שלב ג',,,11.0,11181207848,1,2753147,False,,אשקלון,תנובת השדה,,2753-147-74,2753/147,11537.735849056604,31.6913392392,34.5789345239,2014
2014-11-28,2014-11-28,"אפרים צור 4, אשקלון",אפרים צור 4,1965-44-10,דירה בבית קומות,3.0,שניה,38.7,345000,,,1970.0,,4.0,10280069550,1,196544,False,7% ב 4.3 שנים,אשקלון,צור אפרים,1.63,1965-44-10,1965/44,8914.728682170542,31.6560127807,34.5661884761,2014
2014-11-28,2014-11-28,"משה שרת 36, אשקלון",משה שרת 36,1934-120-29,דירה בבית קומות,4.0,שמינית,106.22,965000,,,1996.0,,9.0,10280002500,1,1934120,False,,אשקלון,שרת משה,,1934-120-29,1934/120,9084.918094520806,31.6838320985,34.5770845368,2014
2014-11-28,2014-11-28,"אריה בן-אליעזר 7, אשקלון",אריה בן-אליעזר 7,1934-99-3,דירה בבית קומות,4.0,קומה ‎1‏,95.67,865000,,,1992.0,,9.0,10279404090,1,193499,False,26% ב 4.3 שנים,אשקלון,בן אליעזר אריה,6.05,1934-99-3,1934/99,9041.496811957772,31.6845577859,34.5766510602,2014
2014-11-27,2014-11-27,"מודיעין 13, אשקלון",מודיעין 13,1940-65-61,דירה בבית קומות,5.0,שמינית,123.0,2350000,,,2012.0,,7.0,10280235870,1,194065,False,,אשקלון,מודיעין,,1940-65-61,1940/65,19105.691056910568,31.6766562812,34.5568844861,2014
2014-11-27,2014-11-27,"ביכורי ענבים 33, אשקלון",ביכורי ענבים 33,2754-156-36,דירה בבית קומות,4.0,חמישית,121.0,1125000,,,2009.0,,7.0,10279883880,1,2754156,False,,אשקלון,ביכורי ענבים,,2754-156-36,2754/156,9297.520661157025,31.6897374208,34.5845783846,2014
2014-11-27,2014-11-27,"ש""י עגנון 169, אשקלון","ש""י עגנון 169",1944-203-60,דירה בבית קומות,3.0,קרקע,61.7,845000,,,1995.0,,9.0,10279619550,1,1944203,False,174% ב 8.9 שנים,אשקלון,"עגנון ש""י",19.55,1944-203-60,1944/203,13695.299837925446,31.6589316864,34.5565212091,2014
2014-11-27,2014-11-27,"יוספטל 24, אשקלון",יוספטל 24,1997-96-30,דירה בבית קומות,4.0,שלישית,78.6,545000,,,1976.0,,4.0,10350228330,1,199796,False,,אשקלון,יוספטל,,1997-96-30,1997/96,6933.842239185751,31.6510979182,34.5569808263,2014
2014-11-27,2014-11-27,"תמנע 12, אשקלון",תמנע 12,3054-9-1,בית בודד,5.0,ראשונה,249.0,920000,,,1980.0,,1.0,10280071710,1,30549,False,,אשקלון,תמנע,,3054-9-1,3054/9,3694.779116465864,31.6753293685,34.5801755271,2014
2014-11-27,2014-11-27,"שני אליהו 5, אשקלון",שני אליהו 5,3012-35-23,דירה בבית קומות,4.0,רביעית,79.8,445000,,,1977.0,,4.0,10350224550,1,301235,False,148% ב 5.3 שנים,אשקלון,שני אליהו,27.92,3012-35-23,3012/35,5576.441102756892,31.6518833802,34.5534403825,2014
2014-11-26,2014-11-26,"אריה עוזר 10, אשקלון",אריה עוזר 10,2855-37-63,דירה בבית קומות,4.0,שישית,111.1,900000,,,2009.0,,9.0,10280218680,1,285537,False,21% ב 4.6 שנים,אשקלון,עוזר אריה,4.57,2855-37-63,2855/37,8100.810081008101,31.6733848322,34.5745544004,2014
2014-11-26,2014-11-26,"איילה 19, אשקלון",איילה 19,1296-12-15,דירה בבית קומות,5.0,רביעית וחמישית,118.2,960000,,,1990.0,,4.0,10280472570,1,129612,False,,אשקלון,איילה,,1296-12-15,1296/12,8121.827411167513,31.6619842881,34.5752215428,2014
2014-11-26,2014-11-26,"ביכורי ענבים 33, אשקלון",ביכורי ענבים 33,2754-156-37,דירה בבית קומות,4.0,חמישית,118.0,1030000,,,2009.0,,7.0,10279377360,1,2754156,False,,אשקלון,ביכורי ענבים,,2754-156-37,2754/156,8728.813559322034,31.6897374208,34.5845783846,2014
2014-11-26,2014-11-26,"משה שרת 30, אשקלון",משה שרת 30,1934-110-28,דירה בבית קומות,5.0,שביעית,94.6,938000,,,1995.0,,8.0,10280104290,1,1934110,False,44% ב 5.4 שנים,אשקלון,שרת משה,8.15,1934-110-28,1934/110,9915.433403805497,31.6849502299,34.5775592578,2014
2014-11-26,2014-11-26,"הצופים 9, אשקלון",הצופים 9,2390-50-13,דירה בבית קומות,4.0,רביעית,84.7,750000,,,1995.0,,6.0,10279623150,1,239050,False,,אשקלון,הצופים,,2390-50-13,2390/50,8854.78158205431,31.6602609195,34.5718256328,2014
2014-11-26,2014-11-26,"יוספטל 13, אשקלון",יוספטל 13,1996-51-24,דירה בבית קומות,3.0,שביעית,85.0,620000,,,1995.0,,3.0,10280976030,1,199651,False,,אשקלון,יוספטל,,1996-51-24,1996/51,7294.117647058823,31.6527276071,34.5614914117,2014
2014-11-25,2014-11-25,"הצופים 13, אשקלון",הצופים 13,2390-53-4,דירה בבית קומות,4.0,ראשונה,84.7,750000,,,1996.0,,6.0,10279378080,1,239053,False,113% ב 11 שנים,אשקלון,הצופים,10.27,2390-53-4,2390/53,8854.78158205431,31.6594642137,34.5717817778,2014
2014-11-25,2014-11-25,"ביאליק 36, אשקלון",ביאליק 36,1964-104-18,דירה בבית קומות,3.0,שניה,46.0,410000,,,1960.0,,2.0,10280072430,1,1964104,False,134% ב 6.5 שנים,אשקלון,ביאליק,20.62,1964-104-18,1964/104,8913.04347826087,31.6569473752,34.5659137971,2014
2014-11-25,2014-11-25,"בלפור 43, אשקלון",בלפור 43,2557-43-78,דירה בבית קומות,4.0,שביעית,111.08,1106000,,,2013.0,,13.0,10280763810,1,255743,False,,אשקלון,בלפור,,2557-43-78,2557/43,9956.787900612171,31.6893487975,34.5810501738,2014
2014-11-24,2014-11-24,"ניצנים 4, אשקלון",ניצנים 4,3020-10-17,דירה בבית קומות,3.0,ראשונה,61.0,487000,,,1970.0,,4.0,10280981250,1,302010,False,,אשקלון,ניצנים,,3020-10-17,3020/10,7983.606557377049,31.6552658178,34.5549980525,2014
2014-11-24,2014-11-24,"מגידו 4, אשקלון",מגידו 4,2507-13-12,דירה בבית קומות,3.0,שלישית,75.65,800000,,,2000.0,,9.0,10279512630,1,250713,False,89% ב 10.5 שנים,אשקלון,מגידו,8.48,2507-13-12,2507/13,10575.016523463317,31.6667840487,34.5754035197,2014
2014-11-24,2014-11-24,"יורם ורון 4, אשקלון",יורם ורון 4,1942-183-114,דירה בבית קומות,4.0,שמינית,110.0,1150000,,,2008.0,,10.0,10279157670,1,1942183,False,,אשקלון,ורון יורם,,1942-183-114,1942/183,10454.545454545454,31.6680529916,34.5697984785,2014
2014-11-24,2014-11-24,"אופירה נבון 13, אשקלון",אופירה נבון 13,2557-5-10,דירה בבית קומות,5.0,שישית,129.0,1100000,,,2004.0,,6.0,10279751580,1,25575,False,,אשקלון,נבון אופירה,,2557-5-10,2557/5,8527.131782945737,31.6884832835,34.5818516529,2014
2014-11-24,2014-11-24,"ניצנים 1, אשקלון",ניצנים 1,3020-6-26,דירה בבית קומות,3.0,שלישית,68.0,410000,,,1970.0,,4.0,10279285290,1,30206,False,36% ב 3.5 שנים,אשקלון,ניצנים,10.29,3020-6-26,3020/6,6029.411764705882,31.655207419,34.5540961397,2014
2014-11-24,2014-11-24,"הבוסתן 1, אשקלון",הבוסתן 1,2753-146-58,דירה,4.0,שמינית,111.0,1480000,1.0,נאות יצחק שלב ב',,,11.0,11181207772,1,2753146,False,,אשקלון,הבוסתן,,2753-146-58,2753/146,13333.333333333334,31.690975625,34.578785687,2014
2014-11-24,2014-11-24,"יונתן נתניהו 2, אשקלון",יונתן נתניהו 2,2556-16-5,קוטג' חד משפחתי,5.0,ראשונה,133.1,1235000,,,2009.0,,13.0,10279674450,1,255616,False,45% ב 4.7 שנים,אשקלון,נתניהו יונתן,9.57,2556-16-5,2556/16,9278.737791134488,31.6897246031,34.5777787226,2014
2014-11-23,2014-11-23,"ביאליק 21, אשקלון",ביאליק 21,1964-76-11,דירה בבית קומות,4.0,שלישית,82.0,547000,,,1970.0,,3.0,10278772200,1,196476,False,123% ב 5.9 שנים,אשקלון,ביאליק,20.85,1964-76-11,1964/76,6670.731707317073,31.6565000728,34.5606639815,2014
2014-11-23,2014-11-23,"ביאליק 50, אשקלון",ביאליק 50,1964-111-7,דירה בבית קומות,3.0,ראשונה,48.0,407000,,,1960.0,,3.0,10279793340,1,1964111,False,99% ב 11.5 שנים,אשקלון,ביאליק,8.61,1964-111-7,1964/111,8479.166666666666,31.6562843679,34.5614776293,2014
2014-11-21,2014-11-21,"מגידו 13, אשקלון",מגידו 13,2507-10-12,דירה בבית קומות,5.0,חמישית + שישית,117.75,1105000,,,1998.0,,9.0,10280108070,1,250710,False,92% ב 7.9 שנים,אשקלון,מגידו,11.65,2507-10-12,2507/10,9384.288747346072,31.6682609295,34.5758418389,2014
2014-11-21,2014-11-21,"בלפור 43, אשקלון",בלפור 43,2557-43-96,דירה בבית קומות,4.0,אחת עשרה,110.71,1126000,,,2013.0,,13.0,10280739960,1,255743,False,,אשקלון,בלפור,,2557-43-96,2557/43,10170.716285791708,31.6893487975,34.5810501738,2014
2014-11-20,2014-11-20,"תנובת השדה 3, אשקלון",תנובת השדה 3,2753-147-106,דירה בבית קומות,5.0,עשירית,133.0,1739000,,,2013.0,,11.0,10279543590,1,2753147,False,,אשקלון,תנובת השדה,,2753-147-106,2753/147,13075.187969924811,31.6913392392,34.5789345239,2014
2014-11-20,2014-11-20,"הטייסים 79, אשקלון",הטייסים 79,1941-110-170,דירה בבית קומות,2.0,רביעית,60.6,2307000,,,1995.0,,10.0,10280125890,1,1941110,False,,אשקלון,הטייסים,,1941-110-170,1941/110,38069.30693069307,31.6759875217,34.5602576601,2014
2014-11-20,2014-11-20,,,1225-6-212,דירה בבית קומות,4.0,רביעית,106.0,998000,,,2015.0,,,10280761470,2,12256,False,,אשקלון,לוחמי הגטאות,,1225-6-212,1225/6,9415.09433962264,,,2014
2014-11-20,2014-11-20,"צבי סגל 90, אשקלון",צבי סגל 90,1937-325-1,קוטג' דו משפחתי,6.0,,299.0,4800000,,,2010.0,,2.0,10281148380,1,1937325,False,,אשקלון,סגל צבי,,1937-325-1,1937/325,16053.511705685618,31.6902397855,34.5698658553,2014
2014-11-20,2014-11-20,"פקיעין 6, אשקלון",פקיעין 6,2507-16-42,דירה בבית קומות,4.0,חמישית,94.8,940000,,,1998.0,,7.0,10280837250,1,250716,False,77% ב 14.9 שנים,אשקלון,פקיעין,5.17,2507-16-42,2507/16,9915.611814345992,31.6653178419,34.5767048808,2014
2014-11-20,2014-11-20,"אצ""ל 46, אשקלון","אצ""ל 46",1934-108-7,דירה בבית קומות,5.0,ראשונה,111.3,1010000,,,1994.0,,9.0,10350131670,1,1934108,False,48% ב 4 שנים,אשקלון,"אצ""ל",12.0,1934-108-7,1934/108,9074.573225516622,31.6852679908,34.5779038546,2014
2014-11-19,2014-11-19,"שלום עליכם 1, אשקלון",שלום עליכם 1,1964-25-22,דירה בבית קומות,3.0,שלישית,49.5,380000,,,1960.0,,3.0,10280185200,1,196425,False,43% ב 4.7 שנים,אשקלון,שלום עליכם,9.15,1964-25-22,1964/25,7676.767676767677,31.6575583796,34.564363807,2014
2014-11-19,2014-11-19,"עמיעוז 11, אשקלון",עמיעוז 11,2843-22-18,דירה בבית קומות,3.0,רביעית,65.25,640000,,,1998.0,,4.0,10279575720,1,284322,False,,אשקלון,עמיעוז,,2843-22-18,2843/22,9808.429118773947,31.6485072064,34.5569376918,2014
2014-11-19,2014-11-19,,,1942-177-181,דירה בבית קומות,3.0,שניה,103.0,845000,,,2000.0,,9.0,10279047780,2,1942177,False,,אשקלון,הרב נורוק,,1942-177-181,1942/177,8203.883495145632,31.6694499419,34.5675342214,2014
2014-11-19,2014-11-19,,,1225-6-125,דירה,4.0,,120.0,998000,1.0,פארק רלון,,,,11181184224,2,12256,False,,אשקלון,לוחמי הגטאות,,1225-6-125,1225/6,8316.666666666666,,,2014
2014-11-19,2014-11-19,"הציונות 65, אשקלון",הציונות 65,2557-46-81,דירה בבית קומות,4.0,שניה,99.25,965000,,,2005.0,,9.0,10280529810,1,255746,False,83% ב 10.7 שנים,אשקלון,הציונות,7.76,2557-46-81,2557/46,9722.921914357685,31.6884233444,34.5809567493,2014
2014-11-19,2014-11-19,"יהדות בריטניה 12, אשקלון",יהדות בריטניה 12,1296-16-42,דירה בבית קומות,3.0,שלישית,63.3,640000,,,1990.0,,8.0,10280870010,1,129616,False,120% ב 6.8 שנים,אשקלון,יהדות בריטניה,17.65,1296-16-42,1296/16,10110.584518167458,31.6632713144,34.5775026085,2014
2014-11-19,2014-11-19,"ירושלים 35, אשקלון",ירושלים 35,1933-41-33,דירה בבית קומות,4.0,שניה,82.7,710000,,,1970.0,,7.0,10279675170,1,193341,False,81% ב 10.4 שנים,אשקלון,ירושלים,7.79,1933-41-33,1933/41,8585.247883917775,31.6828279544,34.5726806965,2014
2014-11-19,2014-11-19,"בלפור 39, אשקלון",בלפור 39,2557-44-26,דירה בבית קומות,4.0,שישית,95.25,1035000,,,2008.0,,9.0,10279533330,1,255744,False,80% ב 6.9 שנים,אשקלון,בלפור,11.59,2557-44-26,2557/44,10866.141732283464,31.689709805,34.580359485,2014
2014-11-19,2014-11-19,"צוללת 3, אשקלון",צוללת 3,1936-289-1,בית בודד,6.0,ראשונה,190.0,3025000,,,2008.0,,1.0,10279251990,1,1936289,False,,אשקלון,צוללת,,1936-289-1,1936/289,15921.052631578948,31.6937240479,34.5716017937,2014
2014-11-19,2014-11-19,"ש""י עגנון 173, אשקלון","ש""י עגנון 173",3019-14-7,דירה בבית קומות,4.0,רביעית,72.0,450000,,,1970.0,,4.0,10279154700,1,301914,False,26% ב 2.7 שנים,אשקלון,"עגנון ש""י",9.63,3019-14-7,3019/14,6250.0,31.6577842007,34.558251208,2014
2014-11-19,2014-11-19,"תנובת השדה 3, אשקלון",תנובת השדה 3,2753-147-73,דירה,5.0,עשירית,132.0,1766000,1.0,נאות יצחק שלב ג',,,11.0,11181207847,1,2753147,False,,אשקלון,תנובת השדה,,2753-147-73,2753/147,13378.787878787878,31.6913392392,34.5789345239,2014
2014-11-18,2014-11-18,,,1937-197-1,חנות,,חמישית,174.0,1350000,,,2014.0,,,10279381770,2,1937197,False,,אשקלון,מרגלית,,1937-197-1,1937/197,7758.620689655172,31.6894696887,34.5683672438,2014
2014-11-18,2014-11-18,"בעל שם-טוב 11, אשקלון",בעל שם-טוב 11,1962-22-8,דירה בבית קומות,4.0,שניה,72.0,604000,,,1970.0,,3.0,10279075410,1,196222,False,,אשקלון,בעל שם טוב,,1962-22-8,1962/22,8388.888888888889,31.6594288254,34.5639068916,2014
2014-11-18,2014-11-18,"בר-כוכבא 21, אשקלון",בר-כוכבא 21,2871-96-7,דירה בבית קומות,3.0,שניה,69.0,700000,,,1970.0,,5.0,10279111500,1,287196,False,18% ב 1.5 שנים,אשקלון,בר כוכבא,12.0,2871-96-7,2871/96,10144.927536231884,31.682173275,34.5695274945,2014
2014-11-17,2014-11-17,"סיוון 2, אשקלון",סיוון 2,1353-19-1,דירת גן,2.0,קרקע,48.7,650000,,,1993.0,,3.0,10279782090,1,135319,False,,אשקלון,סיון,,1353-19-1,1353/19,13347.022587268992,31.6706066299,34.5821810088,2014
2014-11-17,2014-11-17,,,1225-6-213,דירה בבית קומות,4.0,חמישית,106.0,985000,,,2010.0,,,10278786510,2,12256,False,,אשקלון,לוחמי הגטאות,,1225-6-213,1225/6,9292.452830188678,,,2014
2014-11-17,2014-11-17,"מנחם בגין 31, אשקלון",מנחם בגין 31,3050-51-19,דירה בבית קומות,3.0,רביעית,70.91,810000,,,2004.0,,6.0,10278537660,1,305051,False,29% ב 4.3 שנים,אשקלון,בגין מנחם,6.74,3050-51-19,3050/51,11422.930475250318,31.6742942776,34.5860226529,2014
2014-11-17,2014-11-17,"בר-כוכבא 5, אשקלון",בר-כוכבא 5,2872-120-6,דירה בבית קומות,4.0,שניה,77.0,700000,,,1970.0,,4.0,10279747170,1,2872120,False,,אשקלון,בר כוכבא,,2872-120-6,2872/120,9090.90909090909,31.6799591973,34.572441922,2014
2014-11-16,2014-11-16,"ירושלים 137, אשקלון",ירושלים 137,1935-191-38,דירה בבית קומות,4.0,ראשונה,100.0,1020000,,,2008.0,,5.0,10350171090,1,1935191,False,,אשקלון,ירושלים,,1935-191-38,1935/191,10200.0,31.6953826329,34.5774718751,2014
2014-11-16,2014-11-16,"הבוסתן 1, אשקלון",הבוסתן 1,2753-146-66,דירה בבית קומות,5.0,עשירית,153.0,1700000,,,2012.0,,11.0,10278383220,1,2753146,False,,אשקלון,הבוסתן,,2753-146-66,2753/146,11111.111111111111,31.690975625,34.578785687,2014
2014-11-16,2014-11-16,"ענבר 6, אשקלון",ענבר 6,1937-369-41,דירה בבית קומות,5.0,שלישית,108.0,1500000,,,2009.0,,4.0,10351972530,1,1937369,False,20% ב 4.9 שנים,אשקלון,ענבר,4.08,1937-369-41,1937/369,13888.888888888889,31.6922914359,34.5704307125,2014
2014-11-16,2014-11-16,,,1225-6-124,דירה,4.0,רביעית,120.0,985000,1.0,פארק רלון,,,,11181184223,2,12256,False,,אשקלון,לוחמי הגטאות,,1225-6-124,1225/6,8208.333333333334,,,2014
2014-11-14,2014-11-14,"מנחם בגין 33, אשקלון",מנחם בגין 33,3050-51-50,דירה בבית קומות,3.0,חמישית,67.47,650000,,,2000.0,,6.0,10279277100,1,305051,False,27% ב 4.8 שנים,אשקלון,בגין מנחם,5.62,3050-51-50,3050/51,9633.911368015417,31.6742942776,34.5860226529,2014
2014-11-13,2014-11-13,"יוספטל 24, אשקלון",יוספטל 24,1997-96-21,דירה בבית קומות,4.0,שלישית,78.6,525000,,,1976.0,,4.0,10278867420,1,199796,False,,אשקלון,יוספטל,,1997-96-21,1997/96,6679.3893129771,31.6510979182,34.5569808263,2014
2014-11-13,2014-11-13,"יהודה הלוי 11, אשקלון",יהודה הלוי 11,1964-38-28,דירה בבית קומות,3.0,שלישית,49.5,400000,,,1970.0,,3.0,10279021680,1,196438,False,7% ב 2.5 שנים,אשקלון,יהודה הלוי,2.8,1964-38-28,1964/38,8080.80808080808,31.657329167,34.5634053235,2014
2014-11-13,2014-11-13,"השייטת 2, אשקלון",השייטת 2,1941-111-68,דירה בבית קומות,5.0,שביעית,121.38,1180000,,,2010.0,,10.0,10279153980,1,1941111,False,,אשקלון,השייטת,,1941-111-68,1941/111,9721.535673092769,31.6751537579,34.5595724786,2014
2014-11-12,2014-12-11,"בר-כוכבא 33, אשקלון",בר-כוכבא 33,2871-98-23,דירה בבית קומות,3.0,ראשונה,69.0,570000,,,1970.0,,5.0,10280545290,1,287198,False,,אשקלון,בר כוכבא,,2871-98-23,2871/98,8260.869565217392,31.6831667884,34.568324288,2014
2014-11-12,2014-12-11,"גינוסר 15, אשקלון",גינוסר 15,3041-17-3,קוטג' חד משפחתי,4.0,ראשונה,92.0,1100000,,,1992.0,,1.0,10280450340,1,304117,False,,אשקלון,גינוסר,,3041-17-3,3041/17,11956.521739130434,31.6807222087,34.5878432449,2014
2014-11-12,2014-12-11,"מונטיפיורי 18, אשקלון",מונטיפיורי 18,2878-4-39,דירה בבית קומות,3.0,שניה,59.5,600000,,,1970.0,,4.0,10280427300,1,28784,False,61% ב 14.9 שנים,אשקלון,מונטיפיורי,4.09,2878-4-39,2878/4,10084.033613445376,31.6808730612,34.5772639647,2014
2014-11-12,2014-12-11,"בנימין 20, אשקלון",בנימין 20,1658-76-23,דירה בבית קומות,3.0,רביעית,58.0,360000,,,1970.0,,4.0,10351631610,1,165876,False,,אשקלון,בנימין,,1658-76-23,1658/76,6206.896551724138,31.6504443455,34.587210108,2014
2014-11-12,2014-12-11,"יונתן נתניהו 4, אשקלון",יונתן נתניהו 4,2556-16-72,דירה בבית קומות,4.0,שישית,112.35,1155000,,,2010.0,,13.0,10280213550,1,255616,False,29% ב 4.2 שנים,אשקלון,נתניהו יונתן,6.9,2556-16-72,2556/16,10280.373831775702,31.6897246031,34.5777787226,2014
2014-11-12,2014-12-11,"אקסודוס 5, אשקלון",אקסודוס 5,3050-45-53,דירה בבית קומות,4.0,ראשונה,81.68,825000,,,2000.0,,6.0,10281001410,1,305045,False,48% ב 5.6 שנים,אשקלון,אקסודוס,8.57,3050-45-53,3050/45,10100.39177277179,31.6742977729,34.5843208227,2014
2014-11-12,2014-12-11,"רמב""ם 36, אשקלון","רמב""ם 36",2879-9-16,דירה בבית קומות,4.0,קומה ‎4‏,83.1,800000,,,1993.0,,6.0,10280901060,1,28799,False,60% ב 5.5 שנים,אשקלון,"רמב""ם",10.91,2879-9-16,2879/9,9626.955475330928,31.6723309493,34.5859373685,2014
2014-11-11,2014-11-11,"מודיעין 11, אשקלון",מודיעין 11,1940-65-6,דירה בבית קומות,5.0,ראשונה,129.5,1530000,,,2012.0,,9.0,10278966870,1,194065,False,,אשקלון,מודיעין,,1940-65-6,1940/65,11814.671814671814,31.6766562812,34.5568844861,2014
2014-11-11,2014-11-11,"דרום אפריקה 40, אשקלון",דרום אפריקה 40,2871-9-1,קוטג' דו משפחתי,4.0,קרקע,118.0,1880000,,,1970.0,,,10278966150,1,28719,False,123% ב 7.6 שנים,אשקלון,דרום אפריקה,16.18,2871-9-1,2871/9,15932.203389830507,31.6812077003,34.5676773153,2014
2014-11-11,2014-11-11,,,1225-6-122,דירה,4.0,שמינית,126.0,993000,1.0,פארק רלון,,,,11181184221,2,12256,False,,אשקלון,לוחמי הגטאות,,1225-6-122,1225/6,7880.952380952381,,,2014
2014-11-11,2014-11-11,,,1225-6-123,דירה,5.0,שישית,120.0,1105000,1.0,פארק רלון,,,,11181184222,2,12256,False,,אשקלון,לוחמי הגטאות,,1225-6-123,1225/6,9208.333333333334,,,2014
2014-11-11,2014-11-11,"שילה 1, אשקלון",שילה 1,2869-8-80,דירה בבית קומות,4.0,ראשונה,84.0,820000,,,2000.0,,13.0,10278020070,1,28698,False,,אשקלון,שילה,,2869-8-80,2869/8,9761.90476190476,31.6698945024,34.5563490531,2014
2014-11-11,2014-11-11,"פקיעין 16, אשקלון",פקיעין 16,2508-28-67,דירה בבית קומות,4.0,רביעית,86.95,875000,,,2000.0,,7.0,10278424800,1,250828,False,105% ב 13.9 שנים,אשקלון,פקיעין,7.55,2508-28-67,2508/28,10063.254744105809,31.6690335094,34.5769063714,2014
2014-11-11,2014-11-11,"ירושלים 145, אשקלון",ירושלים 145,1935-188-16,דירה בבית קומות,4.0,רביעית,100.0,1110000,,,2006.0,,5.0,10279281600,1,1935188,False,,אשקלון,ירושלים,,1935-188-16,1935/188,11100.0,31.6964536928,34.5773872813,2014
2014-11-11,2014-11-11,"כסלו 7, אשקלון",כסלו 7,1353-81-12,דירה בבית קומות,3.5,ראשונה,85.0,750000,,,1993.0,,3.0,10279321110,1,135381,False,,אשקלון,כסלו,,1353-81-12,1353/81,8823.529411764706,31.670824489,34.5785367766,2014
2014-11-09,2014-09-11,"אברהם בלסבלג 3, אשקלון",אברהם בלסבלג 3,2556-19-69,דירה בבית קומות,4.0,שמינית,104.84,1050000,,,2003.0,,10.0,10274638860,1,255619,False,23% ב 1.5 שנים,אשקלון,בלסבלג אברהם,15.33,2556-19-69,2556/19,10015.261350629533,31.6886710907,34.5766404682,2014
2014-11-09,2014-09-11,"בלפור 18, אשקלון",בלפור 18,2556-15-16,דירה בבית קומות,4.0,קומה ‎4‏,118.4,1050000,,,2010.0,,10.0,10274629950,1,255615,False,36% ב 4.5 שנים,אשקלון,נתניהו יונתן,8.0,2556-15-16,2556/15,8868.243243243243,31.689546948,34.578787782,2014
2014-11-09,2014-09-11,"ש""י עגנון 173, אשקלון","ש""י עגנון 173",3019-14-25,דירה בבית קומות,4.0,ראשונה,80.0,580000,,,1970.0,,4.0,10274757030,1,301914,False,17% ב 3 שנים,אשקלון,"עגנון ש""י",5.67,3019-14-25,3019/14,7250.0,31.6577842007,34.558251208,2014
2014-11-09,2014-09-11,"היין 2, אשקלון",היין 2,2753-141-5,דירה בבית קומות,4.0,שניה,91.9,960000,,,2007.0,,8.0,10274631390,1,2753141,False,14% ב 3.9 שנים,אשקלון,היין,3.59,2753-141-5,2753/141,10446.13710554951,31.6931105272,34.5776908714,2014
2014-11-09,2014-09-11,"השומר הצעיר 5, אשקלון",השומר הצעיר 5,2391-85-18,דירה בבית קומות,3.0,שישית,60.2,500000,,,1992.0,,6.0,10276694910,1,239185,False,,אשקלון,השומר הצעיר,,2391-85-18,2391/85,8305.647840531561,31.6563535787,34.5707165736,2014
2014-11-08,2014-08-11,"הנוער העובד 5, אשקלון",הנוער העובד 5,2390-56-8,דירה בבית קומות,3.5,שניה,75.5,640000,,,1992.0,,9.0,10273044060,1,239056,False,109% ב 11.1 שנים,אשקלון,הנוער העובד,9.82,2390-56-8,2390/56,8476.82119205298,31.6603749882,34.572316432,2014
2014-11-08,2014-08-11,"אריה בן-אליעזר 13, אשקלון",אריה בן-אליעזר 13,1934-102-4,דירה בבית קומות,4.0,ראשונה,96.8,760000,,,1990.0,,9.0,10274712300,1,1934102,False,63% ב 6.7 שנים,אשקלון,בן אליעזר אריה,9.4,1934-102-4,1934/102,7851.239669421488,31.6844016014,34.5756679587,2014
2014-11-06,2014-06-11,"נווה שלום 6, אשקלון",נווה שלום 6,1296-13-55,דירה בבית קומות,3.0,שלישית,81.25,840000,,,1992.0,,5.0,10269823500,1,129613,False,110% ב 7 שנים,אשקלון,נווה שלום,15.71,1296-13-55,1296/13,10338.46153846154,31.6624648909,34.5763778817,2014
2014-11-06,2014-06-11,"הקיקיון 1, אשקלון",הקיקיון 1,1942-143-29,דירה בבית קומות,5.0,שמינית,118.12,890000,,,1993.0,,8.0,10270021230,1,1942143,False,,אשקלון,הקיקיון,,1942-143-29,1942/143,7534.710463934981,31.6682937201,34.5669435933,2014
2014-11-06,2014-06-11,,,1225-6-106,דירה,5.0,שמינית,125.0,1050000,1.0,פארק רלון,,,,11181184203,2,12256,False,,אשקלון,לוחמי הגטאות,,1225-6-106,1225/6,8400.0,,,2014
2014-11-06,2014-06-11,,,1225-6-105,דירה,4.0,ראשונה,120.0,980000,1.0,פארק רלון,,,,11181184202,2,12256,False,,אשקלון,לוחמי הגטאות,,1225-6-105,1225/6,8166.666666666667,,,2014
2014-11-06,2014-06-11,"פקיעין 14, אשקלון",פקיעין 14,2508-28-29,דירה בבית קומות,4.0,שלישית,85.35,820000,,,2002.0,,8.0,10270382670,1,250828,False,82% ב 11.1 שנים,אשקלון,פקיעין,7.39,2508-28-29,2508/28,9607.498535442295,31.6690335094,34.5769063714,2014
2014-11-06,2014-06-11,"הטייסים 73, אשקלון",הטייסים 73,1941-109-21,דירה בבית קומות,4.0,חמישית,91.2,960000,,,2005.0,,10.0,10269672930,1,1941109,False,,אשקלון,הטייסים,,1941-109-21,1941/109,10526.315789473683,31.6764766656,34.5606701547,2014
2014-11-05,2014-05-11,"כסלו 15, אשקלון",כסלו 15,1353-72-9,דירת גן,4.5,קרקע,90.8,1010000,,,1993.0,,3.0,10268341110,1,135372,False,,אשקלון,כסלו,,1353-72-9,1353/72,11123.348017621143,31.6723287226,34.5794902232,2014
2014-11-05,2014-05-11,"הרב פינטו 4, אשקלון",הרב פינטו 4,1996-87-3,דירה בבית קומות,2.5,ראשונה,46.5,408000,,,1960.0,,4.0,10268076690,1,199687,False,36% ב 3.1 שנים,אשקלון,הרב פינטו,11.61,1996-87-3,1996/87,8774.193548387097,31.6526431707,34.5592356376,2014
2014-11-04,2014-04-11,"יעקב מרידור 11, אשקלון",יעקב מרידור 11,2904-81-10,דירה בבית קומות,5.0,קומה ‎3‏,125.9,1084000,,,2015.0,,10.0,10267363170,1,290481,False,,אשקלון,מרידור יעקב,,2904-81-10,2904/81,8610.007942811755,31.680192209,34.5780865821,2014
2014-11-03,2014-03-11,"גדוד הפורצים 3, אשקלון",גדוד הפורצים 3,1998-18-12,דירה בבית קומות,4.0,שלישית,84.0,530000,,,1970.0,,4.0,10264829670,1,199818,False,,אשקלון,גדוד הפורצים,,1998-18-12,1998/18,6309.523809523809,31.6533402359,34.5554828708,2014
2014-11-03,2014-03-11,"שילה 2, אשקלון",שילה 2,2869-54-67,דירה בבית קומות,4.0,שש עשרה,109.4,1170000,,,2011.0,,20.0,10266308730,1,286954,False,,אשקלון,שילה,,2869-54-67,2869/54,10694.69835466179,31.6692019396,34.5566279356,2014
2014-11-02,2014-02-11,"יוספטל 19, אשקלון",יוספטל 19,1997-76-3,דירה בבית קומות,4.0,שניה,69.7,475000,,,1971.0,,3.0,10263378780,1,199776,False,,אשקלון,יוספטל,,1997-76-3,1997/76,6814.921090387375,31.6514812634,34.5589397986,2014
2014-11-02,2014-02-11,"ההרדוף 22, אשקלון",ההרדוף 22,1961-16-2,קוטג' דו משפחתי,4.0,ראשונה,74.85,1299000,,,1970.0,,1.0,10265488290,1,196116,False,,אשקלון,ההרדוף,,1961-16-2,1961/16,17354.709418837676,31.6724237252,34.5630281423,2014
2014-11-02,2014-02-11,"תנובת השדה 3, אשקלון",תנובת השדה 3,2753-147-39,דירה,5.0,שישית,107.0,1194000,1.0,נאות יצחק שלב ג',,,11.0,11181207809,1,2753147,False,,אשקלון,תנובת השדה,,2753-147-39,2753/147,11158.878504672895,31.6913392392,34.5789345239,2014
2014-11-02,2014-02-11,"תנובת השדה 3, אשקלון",תנובת השדה 3,2753-147-40,דירה,5.0,שלישית,126.0,1240000,1.0,נאות יצחק שלב ג',,,11.0,11181207811,1,2753147,False,,אשקלון,תנובת השדה,,2753-147-40,2753/147,9841.26984126984,31.6913392392,34.5789345239,2014
2014-11-02,2014-02-11,"ההסתדרות 63, אשקלון",ההסתדרות 63,1998-16-16,דירה בבית קומות,5.0,רביעית,86.0,465000,,,1970.0,,4.0,10264679820,1,199816,False,111% ב 4.2 שנים,אשקלון,ההסתדרות,26.43,1998-16-16,1998/16,5406.976744186047,31.6537498287,34.5554083692,2014
2014-11-01,2014-01-11,"תנובת השדה 3, אשקלון",תנובת השדה 3,2753-147-29,דירה,4.0,שביעית,126.0,1083000,1.0,נאות יצחק שלב ג',,,11.0,11181207798,1,2753147,False,,אשקלון,תנובת השדה,,2753-147-29,2753/147,8595.238095238095,31.6913392392,34.5789345239,2014
2014-11-01,2014-01-11,"תנובת השדה 3, אשקלון",תנובת השדה 3,2753-147-30,דירה,4.0,ראשונה,126.0,1086000,1.0,נאות יצחק שלב ג',,,11.0,11181207800,1,2753147,False,,אשקלון,תנובת השדה,,2753-147-30,2753/147,8619.047619047618,31.6913392392,34.5789345239,2014
2014-10-31,2014-10-31,"בלפור 43, אשקלון",בלפור 43,2557-43-84,דירה בבית קומות,4.0,שמינית,110.71,1111000,,,2013.0,,13.0,10279805040,1,255743,False,,אשקלון,בלפור,,2557-43-84,2557/43,10035.227170084005,31.6893487975,34.5810501738,2014
2014-10-31,2014-10-31,"נווה שלום 6, אשקלון",נווה שלום 6,1296-13-48,דירה בבית קומות,4.0,ראשונה,97.1,760000,,,1992.0,,5.0,10278427140,1,129613,False,,אשקלון,נווה שלום,,1296-13-48,1296/13,7826.982492276004,31.6624648909,34.5763778817,2014
2014-10-31,2014-10-31,"חביב אבשלום 1, אשקלון",חביב אבשלום 1,3013-5-28,דירה בבית קומות,3.0,שלישית,63.0,500000,,,1970.0,,4.0,10277699400,1,30135,False,,אשקלון,חביב אבשלום,,3013-5-28,3013/5,7936.507936507936,31.6543240536,34.5536780502,2014
2014-10-31,2014-10-31,"מודיעין 5, אשקלון",מודיעין 5,1940-68-247,דירה בבית קומות,4.0,שישית,102.0,1190000,,,2021.0,,16.0,10279365390,1,194068,False,,אשקלון,מודיעין,,1940-68-247,1940/68,11666.666666666666,31.6775411974,34.5579888036,2014
2014-10-31,2014-10-31,"עשרת השבטים 4, אשקלון",עשרת השבטים 4,3050-45-21,דירה בבית קומות,4.0,חמישית,83.08,950000,,,2009.0,,6.0,10277821890,1,305045,False,11% ב 1.1 שנים,אשקלון,עשרת השבטים,10.0,3050-45-21,3050/45,11434.7616754935,31.6742977729,34.5843208227,2014
2014-10-30,2014-10-30,"מודיעין 5, אשקלון",מודיעין 5,1940-68-37,דירה,4.0,שישית,102.0,1190000,1.0,גני אפגד,2021.0,,16.0,11181201477,1,194068,False,,אשקלון,מודיעין,,1940-68-37,1940/68,11666.666666666666,31.6775411974,34.5579888036,2014
2014-10-30,2014-10-30,"הרב נורוק 4, אשקלון",הרב נורוק 4,1942-177-182,דירה בבית קומות,3.0,שלישית,70.0,645000,,,2000.0,,9.0,10279173240,1,1942177,False,,אשקלון,הרב נורוק,,1942-177-182,1942/177,9214.285714285714,31.6694499419,34.5675342214,2014
2014-10-30,2014-10-30,"בלפור 43, אשקלון",בלפור 43,2557-43-98,דירה בבית קומות,5.0,שתים עשרה,192.86,1827000,,,2013.0,,13.0,10278969120,1,255743,False,,אשקלון,בלפור,,2557-43-98,2557/43,9473.192989733485,31.6893487975,34.5810501738,2014
2014-10-30,2014-10-30,"קדש 9, אשקלון",קדש 9,2557-4-44,דירה בבית קומות,4.0,רביעית,110.0,1060000,,,2009.0,,5.0,10277234730,1,25574,False,,אשקלון,קדש,,2557-4-44,2557/4,9636.363636363636,31.6890864082,34.5822508686,2014
2014-10-29,2014-10-29,"אחד העם 27, אשקלון",אחד העם 27,1118-90-1,קוטג' חד משפחתי,6.0,ראשונה,160.0,1700000,,,1900.0,,1.0,10277685360,1,111890,False,,אשקלון,אחד העם,,1118-90-1,1118/90,10625.0,31.684261195,34.581372832,2014
2014-10-29,2014-10-29,"מונטיפיורי 8, אשקלון",מונטיפיורי 8,2878-5-75,דירה בבית קומות,3.5,שלישית,80.0,680000,,,1970.0,,4.0,10277317080,1,28785,False,7% ב 1.5 שנים,אשקלון,מונטיפיורי,4.67,2878-5-75,2878/5,8500.0,31.6811894141,34.5757110842,2014
2014-10-29,2014-10-29,"בלפור 43, אשקלון",בלפור 43,2557-43-34,דירה בבית קומות,4.0,שמינית,109.17,1106000,,,2013.0,,13.0,10278703260,1,255743,False,,אשקלון,בלפור,,2557-43-34,2557/43,10130.988366767428,31.6893487975,34.5810501738,2014
2014-10-29,2014-10-29,"חגי 4, אשקלון",חגי 4,1208-139-2,קוטג' דו משפחתי,5.0,,100.0,1030000,,,1970.0,,,10277948250,1,1208139,False,,אשקלון,חגי,,1208-139-2,1208/139,10300.0,31.6581201941,34.5855170892,2014
2014-10-29,2014-10-29,"בלפור 43, אשקלון",בלפור 43,2557-43-88,דירה בבית קומות,4.0,תשיעית,110.71,1116000,,,2013.0,,13.0,10278706320,1,255743,False,,אשקלון,בלפור,,2557-43-88,2557/43,10080.390208653238,31.6893487975,34.5810501738,2014
2014-10-29,2014-10-29,"בנימין 20, אשקלון",בנימין 20,1658-76-28,דירה בבית קומות,3.0,שניה,59.0,400000,,,1970.0,,4.0,10279410120,1,165876,False,100% ב 6 שנים,אשקלון,בנימין,16.67,1658-76-28,1658/76,6779.661016949152,31.6504443455,34.587210108,2014
2014-10-29,2014-10-29,"יונתן נתניהו 14, אשקלון",יונתן נתניהו 14,2557-47-104,דירה בבית קומות,4.0,שלוש עשרה,128.15,1245000,,,2013.0,,14.0,10278288090,1,255747,False,,אשקלון,נתניהו יונתן,,2557-47-104,2557/47,9715.177526336323,31.689138359,34.5797084707,2014
2014-10-29,2014-10-29,"השומר הצעיר 10, אשקלון",השומר הצעיר 10,2391-78-4,דירה בבית קומות,4.0,ראשונה,82.75,540000,,,1993.0,,6.0,10280099160,1,239178,False,,אשקלון,השומר הצעיר,,2391-78-4,2391/78,6525.679758308157,31.6560291369,34.5711171936,2014
2014-10-29,2014-10-29,"מודיעין 5, אשקלון",מודיעין 5,1940-68-248,דירה בבית קומות,4.0,שניה,114.0,1050000,,,2021.0,,16.0,10279367730,1,194068,False,,אשקלון,מודיעין,,1940-68-248,1940/68,9210.526315789471,31.6775411974,34.5579888036,2014
2014-10-28,2014-10-28,"מודיעין 5, אשקלון",מודיעין 5,1940-68-36,דירה,4.0,שניה,102.0,1150000,1.0,גני אפגד,2021.0,,16.0,11181201476,1,194068,False,,אשקלון,מודיעין,,1940-68-36,1940/68,11274.509803921568,31.6775411974,34.5579888036,2014
2014-10-28,2014-10-28,"ביאליק 50, אשקלון",ביאליק 50,1964-111-14,דירה בבית קומות,3.0,שלישית,48.0,410000,,,1960.0,,3.0,10278864360,1,1964111,False,13% ב 3.3 שנים,אשקלון,ביאליק,3.94,1964-111-14,1964/111,8541.666666666666,31.6562843679,34.5614776293,2014
2014-10-28,2014-10-28,"בלפור 43, אשקלון",בלפור 43,2557-43-89,דירה בבית קומות,5.0,תשיעית,129.6,1248000,,,2013.0,,13.0,10278969840,1,255743,False,,אשקלון,בלפור,,2557-43-89,2557/43,9629.62962962963,31.6893487975,34.5810501738,2014
2014-10-28,2014-10-28,"אברהם בלסבלג 2, אשקלון",אברהם בלסבלג 2,2556-20-11,דירה בבית קומות,5.0,שלישית,116.7,1220000,,,2013.0,,15.0,10277478900,1,255620,False,,אשקלון,בלסבלג אברהם,,2556-20-11,2556/20,10454.155955441302,31.6879534516,34.5768535402,2014
2014-10-28,2014-10-28,"בית""ר 1, אשקלון","בית""ר 1",2390-17-15,דירה בבית קומות,6.0,חמישית,151.95,1150000,,,2012.0,,7.0,10278493830,1,239017,False,27% ב 2.3 שנים,אשקלון,"בית""ר",11.74,2390-17-15,2390/17,7568.279039157618,31.6608501187,34.5702274253,2014
2014-10-28,2014-10-28,"ביכורי ענבים 27, אשקלון",ביכורי ענבים 27,2754-155-73,דירה בבית קומות,4.0,שביעית,95.0,1070000,,,2014.0,,10.0,10277069850,1,2754155,False,,אשקלון,ביכורי ענבים,,2754-155-73,2754/155,11263.157894736842,31.6905818725,34.5849589842,2014
2014-10-27,2014-10-27,"יוספטל 9, אשקלון",יוספטל 9,1996-105-24,דירה בבית קומות,3.0,שלישית,50.0,415000,,,1960.0,,3.0,10277380170,1,1996105,False,,אשקלון,יוספטל,,1996-105-24,1996/105,8300.0,31.6536753062,34.5620381812,2014
2014-10-27,2014-10-27,"שילה 1, אשקלון",שילה 1,2869-8-81,דירה בבית קומות,6.0,שש עשרה,163.0,1599000,,,2000.0,,13.0,10278167220,1,28698,False,,אשקלון,שילה,,2869-8-81,2869/8,9809.815950920243,31.6698945024,34.5563490531,2014
2014-10-27,2014-10-27,"דרום אפריקה 32, אשקלון",דרום אפריקה 32,2872-111-7,דירה בבית קומות,4.0,שניה,76.0,645000,,,1970.0,,7.0,10277383230,1,2872111,False,72% ב 14.4 שנים,אשקלון,דרום אפריקה,5.0,2872-111-7,2872/111,8486.842105263158,31.6800216848,34.5709254389,2014
2014-10-27,2014-10-27,"טשרניחובסקי 2, אשקלון",טשרניחובסקי 2,1964-70-12,דירה בבית קומות,3.5,שניה,44.0,550000,,,1960.0,,3.0,10279223820,1,196470,False,90% ב 8.5 שנים,אשקלון,טשרניחובסקי,10.59,1964-70-12,1964/70,12500.0,31.6575556864,34.5614733043,2014
2014-10-27,2014-10-27,"ברייר דב 1, אשקלון",ברייר דב 1,1942-177-57,דירה בבית קומות,4.0,שניה,98.0,965000,,,2000.0,,9.0,10278042300,1,1942177,False,,אשקלון,ברייר דב,,1942-177-57,1942/177,9846.938775510203,31.6694499419,34.5675342214,2014
2014-10-27,2014-10-27,"בלפור 39, אשקלון",בלפור 39,2557-44-7,דירה בבית קומות,5.0,שניה,108.85,1150000,,,2008.0,,9.0,10277877690,1,255744,False,65% ב 5.9 שנים,אשקלון,בלפור,11.02,2557-44-7,2557/44,10564.99770326137,31.689709805,34.580359485,2014
2014-10-27,2014-10-27,"יונתן נתניהו 6, אשקלון",יונתן נתניהו 6,2556-14-19,דירה בבית קומות,4.0,חמישית,106.77,1125000,,,2009.0,,14.0,10277380890,1,255614,False,52% ב 4.6 שנים,אשקלון,נתניהו יונתן,11.3,2556-14-19,2556/14,10536.667603259342,31.6889528319,34.5785167582,2014
2014-10-27,2014-10-27,"יעקב מרידור 1, אשקלון",יעקב מרידור 1,2904-36-36,דירה בבית קומות,5.0,תשיעית,140.6,1350000,,,2013.0,,9.0,10278477450,1,290436,False,,אשקלון,מרידור יעקב,,2904-36-36,2904/36,9601.706970128023,31.6787703751,34.5790713772,2014
2014-10-27,2014-10-27,"חננאל 2, אשקלון",חננאל 2,2383-46-12,דירה בבית קומות,4.0,שניה,69.4,410000,,,1970.0,,2.0,10277379450,1,238346,False,129% ב 11.7 שנים,אשקלון,חננאל,11.03,2383-46-12,2383/46,5907.780979827089,31.6684621312,34.5935863965,2014
2014-10-26,2014-10-26,"כסלו 18, אשקלון",כסלו 18,1353-83-3,קוטג' דו משפחתי,4.5,קרקע + ראשונה,107.8,970000,,,1993.0,,,10278020790,1,135383,False,,אשקלון,כסלו,,1353-83-3,1353/83,8998.144712430427,31.6732425132,34.5808751384,2014
2014-10-26,2014-10-26,,,1225-6-217,דירה בבית קומות,5.0,ראשונה,120.0,1100000,,,2010.0,,,10277175420,2,12256,False,,אשקלון,לוחמי הגטאות,,1225-6-217,1225/6,9166.666666666666,,,2014
2014-10-26,2014-10-26,"הנוער העובד 6, אשקלון",הנוער העובד 6,2390-40-30,דירה בבית קומות,3.5,שניה,73.2,665000,,,1993.0,,6.0,10276837290,1,239040,False,10% ב 3.3 שנים,אשקלון,הנוער העובד,3.03,2390-40-30,2390/40,9084.699453551912,31.6606011809,34.5727819521,2014
2014-10-26,2014-10-26,"הבוסתן 1, אשקלון",הבוסתן 1,2753-146-57,דירה,5.0,שניה,126.0,1698000,1.0,נאות יצחק שלב ב',,,11.0,11181207771,1,2753146,False,,אשקלון,הבוסתן,,2753-146-57,2753/146,13476.190476190475,31.690975625,34.578785687,2014
2014-10-26,2014-10-26,"מודיעין 11, אשקלון",מודיעין 11,1940-65-19,דירה בבית קומות,5.0,חמישית,129.1,1575000,,,2012.0,,9.0,10277075070,1,194065,False,,אשקלון,מודיעין,,1940-65-19,1940/65,12199.845081332302,31.6766562812,34.5568844861,2014
2014-10-26,2014-10-26,"ההסתדרות 65, אשקלון",ההסתדרות 65,1998-17-13,דירה בבית קומות,4.0,רביעית,94.0,510000,,,1970.0,,4.0,10276892370,1,199817,False,,אשקלון,ההסתדרות,,1998-17-13,1998/17,5425.531914893617,31.653596908,34.5549701972,2014
2014-10-26,2014-10-26,"נווה שלום 22, אשקלון",נווה שלום 22,1297-8-33,דירה בבית קומות,4.5,תשיעית + עשירית,107.3,950000,,,1992.0,,9.0,10277666820,1,12978,False,,אשקלון,נווה שלום,,1297-8-33,1297/8,8853.68126747437,31.6625982037,34.5802016579,2014
2014-10-26,2014-10-26,"עולי הגרדום 88, אשקלון",עולי הגרדום 88,2843-47-48,דירה בבית קומות,3.5,שלישית,76.1,650000,,,1996.0,,3.0,10278072090,1,284347,False,,אשקלון,עולי הגרדום,,2843-47-48,2843/47,8541.392904073587,31.6462002773,34.5555031385,2014
2014-10-25,2014-10-25,,,1225-6-120,דירה,5.0,שלישית,120.0,1100000,1.0,פארק רלון,,,,11181184219,2,12256,False,,אשקלון,לוחמי הגטאות,,1225-6-120,1225/6,9166.666666666666,,,2014
2014-10-24,2014-10-24,"התמר 31, אשקלון",התמר 31,1960-9-1,קוטג' חד משפחתי,5.0,ראשונה,168.0,2200000,,,1967.0,,1.0,10278729090,1,19609,False,,אשקלון,התמר,,1960-9-1,1960/9,13095.238095238095,31.6767613469,34.5652985091,2014
2014-10-24,2014-10-24,"בלפור 43, אשקלון",בלפור 43,2557-43-22,דירה בבית קומות,4.0,חמישית,109.17,1080000,,,2013.0,,13.0,10278967500,1,255743,False,,אשקלון,בלפור,,2557-43-22,2557/43,9892.82769991756,31.6893487975,34.5810501738,2014
2014-10-23,2014-10-23,"ש""י עגנון 14, אשקלון","ש""י עגנון 14",3017-19-19,דירה בבית קומות,4.0,חמישית,116.05,800000,,,1970.0,,8.0,10279221480,1,301719,False,60% ב 3.8 שנים,אשקלון,"עגנון ש""י",15.79,3017-19-19,3017/19,6893.5803532959935,31.6591040132,34.5581966254,2014
2014-10-23,2014-10-23,"השומר הצעיר 4, אשקלון",השומר הצעיר 4,2391-76-3,דירה בבית קומות,4.0,ראשונה,75.3,670000,,,1990.0,,6.0,10277392140,1,239176,False,,אשקלון,השומר הצעיר,,2391-76-3,2391/76,8897.742363877822,31.6562416068,34.5699977559,2014
2014-10-23,2014-10-23,"מודיעין 5, אשקלון",מודיעין 5,1940-68-251,דירה בבית קומות,4.0,שלישית,105.0,1180000,,,2021.0,,16.0,10277208720,1,194068,False,,אשקלון,מודיעין,,1940-68-251,1940/68,11238.09523809524,31.6775411974,34.5579888036,2014
2014-10-23,2014-10-23,"אברבנאל 9, אשקלון",אברבנאל 9,1962-32-9,דירה בבית קומות,3.0,שלישית,44.0,600000,,,1960.0,,3.0,10276963650,1,196232,False,66% ב 2.5 שנים,אשקלון,אברבנאל,26.4,1962-32-9,1962/32,13636.363636363636,31.6600489963,34.5628357948,2014
2014-10-23,2014-10-23,"הסנה 6, אשקלון",הסנה 6,1942-157-66,דירה בבית קומות,4.0,שלישית,86.01,801000,,,2002.0,,,10278860580,1,1942157,False,39% ב 12.6 שנים,אשקלון,הסנה,3.1,1942-157-66,1942/157,9312.870596442272,31.6679442274,34.5647038996,2014
2014-10-23,2014-10-23,"יעקב מרידור 13, אשקלון",יעקב מרידור 13,2904-81-72,דירה בבית קומות,4.0,קומה ‎6‏,107.0,1106000,,,2015.0,,10.0,10277964630,1,290481,False,,אשקלון,מרידור יעקב,,2904-81-72,2904/81,10336.44859813084,31.680192209,34.5780865821,2014
2014-10-23,2014-10-23,"ש""י עגנון 24, אשקלון","ש""י עגנון 24",1944-185-64,דירה בבית קומות,4.0,שישית,92.9,820000,,,1999.0,,9.0,10276989660,1,1944185,False,58% ב 14.8 שנים,אשקלון,"עגנון ש""י",3.92,1944-185-64,1944/185,8826.695371367061,31.6600779926,34.5572929341,2014
2014-10-22,2014-10-22,"יונתן נתניהו 8, אשקלון",יונתן נתניהו 8,2556-14-71,דירה בבית קומות,4.0,שלישית,110.0,1000000,,,2009.0,,14.0,10277791560,1,255614,False,32% ב 4.2 שנים,אשקלון,נתניהו יונתן,7.62,2556-14-71,2556/14,9090.90909090909,31.6889528319,34.5785167582,2014
2014-10-22,2014-10-22,"מודיעין 5, אשקלון",מודיעין 5,1940-68-35,דירה,4.0,שלישית,102.0,1180000,1.0,גני אפגד,2021.0,,16.0,11181201475,1,194068,False,,אשקלון,מודיעין,,1940-68-35,1940/68,11568.627450980392,31.6775411974,34.5579888036,2014
2014-10-22,2014-10-22,"קדש 1, אשקלון",קדש 1,2557-2-2,דירה בבית קומות,5.0,קומה ‎0‏,114.55,1310000,,,2011.0,,10.0,10277401680,1,25572,False,19% ב 3.4 שנים,אשקלון,קדש,5.59,2557-2-2,2557/2,11436.054124836315,31.6886402269,34.5837966741,2014
2014-10-22,2014-10-22,"בלפור 3, אשקלון",בלפור 3,2556-10-34,דירה בבית קומות,5.0,תשיעית,121.5,1400000,,,2009.0,,15.0,10276883460,1,255610,False,21% ב 3.5 שנים,אשקלון,בלפור,6.0,2556-10-34,2556/10,11522.633744855968,31.6867352419,34.575301333,2014
2014-10-21,2014-10-21,"ההסתדרות 49, אשקלון",ההסתדרות 49,1996-71-7,דירה בבית קומות,2.0,שניה,30.7,428000,,,1970.0,,4.0,10276905780,1,199671,False,157% ב 13.5 שנים,אשקלון,ההסתדרות,11.63,1996-71-7,1996/71,13941.368078175896,31.6560123125,34.5591505419,2014
2014-10-21,2014-10-21,"יעקב מרידור 11, אשקלון",יעקב מרידור 11,2904-81-2,דירת גן,4.0,קומה ‎0‏,91.7,1234000,,,2015.0,,10.0,10277961570,1,290481,False,,אשקלון,מרידור יעקב,,2904-81-2,2904/81,13456.924754634678,31.680192209,34.5780865821,2014
2014-10-21,2014-10-21,"הבוסתן 7, אשקלון",הבוסתן 7,2753-145-54,דירה בבית קומות,5.0,שלישית,133.2,1155000,,,2010.0,,11.0,10277090010,1,2753145,True,-2% ב 0.6 שנים,אשקלון,הבוסתן,-3.33,2753-145-54,2753/145,8671.171171171172,31.6911827399,34.5780591139,2014
2014-10-21,2014-10-21,"מונטיפיורי 20, אשקלון",מונטיפיורי 20,2878-4-32,דירה בבית קומות,3.0,רביעית,59.5,550000,,,1970.0,,4.0,10276625160,1,28784,False,120% ב 5.5 שנים,אשקלון,מונטיפיורי,21.82,2878-4-32,2878/4,9243.697478991597,31.6808730612,34.5772639647,2014
2014-10-20,2014-10-20,"הבוסתן 5, אשקלון",הבוסתן 5,2753-145-188,דירה בבית קומות,4.0,שלישית,113.8,1075000,,,2010.0,,11.0,10278035010,1,2753145,False,34% ב 4.1 שנים,אשקלון,הבוסתן,8.29,2753-145-188,2753/145,9446.39718804921,31.6911827399,34.5780591139,2014
2014-10-20,2014-10-20,,,1225-6-218,דירה בבית קומות,4.0,חמישית,107.0,985000,,,2010.0,,,10276968870,2,12256,False,,אשקלון,לוחמי הגטאות,,1225-6-218,1225/6,9205.607476635514,,,2014
2014-10-20,2014-10-20,"עולי הגרדום 13, אשקלון",עולי הגרדום 13,2843-10-50,דירה בבית קומות,4.0,ראשונה,78.75,690000,,,2000.0,,4.0,10276882740,1,284310,False,79% ב 16.3 שנים,אשקלון,עולי הגרדום,4.85,2843-10-50,2843/10,8761.904761904761,31.6497553786,34.5547955194,2014
2014-10-20,2014-10-20,"תנובת השדה 3, אשקלון",תנובת השדה 3,2753-147-70,דירה,4.0,תשיעית,106.0,1135000,1.0,נאות יצחק שלב ג',,,11.0,11181207844,1,2753147,False,,אשקלון,תנובת השדה,,2753-147-70,2753/147,10707.547169811322,31.6913392392,34.5789345239,2014
2014-10-20,2014-10-20,"איילה 31, אשקלון",איילה 31,1296-7-47,דירה בבית קומות,4.0,שמינית,76.65,655000,,,1992.0,,9.0,10277662410,1,12967,False,62% ב 5.5 שנים,אשקלון,איילה,11.27,1296-7-47,1296/7,8545.335942596215,31.6633411485,34.5748581871,2014
2014-10-20,2014-10-20,"בן-גוריון 276, אשקלון",בן-גוריון 276,1963-78-80,דירה בבית קומות,4.0,רביעית,80.4,540000,,,1960.0,,4.0,10277166510,1,196378,False,18% ב 2.4 שנים,אשקלון,בן גוריון,7.5,1963-78-80,1963/78,6716.417910447761,31.6628063362,34.5674341892,2014
2014-10-20,2014-10-20,"עולי הגרדום 21, אשקלון",עולי הגרדום 21,2843-32-65,דירה בבית קומות,4.0,ראשונה,87.7,650000,,,1996.0,,3.0,10277058690,1,284332,False,100% ב 10.6 שנים,אשקלון,עולי הגרדום,9.43,2843-32-65,2843/32,7411.630558722919,31.646793218,34.5562831238,2014
2014-10-20,2014-10-20,"התמר 37, אשקלון",התמר 37,1959-59-1,קוטג' דו משפחתי,5.0,,180.0,1900000,,,1990.0,,1.0,10277299980,1,195959,False,,אשקלון,התמר,,1959-59-1,1959/59,10555.555555555557,31.6780679823,34.5658994458,2014
2014-10-20,2014-10-20,"אופירה 10, אשקלון",אופירה 10,3051-77-3,קוטג' חד משפחתי,3.0,,90.0,960000,,,1997.0,,1.0,10277228700,1,305177,False,,אשקלון,אופירה,,3051-77-3,3051/77,10666.666666666666,31.6755994356,34.5818999281,2014
2014-10-20,2014-10-20,"מודיעין 13, אשקלון",מודיעין 13,1940-65-37,דירה בבית קומות,4.0,ראשונה,100.2,1300000,,,2012.0,,7.0,10277382510,1,194065,False,0% ב 2.1 שנים,אשקלון,מודיעין,0.0,1940-65-37,1940/65,12974.051896207584,31.6766562812,34.5568844861,2014
2014-10-20,2014-10-20,"יעקב מרידור 11, אשקלון",יעקב מרידור 11,2904-81-28,דירה בבית קומות,4.0,קומה ‎0‏,91.6,1244000,,,2015.0,,10.0,10277966070,1,290481,False,,אשקלון,מרידור יעקב,,2904-81-28,2904/81,13580.786026200874,31.680192209,34.5780865821,2014
2014-10-20,2014-10-20,"תנובת השדה 3, אשקלון",תנובת השדה 3,2753-147-110,דירה בבית קומות,5.0,תשיעית,132.0,1409000,,,2013.0,,11.0,10276986690,1,2753147,False,,אשקלון,תנובת השדה,,2753-147-110,2753/147,10674.242424242424,31.6913392392,34.5789345239,2014
2014-10-19,2014-10-19,,,1225-6-119,דירה,4.0,שישית,109.0,990000,1.0,פארק רלון,,,,11181184217,2,12256,False,,אשקלון,לוחמי הגטאות,,1225-6-119,1225/6,9082.56880733945,,,2014
2014-10-19,2014-10-19,"הראל 6, אשקלון",הראל 6,2871-73-1,קוטג' חד משפחתי,4.0,ראשונה,112.0,1600000,,,1972.0,,1.0,10278003690,1,287173,False,,אשקלון,הראל,,2871-73-1,2871/73,14285.714285714286,31.6823620896,34.5665273661,2014
2014-10-19,2014-10-19,"תנובת השדה 3, אשקלון",תנובת השדה 3,2753-147-69,דירה,5.0,רביעית,126.0,1409000,1.0,נאות יצחק שלב ג',,,11.0,11181207842,1,2753147,False,,אשקלון,תנובת השדה,,2753-147-69,2753/147,11182.539682539682,31.6913392392,34.5789345239,2014
2014-10-19,2014-10-19,"אריה בן-אליעזר 13, אשקלון",אריה בן-אליעזר 13,1934-102-26,דירה בבית קומות,4.0,שישית,88.5,785000,,,1990.0,,9.0,10279020330,1,1934102,False,30% ב 4 שנים,אשקלון,בן אליעזר אריה,7.5,1934-102-26,1934/102,8870.056497175141,31.6844016014,34.5756679587,2014
2014-10-19,2014-10-19,"אריה בן-אליעזר 15, אשקלון",אריה בן-אליעזר 15,1934-103-17,דירה בבית קומות,4.0,חמישית,94.9,700000,,,1990.0,,8.0,10276420230,1,1934103,False,27% ב 5 שנים,אשקלון,בן אליעזר אריה,5.4,1934-103-17,1934/103,7376.185458377238,31.6845157157,34.5752255619,2014
2014-10-19,2014-10-19,"מודיעין 11, אשקלון",מודיעין 11,1940-65-2,דירה בבית קומות,5.0,קרקע,109.1,1700000,,,2012.0,,9.0,10276789230,1,194065,False,,אשקלון,מודיעין,,1940-65-2,1940/65,15582.0348304308,31.6766562812,34.5568844861,2014
2014-10-19,2014-10-19,,,1225-6-118,דירה,4.0,ראשונה,109.0,985000,1.0,פארק רלון,,,,11181184216,2,12256,False,,אשקלון,לוחמי הגטאות,,1225-6-118,1225/6,9036.697247706425,,,2014
2014-10-19,2014-10-19,"יעקב מרידור 13, אשקלון",יעקב מרידור 13,2904-81-86,דירה בבית קומות,4.0,קומה ‎2‏,104.7,989000,,,2015.0,,10.0,10277963910,1,290481,False,,אשקלון,מרידור יעקב,,2904-81-86,2904/81,9446.03629417383,31.680192209,34.5780865821,2014
2014-10-19,2014-10-19,"אריה 20, אשקלון",אריה 20,1296-17-10,דירה בבית קומות,3.0,שלישית,73.45,700000,,,1990.0,,5.0,10277801190,1,129617,False,74% ב 15.4 שנים,אשקלון,אריה,4.81,1296-17-10,1296/17,9530.292716133425,31.6635898151,34.5792610435,2014
2014-10-17,2014-10-17,"דפנה 25, אשקלון",דפנה 25,2848-114-1,קוטג' חד משפחתי,5.0,ראשונה,130.0,1700000,,,1995.0,,1.0,10277231670,1,2848114,False,,אשקלון,דפנה,,2848-114-1,2848/114,13076.923076923076,31.6523490257,34.5790959189,2014
2014-10-15,2014-10-15,"יעקב מרידור 11, אשקלון",יעקב מרידור 11,2904-81-34,דירה בבית קומות,4.0,קומה ‎2‏,103.4,1005000,,,2015.0,,10.0,10277083260,1,290481,False,,אשקלון,מרידור יעקב,,2904-81-34,2904/81,9719.53578336557,31.680192209,34.5780865821,2014
2014-10-14,2014-10-14,"אריה בן-אליעזר 101, אשקלון",אריה בן-אליעזר 101,1934-63-60,דירה בבית קומות,4.0,שלישית,87.5,700000,,,1980.0,,3.0,10276947990,1,193463,False,71% ב 6.5 שנים,אשקלון,בן אליעזר אריה,10.92,1934-63-60,1934/63,8000.0,31.6851135384,34.5755710665,2014
2014-10-14,2014-10-14,"בני עקיבא 1, אשקלון",בני עקיבא 1,2391-20-9,דירה בבית קומות,2.0,קרקע,46.1,445000,,,1992.0,,3.0,10276830720,1,239120,False,78% ב 5.7 שנים,אשקלון,בני עקיבא,13.68,2391-20-9,2391/20,9652.9284164859,31.6587701745,34.5694613242,2014
2014-10-12,2014-12-10,"קדש 21, אשקלון",קדש 21,2556-2-31,דירה בבית קומות,5.0,שמינית,117.32,1310000,,,2010.0,,9.0,10280745090,1,25562,False,33% ב 2.6 שנים,אשקלון,קדש,12.69,2556-2-31,2556/2,11166.041595635868,31.6902651735,34.5785226356,2014
2014-10-12,2014-12-10,"שפינוזה 13, אשקלון",שפינוזה 13,1963-63-4,דירה בבית קומות,4.5,ראשונה,73.85,650000,,,1970.0,,3.0,10280879640,1,196363,False,10% ב 4.5 שנים,אשקלון,שפינוזה,2.22,1963-63-4,1963/63,8801.624915368991,31.6610045537,34.5669798718,2014
2014-10-12,2014-12-10,"הסוכנות היהודית 6, אשקלון",הסוכנות היהודית 6,2391-83-10,דירה בבית קומות,4.0,שלישית,84.85,780000,,,1992.0,,8.0,10280886930,1,239183,False,20% ב 3.8 שנים,אשקלון,הסוכנות היהודית,5.26,2391-83-10,2391/83,9192.692987625222,31.6571113724,34.5701554579,2014
2014-10-12,2014-12-10,"גדוד הפורצים 5, אשקלון",גדוד הפורצים 5,1998-19-15,דירה בבית קומות,3.0,רביעית,58.5,370000,,,1970.0,,4.0,10350846810,1,199819,False,43% ב 5.4 שנים,אשקלון,גדוד הפורצים,7.96,1998-19-15,1998/19,6324.786324786325,31.6537050468,34.5560207548,2014
2014-10-12,2014-12-10,"יוספטל 19, אשקלון",יוספטל 19,1997-76-1,דירה בבית קומות,4.0,ראשונה,69.7,520000,,,1971.0,,3.0,10354840110,1,199776,False,30% ב 2.4 שנים,אשקלון,יוספטל,12.5,1997-76-1,1997/76,7460.5451936872305,31.6514812634,34.5589397986,2014
2014-10-12,2014-12-10,"הבוסתן 7, אשקלון",הבוסתן 7,2753-145-74,דירה בבית קומות,5.0,שמינית,133.2,1168000,,,2010.0,,11.0,10280651490,1,2753145,False,,אשקלון,הבוסתן,,2753-145-74,2753/145,8768.76876876877,31.6911827399,34.5780591139,2014
2014-10-12,2014-12-10,"תנובת השדה 3, אשקלון",תנובת השדה 3,2753-147-104,דירה בבית קומות,5.0,ראשונה,126.0,1137000,,,2013.0,,11.0,10280649420,1,2753147,False,,אשקלון,תנובת השדה,,2753-147-104,2753/147,9023.809523809525,31.6913392392,34.5789345239,2014
2014-10-12,2014-12-10,"היין 3, אשקלון",היין 3,2753-135-47,דירה,5.0,שמינית,136.7,1400000,1.0,כוכב על הים,2014.0,,9.0,10280203920,1,2753135,False,,אשקלון,היין,,2753-135-47,2753/135,10241.404535479152,31.693949299,34.5784899632,2014
2014-10-12,2014-12-10,"י""ל פרץ 10, אשקלון","י""ל פרץ 10",1964-49-5,דירה בבית קומות,3.0,שניה,40.7,430000,,,1960.0,,3.0,10280837970,1,196449,False,62% ב 15.4 שנים,אשקלון,"י""ל פרץ",4.03,1964-49-5,1964/49,10565.110565110564,31.6563566491,34.5623558324,2014
2014-10-12,2014-12-10,"בלפור 27, אשקלון",בלפור 27,2556-3-46,דירה בבית קומות,5.0,שניה,133.71,1300000,,,2011.0,,9.0,10280713230,1,25563,False,25% ב 2.3 שנים,אשקלון,בלפור,10.87,2556-3-46,2556/3,9722.533841896642,31.690489637,34.5777323705,2014
2014-10-12,2014-12-10,"השייטת 2, אשקלון",השייטת 2,1941-111-36,דירה בבית קומות,6.0,תשיעית,147.26,2075000,,,2010.0,,10.0,10280396160,1,1941111,False,,אשקלון,השייטת,,1941-111-36,1941/111,14090.723889718864,31.6751537579,34.5595724786,2014
2014-10-12,2014-12-10,"יונתן נתניהו 14, אשקלון",יונתן נתניהו 14,2557-47-69,דירה בבית קומות,4.0,רביעית,107.25,1030000,,,2013.0,,14.0,10351604160,1,255747,False,,אשקלון,נתניהו יונתן,,2557-47-69,2557/47,9603.729603729604,31.689138359,34.5797084707,2014
2014-10-12,2014-12-10,"נווה שלום 8, אשקלון",נווה שלום 8,1296-13-33,דירה בבית קומות,3.5,רביעית,75.45,720000,,,1990.0,,6.0,10280662740,1,129613,False,8% ב 3 שנים,אשקלון,נווה שלום,2.67,1296-13-33,1296/13,9542.743538767396,31.6624648909,34.5763778817,2014
2014-10-12,2014-12-10,"נחליאלי 13, אשקלון",נחליאלי 13,1282-49-1,קוטג' דו משפחתי,5.0,קרקע וראשונה,156.6,1645000,,,1988.0,,,10280883240,1,128249,False,,אשקלון,נחליאלי,,1282-49-1,1282/49,10504.46998722861,31.6650672264,34.578395228,2014
2014-10-11,2014-11-10,"איילה 7, אשקלון",איילה 7,1296-42-8,דירה בבית קומות,3.0,שניה,75.0,680000,,,1992.0,,8.0,10279838610,1,129642,False,,אשקלון,איילה,,1296-42-8,1296/42,9066.666666666666,31.6624106315,34.5794228872,2014
2014-10-11,2014-11-10,"שילה 1, אשקלון",שילה 1,2869-8-15,דירה בבית קומות,3.0,חמישית,72.0,730000,,,2000.0,,13.0,10279052190,1,28698,False,,אשקלון,שילה,,2869-8-15,2869/8,10138.888888888889,31.6698945024,34.5563490531,2014
2014-10-11,2014-11-10,"צפניה 268, אשקלון",צפניה 268,1932-60-8,דירה בבית קומות,4.0,רביעית,76.8,435000,,,1960.0,,4.0,10278652590,1,193260,False,8% ב 5 שנים,אשקלון,צפניה,1.6,1932-60-8,1932/60,5664.0625,31.6736850165,34.5710256469,2014
2014-10-11,2014-11-10,"תמוז 5, אשקלון",תמוז 5,1239-96-16,דירה בבית קומות,4.0,ראשונה,78.7,825000,,,1999.0,,5.0,10278908910,1,123996,False,71% ב 5.3 שנים,אשקלון,תמוז,13.4,1239-96-16,1239/96,10482.84625158831,31.6711991218,34.5774780963,2014
2014-10-11,2014-11-10,"יוספטל 25, אשקלון",יוספטל 25,1997-103-25,דירה בבית קומות,4.0,ראשונה,78.6,550000,,,1970.0,,4.0,10279908990,1,1997103,False,22% ב 4 שנים,אשקלון,יוספטל,5.5,1997-103-25,1997/103,6997.455470737914,31.6506073075,34.5570070426,2014
2014-10-11,2014-11-10,"העצמאות 56, אשקלון",העצמאות 56,2872-97-1,קוטג' חד משפחתי,6.0,,180.0,2000000,,,1969.0,,1.0,10279966410,1,287297,False,,אשקלון,העצמאות,,2872-97-1,2872/97,11111.111111111111,31.6775371073,34.5740986539,2014
2014-10-10,2014-10-10,"גילה 1, אשקלון",גילה 1,1966-408-19,קוטג' דו משפחתי,5.0,,242.0,2100000,,,2014.0,,1.0,10277554500,1,1966408,False,,אשקלון,גילה,,1966-408-19,1966/408,8677.685950413223,31.6992029232,34.5795052785,2014
2014-10-10,2014-10-10,"הבוסתן 17, אשקלון",הבוסתן 17,2753-141-27,דירה בבית קומות,4.0,ראשונה,95.5,1035000,,,2007.0,,8.0,10277622990,1,2753141,False,,אשקלון,הבוסתן,,2753-141-27,2753/141,10837.696335078534,31.6931105272,34.5776908714,2014
2014-10-09,2014-09-10,"ביאליק 8, אשקלון",ביאליק 8,1963-88-7,דירה בבית קומות,3.0,שניה,40.7,425000,,,1970.0,,3.0,10274839380,1,196388,False,136% ב 10.5 שנים,אשקלון,ביאליק,12.95,1963-88-7,1963/88,10442.260442260442,31.6613747974,34.5694159076,2014
2014-10-09,2014-09-10,"גדעון בן-יואש 9, אשקלון",גדעון בן-יואש 9,1937-360-1,קוטג' חד משפחתי,6.0,קרקע+ראשונה,193.6,2047000,,,1980.0,,,10275650190,1,1937360,False,,אשקלון,גדעון בן יואש,,1937-360-1,1937/360,10573.347107438018,31.685947735,34.5694781533,2014
2014-10-09,2014-09-10,"סיני 2, אשקלון",סיני 2,2508-24-42,דירה בבית קומות,4.0,שישית,79.8,842000,,,2000.0,,7.0,10274826780,1,250824,False,68% ב 5.5 שנים,אשקלון,סיני,12.36,2508-24-42,2508/24,10551.378446115288,31.6679558914,34.5776465155,2014
2014-10-09,2014-09-10,"דובב 13, אשקלון",דובב 13,3049-22-19,דירה בבית קומות,4.0,שלישית,85.2,750000,,,1995.0,,4.0,10274661900,1,304922,False,88% ב 13.1 שנים,אשקלון,דובב,6.72,3049-22-19,3049/22,8802.81690140845,31.6781889145,34.5809015803,2014
2014-10-09,2014-09-10,"ביכורי ענבים 41, אשקלון",ביכורי ענבים 41,2754-159-27,דירה בבית קומות,4.0,שמינית,88.3,950000,,,2005.0,,10.0,10274752620,1,2754159,False,72% ב 6.5 שנים,אשקלון,ביכורי ענבים,11.08,2754-159-27,2754/159,10758.776896942243,31.6895704662,34.5831659222,2014
2014-10-08,2014-08-10,"אברהם בלסבלג 2, אשקלון",אברהם בלסבלג 2,2556-20-14,דירה בבית קומות,5.0,רביעית,117.0,1195000,,,2013.0,,15.0,10273296510,1,255620,False,,אשקלון,בלסבלג אברהם,,2556-20-14,2556/20,10213.675213675211,31.6879534516,34.5768535402,2014
2014-10-08,2014-08-10,"יורם ורון 5, אשקלון",יורם ורון 5,1942-181-24,דירה בבית קומות,5.0,קומה ‎6‏,139.0,1250000,,,2015.0,,15.0,10273823640,1,1942181,False,,אשקלון,ורון יורם,,1942-181-24,1942/181,8992.805755395684,31.6686439396,34.5696356265,2014
2014-10-08,2014-08-10,"ענבר 10, אשקלון",ענבר 10,1937-369-8,דירה בבית קומות,4.0,ראשונה,85.0,900000,,,2009.0,,4.0,10273179780,1,1937369,False,32% ב 5 שנים,אשקלון,ענבר,6.4,1937-369-8,1937/369,10588.235294117649,31.6922914359,34.5704307125,2014
2014-10-08,2014-08-10,"אשכולי פז 40, אשקלון",אשכולי פז 40,1958-166-2,קוטג' דו משפחתי,6.0,קרקע,161.5,2400000,,,1994.0,,2.0,10274633730,1,1958166,False,,אשקלון,אשכולי פז,,1958-166-2,1958/166,14860.681114551084,31.6717504786,34.5589159109,2014
2014-10-08,2014-08-10,"התפוז 3, אשקלון",התפוז 3,1958-190-12,קוטג' דו משפחתי,5.0,קרקע וראשונה,147.0,1690000,,,1994.0,,2.0,10273190940,1,1958190,False,88% ב 12.4 שנים,אשקלון,התפוז,7.1,1958-190-12,1958/190,11496.598639455782,31.6726702782,34.5575136443,2014
2014-10-08,2014-08-10,"ש""י עגנון 21, אשקלון","ש""י עגנון 21",1944-203-2,דירה בבית קומות,3.0,קרקע,63.5,780000,,,1995.0,,9.0,10274255010,1,1944203,False,,אשקלון,"עגנון ש""י",,1944-203-2,1944/203,12283.464566929131,31.6589316864,34.5565212091,2014
2014-10-07,2014-07-10,,,1225-6-226,דירה בבית קומות,4.0,שביעית,113.0,1020000,,,2014.0,,,10271353230,2,12256,False,,אשקלון,לוחמי הגטאות,,1225-6-226,1225/6,9026.548672566372,,,2014
2014-10-07,2014-07-10,"שילה 2, אשקלון",שילה 2,2869-54-151,דירה בבית קומות,4.0,שמונה עשרה,93.4,1082000,,,2011.0,,20.0,10273127130,1,286954,False,,אשקלון,שילה,,2869-54-151,2869/54,11584.582441113487,31.6692019396,34.5566279356,2014
2014-10-07,2014-07-10,"תמוז 7, אשקלון",תמוז 7,1239-95-5,דירה בבית קומות,4.0,שניה,78.7,790000,,,1999.0,,5.0,10271185380,1,123995,False,92% ב 6.5 שנים,אשקלון,תמוז,14.15,1239-95-5,1239/95,10038.119440914868,31.6716455216,34.5777147356,2014
2014-10-07,2014-07-10,"מבצע משה 26, אשקלון",מבצע משה 26,3046-32-2,דירה בבית קומות,3.0,,65.0,740000,,,1990.0,,1.0,10271376180,1,304632,False,,אשקלון,מבצע משה,,3046-32-2,3046/32,11384.615384615385,31.6774106907,34.5874041041,2014
2014-10-07,2014-07-10,"עתניאל 6, אשקלון",עתניאל 6,1937-253-2,קוטג' דו משפחתי,5.0,מרתף+קרקע,192.4,1890000,,,1982.0,,2.0,10271709630,1,1937253,False,,אשקלון,עתניאל,,1937-253-2,1937/253,9823.284823284825,31.6850783752,34.5703167625,2014
2014-10-07,2014-07-10,"תנובת השדה 3, אשקלון",תנובת השדה 3,2753-145-34,דירה בבית קומות,5.0,תשיעית,138.9,1282000,,,2010.0,,11.0,10271838150,1,2753145,False,,אשקלון,הבוסתן,,2753-145-34,2753/145,9229.661627069834,31.6911827399,34.5780591139,2014
2014-10-06,2014-06-10,"יורם ורון 4, אשקלון",יורם ורון 4,1942-183-117,דירה בבית קומות,5.0,תשיעית,157.0,1450000,,,2008.0,,10.0,10272017070,1,1942183,False,,אשקלון,ורון יורם,,1942-183-117,1942/183,9235.668789808917,31.6680529916,34.5697984785,2014
2014-10-06,2014-06-10,"איילה 9, אשקלון",איילה 9,1296-19-21,דירה בבית קומות,4.0,שלישית,112.0,730000,,,1990.0,,4.0,10270387890,1,129619,False,,אשקלון,איילה,,1296-19-21,1296/19,6517.857142857143,31.662161115,34.578657536,2014
2014-10-06,2014-06-10,"אליעזר מילרוד 10, אשקלון",אליעזר מילרוד 10,1997-24-9,דירה בבית קומות,3.0,שניה,39.3,400000,,,1970.0,,4.0,10271239740,1,199724,False,11% ב 3.2 שנים,אשקלון,מילרוד אליעזר,3.44,1997-24-9,1997/24,10178.117048346056,31.6515544837,34.5612657073,2014
2014-10-06,2014-06-10,"השבטים 12, אשקלון",השבטים 12,1657-7-2,בית בודד,6.0,קרקע וראשונה,140.0,1500000,,,1900.0,,2.0,10270358100,1,16577,False,,אשקלון,השבטים,,1657-7-2,1657/7,10714.285714285714,31.6529453612,34.5849268217,2014
2014-10-06,2014-06-10,"יפתח הגלעדי 71, אשקלון",יפתח הגלעדי 71,1937-289-1,קוטג' דו משפחתי,5.0,,220.0,2050000,,,1989.0,,1.0,10270367910,1,1937289,False,,אשקלון,יפתח הגלעדי,,1937-289-1,1937/289,9318.181818181818,31.6898316637,34.5729881105,2014
2014-10-06,2014-06-10,"מונטיפיורי 22, אשקלון",מונטיפיורי 22,2878-4-5,דירה בבית קומות,3.0,שניה,59.5,300000,,,1970.0,,4.0,10270756260,1,28784,False,,אשקלון,מונטיפיורי,,2878-4-5,2878/4,5042.016806722689,31.6808730612,34.5772639647,2014
2014-10-04,2014-04-10,"שילה 2, אשקלון",שילה 2,2869-54-73,דירה בבית קומות,4.0,שמונה עשרה,93.4,1089000,,,2011.0,,20.0,10267813080,1,286954,False,,אשקלון,שילה,,2869-54-73,2869/54,11659.528907922911,31.6692019396,34.5566279356,2014
2014-10-04,2014-04-10,"התעשייה 3, אשקלון",התעשייה 3,1214-132-33,משרד,,קומה ‎2‏,56.9,530000,,,2015.0,,7.0,10267838190,1,1214132,False,,אשקלון,התעשיה,,1214-132-33,1214/132,9314.586994727591,31.6617566891,34.5945777249,2014
2014-10-04,2014-04-10,"התעשייה 3, אשקלון",התעשייה 3,1214-132-32,משרד,,קומה ‎2‏,38.0,384000,,,2015.0,,7.0,10267837470,1,1214132,False,,אשקלון,התעשיה,,1214-132-32,1214/132,10105.263157894737,31.6617566891,34.5945777249,2014
2014-10-04,2014-04-10,"הגבורה 3, אשקלון",הגבורה 3,1931-152-16,דירה בבית קומות,4.0,רביעית,103.26,740000,,,1990.0,,9.0,10267639380,1,1931152,False,,אשקלון,הגבורה,,1931-152-16,1931/152,7166.376137904319,31.6654255496,34.5638926467,2014
2014-10-04,2014-04-10,"אריה 18, אשקלון",אריה 18,1296-43-19,דירה בבית קומות,4.0,ראשונה,96.35,820000,,,1992.0,,5.0,10266828480,1,129643,False,41% ב 4.9 שנים,אשקלון,אריה,8.37,1296-43-19,1296/43,8510.638297872341,31.6635188148,34.5784189093,2014
2014-10-03,2014-03-10,"גמלא 10, אשקלון",גמלא 10,2507-17-8,קוטג' דו משפחתי,5.0,קרקע ראשונה ושניה,177.4,1760000,,,1996.0,,,10264723470,1,250717,False,92% ב 16.1 שנים,אשקלון,גמלא,5.71,2507-17-8,2507/17,9921.08229988726,31.6647522885,34.5768217174,2014
2014-10-03,2014-03-10,"בן-גוריון 273, אשקלון",בן-גוריון 273,1963-78-8,דירה בבית קומות,4.0,רביעית,81.6,530000,,,1970.0,,4.0,10265364270,1,196378,False,63% ב 4 שנים,אשקלון,בן גוריון,15.75,1963-78-8,1963/78,6495.098039215687,31.6628063362,34.5674341892,2014
2014-10-03,2014-03-10,"בית""ר 3, אשקלון","בית""ר 3",2390-15-23,דירה בבית קומות,4.0,שישית,81.6,680000,,,1993.0,,9.0,10264832010,1,239015,False,83% ב 9.9 שנים,אשקלון,"בית""ר",8.38,2390-15-23,2390/15,8333.333333333334,31.6611604761,34.5701813113,2014
2014-10-03,2014-03-10,"הרב יעקב בן-חמו 1, אשקלון",הרב יעקב בן-חמו 1,1966-25-11,קוטג' חד משפחתי,6.0,,180.0,2100000,,,2012.0,,1.0,10266477300,1,196625,False,,אשקלון,הרב בן חמו יעקב,,1966-25-11,1966/25,11666.666666666666,31.6967727831,34.5824383729,2014
2014-10-03,2014-03-10,"בגין מנחם 19, אשקלון",בגין מנחם 19,3051-86-16,דירה בבית קומות,4.0,שניה,75.82,675000,,,1994.0,,4.0,10264770180,1,305186,False,,אשקלון,בגין מנחם,,3051-86-16,3051/86,8902.664204695331,31.6741679096,34.5824195174,2014
2014-10-02,2014-02-10,"יהודה הלוי 17, אשקלון",יהודה הלוי 17,1964-71-6,דירה בבית קומות,2.0,שניה,31.7,397000,,,1960.0,,4.0,10263845880,1,196471,False,,אשקלון,יהודה הלוי,,1964-71-6,1964/71,12523.659305993691,31.6576726667,34.5609707714,2014
2014-10-02,2014-02-10,"היין 21, אשקלון",היין 21,2754-31-51,דירה בבית קומות,4.0,חמישית,111.8,1130000,,,2010.0,,9.0,10264276530,1,275431,False,2% ב 1 שנים,אשקלון,היין,2.0,2754-31-51,2754/31,10107.334525939175,31.694530764,34.5820562176,2014
2014-10-02,2014-02-10,"שילה 2, אשקלון",שילה 2,2869-54-63,דירה בבית קומות,4.0,חמש עשרה,109.4,1150000,,,2011.0,,20.0,10264705650,1,286954,False,,אשקלון,שילה,,2869-54-63,2869/54,10511.882998171846,31.6692019396,34.5566279356,2014
2014-10-02,2014-02-10,"מונטיפיורי 18, אשקלון",מונטיפיורי 18,2878-4-47,דירה בבית קומות,3.0,רביעית,59.5,510000,,,1970.0,,4.0,10262990520,1,28784,False,24% ב 1.3 שנים,אשקלון,מונטיפיורי,18.46,2878-4-47,2878/4,8571.42857142857,31.6808730612,34.5772639647,2014
2014-10-02,2014-02-10,"הבוסתן 1, אשקלון",הבוסתן 1,2753-146-55,דירה,5.0,תשיעית,116.0,1600000,1.0,נאות יצחק שלב ב',,,11.0,11181207769,1,2753146,False,,אשקלון,הבוסתן,,2753-146-55,2753/146,13793.103448275862,31.690975625,34.578785687,2014
2014-10-01,2014-01-10,"אייר 12, אשקלון",אייר 12,1353-25-10,דירת גן,4.0,קרקע,82.7,900000,,,1993.0,,3.0,10261760130,1,135325,False,,אשקלון,אייר,,1353-25-10,1353/25,10882.708585247883,31.67182313,34.5810890074,2014
2014-10-01,2014-01-10,"אריה 10, אשקלון",אריה 10,1296-9-13,דירה בבית קומות,3.0,רביעית,63.4,682000,,,1990.0,,8.0,10261840410,1,12969,False,10% ב 1 שנים,אשקלון,אריה,10.0,1296-9-13,1296/9,10757.097791798107,31.6634124972,34.5764498925,2014
2014-09-30,2014-09-30,"יצחק בן-צבי 63, אשקלון",יצחק בן-צבי 63,1932-90-10,דירה בבית קומות,4.0,ראשונה,99.66,775000,,,1982.0,,2.0,10276200990,1,193290,False,69% ב 6.8 שנים,אשקלון,בן צבי יצחק,10.15,1932-90-10,1932/90,7776.439895645194,31.6738638506,34.57149482,2014
2014-09-30,2014-09-30,"היין 6, אשקלון",היין 6,2753-139-16,דירה בבית קומות,4.0,רביעית,104.0,1020000,,,2009.0,,9.0,10276993440,1,2753139,False,50% ב 5.3 שנים,אשקלון,היין,9.43,2753-139-16,2753/139,9807.692307692309,31.6930961658,34.5790848334,2014
2014-09-30,2014-09-30,"ברייר דב 1, אשקלון",ברייר דב 1,1942-177-183,דירה בבית קומות,4.0,ראשונה,99.0,977000,,,2000.0,,9.0,10276158060,1,1942177,False,,אשקלון,ברייר דב,,1942-177-183,1942/177,9868.68686868687,31.6694499419,34.5675342214,2014
2014-09-30,2014-09-30,"ירמיהו 20, אשקלון",ירמיהו 20,1653-27-2,קוטג' טורי,3.5,קרקע,81.0,720000,,,1952.0,,1.0,10276045920,1,165327,False,,אשקלון,ירמיהו,,1653-27-2,1653/27,8888.888888888889,31.660330016,34.5819122907,2014
2014-09-29,2014-09-29,"אצ""ל 49, אשקלון","אצ""ל 49",2556-13-50,דירה בבית קומות,4.0,רביעית,94.9,920000,,,1998.0,,9.0,10276058610,1,255613,False,,אשקלון,"אצ""ל",,2556-13-50,2556/13,9694.415173867228,31.6858987233,34.5779397187,2014
2014-09-29,2014-09-29,"סיוון 2, אשקלון",סיוון 2,1353-19-9,דירה בבית קומות,3.0,קרקע,67.9,760000,,,1993.0,,3.0,10275932970,1,135319,False,,אשקלון,סיון,,1353-19-9,1353/19,11192.930780559644,31.6706066299,34.5821810088,2014
2014-09-29,2014-09-29,"קרן היסוד 18, אשקלון",קרן היסוד 18,2391-66-11,דירה בבית קומות,4.0,ראשונה,83.65,710000,,,1995.0,,2.0,10277206380,1,239166,False,,אשקלון,קרן היסוד,,2391-66-11,2391/66,8487.74656306037,31.6578349422,34.5696884067,2014
2014-09-29,2014-09-29,"מנחם בגין 23, אשקלון",מנחם בגין 23,3051-85-6,דירה בבית קומות,3.0,שניה,67.2,605000,,,1993.0,,2.0,10276108290,1,305185,False,,אשקלון,בגין מנחם,,3051-85-6,3051/85,9002.97619047619,31.6740747181,34.5830577208,2014
2014-09-29,2014-09-29,"אברהם בלסבלג 2, אשקלון",אברהם בלסבלג 2,2556-20-13,דירה בבית קומות,4.0,רביעית,98.8,1070000,,,2013.0,,15.0,10276716510,1,255620,False,,אשקלון,בלסבלג אברהם,,2556-20-13,2556/20,10829.95951417004,31.6879534516,34.5768535402,2014
2014-09-29,2014-09-29,"התקווה 6, אשקלון",התקווה 6,2843-34-17,קוטג' דו משפחתי,5.0,קרקע ראשונה ושניה,132.1,900000,,,1998.0,,2.0,10276449930,1,284334,False,,אשקלון,התקווה,,2843-34-17,2843/34,6813.020439061317,31.6476584236,34.5557259635,2014
2014-09-29,2014-09-29,"יוספטל 22, אשקלון",יוספטל 22,1997-71-21,דירה בבית קומות,3.0,שלישית,42.0,390000,,,1970.0,,4.0,10277236170,1,199771,False,8% ב 2 שנים,אשקלון,יוספטל,4.0,1997-71-21,1997/71,9285.714285714286,31.6514380694,34.5577444957,2014
2014-09-29,2014-09-29,"יעקב מרידור 11, אשקלון",יעקב מרידור 11,2904-81-37,דירה בבית קומות,4.0,קומה ‎3‏,103.4,1024000,,,2015.0,,10.0,10277013420,1,290481,False,,אשקלון,מרידור יעקב,,2904-81-37,2904/81,9903.288201160542,31.680192209,34.5780865821,2014
2014-09-28,2014-09-28,"עולי הגרדום 13, אשקלון",עולי הגרדום 13,2843-10-55,דירה בבית קומות,3.0,שניה,62.3,620000,,,2000.0,,4.0,10276688880,1,284310,False,71% ב 14.9 שנים,אשקלון,עולי הגרדום,4.77,2843-10-55,2843/10,9951.845906902086,31.6497553786,34.5547955194,2014
2014-09-28,2014-09-28,"אשתאול 1, אשקלון",אשתאול 1,2869-28-297,דירה בבית קומות,4.0,עשירית,109.0,878000,,,2000.0,,20.0,10277388360,1,286928,False,,אשקלון,אשתאול,,2869-28-297,2869/28,8055.045871559633,31.667375096,34.5578269375,2014
2014-09-28,2014-09-28,"מודיעין 5, אשקלון",מודיעין 5,1940-68-252,דירה בבית קומות,4.0,שניה,105.0,1120000,,,2021.0,,16.0,10277213130,1,194068,False,,אשקלון,מודיעין,,1940-68-252,1940/68,10666.666666666666,31.6775411974,34.5579888036,2014
2014-09-27,2014-09-27,"מודיעין 5, אשקלון",מודיעין 5,1940-68-32,עסק,4.0,שניה,105.0,1120000,1.0,גני אפגד,2021.0,,16.0,11181201473,1,194068,False,,אשקלון,מודיעין,,1940-68-32,1940/68,10666.666666666666,31.6775411974,34.5579888036,2014
2014-09-23,2014-09-23,"יוספטל 5, אשקלון",יוספטל 5,1965-21-25,דירה בבית קומות,3.0,רביעית,50.1,340000,,,1970.0,,4.0,10276962210,1,196521,False,15% ב 4.3 שנים,אשקלון,יוספטל,3.49,1965-21-25,1965/21,6786.427145708582,31.6544460247,34.5626768598,2014
2014-09-23,2014-09-23,"מגידו 4, אשקלון",מגידו 4,2507-13-77,דירה בבית קומות,3.0,רביעית,80.65,800000,,,2000.0,,9.0,10277409240,1,250713,False,83% ב 6.1 שנים,אשקלון,מגידו,13.61,2507-13-77,2507/13,9919.404835709856,31.6667840487,34.5754035197,2014
2014-09-23,2014-09-23,"השומר הצעיר 9, אשקלון",השומר הצעיר 9,2391-80-10,דירה בבית קומות,3.0,שלישית,77.3,700000,,,1993.0,,6.0,10276693290,1,239180,False,107% ב 7 שנים,אשקלון,השומר הצעיר,15.29,2391-80-10,2391/80,9055.62742561449,31.657077099,34.5712208978,2014
2014-09-23,2014-09-23,"אקסודוס 5, אשקלון",אקסודוס 5,3050-45-52,דירה בבית קומות,4.0,ראשונה,81.68,865000,,,2000.0,,6.0,10275342030,1,305045,False,55% ב 5.4 שנים,אשקלון,אקסודוס,10.19,3050-45-52,3050/45,10590.107737512242,31.6742977729,34.5843208227,2014
2014-09-23,2014-09-23,"מנחם בגין 34, אשקלון",מנחם בגין 34,1201-86-8,דירה בבית קומות,3.0,שלישית,77.0,600000,,,1990.0,,2.0,10276292430,1,120186,False,,אשקלון,בגין מנחם,,1201-86-8,1201/86,7792.207792207792,31.6735469547,34.5873658045,2014
2014-09-23,2014-09-23,"צפניה 267, אשקלון",צפניה 267,1932-59-28,דירה בבית קומות,3.0,שלישית,52.6,600000,,,1960.0,,5.0,10277404020,1,193259,False,95% ב 11.5 שנים,אשקלון,צפניה,8.26,1932-59-28,1932/59,11406.844106463876,31.6742150996,34.570856251,2014
2014-09-22,2014-09-22,"יעקב מרידור 1, אשקלון",יעקב מרידור 1,2904-36-42,דירה בבית קומות,5.0,שניה,122.7,1050000,,,2013.0,,9.0,10276150500,1,290436,False,,אשקלון,מרידור יעקב,,2904-36-42,2904/36,8557.457212713936,31.6787703751,34.5790713772,2014
2014-09-22,2014-09-22,"אפרסמון 1, אשקלון",אפרסמון 1,1958-201-1,דירת גן,5.0,"קרקע,ראשונה",158.0,1540000,,,1990.0,,,10275897510,1,1958201,False,,אשקלון,אפרסמון,,1958-201-1,1958/201,9746.835443037977,31.67282001,34.5571917616,2014
2014-09-22,2014-09-22,"תנובת השדה 3, אשקלון",תנובת השדה 3,2753-147-111,דירה בבית קומות,5.0,ראשונה,131.0,1426000,,,2013.0,,11.0,10275359850,1,2753147,False,,אשקלון,תנובת השדה,,2753-147-111,2753/147,10885.496183206107,31.6913392392,34.5789345239,2014
2014-09-21,2014-09-21,"הסנה 28, אשקלון",הסנה 28,1942-134-32,דירה בבית קומות,3.0,שניה,79.6,620000,,,1980.0,,9.0,10276161750,1,1942134,False,8% ב 2.3 שנים,אשקלון,הסנה,3.48,1942-134-32,1942/134,7788.944723618091,31.6675066528,34.5639403714,2014
2014-09-21,2014-09-21,"תנובת השדה 3, אשקלון",תנובת השדה 3,2753-147-68,דירה,5.0,שניה,126.0,1426000,1.0,נאות יצחק שלב ג',,,11.0,11181207841,1,2753147,False,,אשקלון,תנובת השדה,,2753-147-68,2753/147,11317.460317460318,31.6913392392,34.5789345239,2014
2014-09-21,2014-09-21,"ניצנים 4, אשקלון",ניצנים 4,3020-10-15,דירה בבית קומות,3.0,רביעית,61.0,410000,,,1970.0,,4.0,10276888590,1,302010,False,,אשקלון,ניצנים,,3020-10-15,3020/10,6721.311475409836,31.6552658178,34.5549980525,2014
2014-09-21,2014-09-21,"תנובת השדה 3, אשקלון",תנובת השדה 3,2753-147-67,דירה,4.0,חמישית,126.0,1175000,1.0,נאות יצחק שלב ג',,,11.0,11181207840,1,2753147,False,,אשקלון,תנובת השדה,,2753-147-67,2753/147,9325.396825396823,31.6913392392,34.5789345239,2014
