DEALDATE,DEALDATETIME,FULLADRESS,DISPLAYADRESS,GUSH,DEALNATUREDESCRIPTION,ASSETROOMNUM,FLOORNO,DEALNATURE,DEALAMOUNT,NEWPROJECTTEXT,PROJECTNAME,BUILDINGYEAR,YEARBUILT,BUILDINGFLOORS,KEYVALUE,TYPE,POLYGON_ID,TREND_IS_NEGATIVE,TREND_FORMAT,city_name,street,presentage per year,GUSH - Copy,Gush_Helka,Price per sqm,lat,lon,Year
2021-12-31,2021-12-31,"פרופס 5, רמת גן",פרופס 5,6182-526-22,דירה בבית קומות,4.0,שישית,101.7,1800000,,,1985.0,,9.0,3538485576,1,6182526,False,,רמת גן,פרופס,,6182-526-22,6182/526,17699.11504424779,32.0670477219,34.8297029612,2021
2021-12-31,2021-12-31,"תלפיות 23, רמת גן",תלפיות 23,6205-606-9,דירה בבית קומות,3.0,רביעית,70.0,1200000,1.0,תלפיות 23,1960.0,2019.0,3.0,3539384199,1,6205606,False,,רמת גן,תלפיות,,6205-606-9,6205/606,17142.85714285714,32.0872268028,34.8098630479,2021
2021-12-30,2021-12-30,"הרא""ה 67, רמת גן","הרא""ה 67",6159-362-7,דירה בבית קומות,2.0,שניה,50.0,1845000,,,1960.0,,3.0,3524000830,1,6159362,False,47% ב 6.3 שנים,רמת גן,"הרא""ה",7.46,6159-362-7,6159/362,36900.0,32.0836252955,34.8240528945,2021
2021-12-30,2021-12-30,,,6142-89-18,דירה בבית קומות,3.0,שניה,77.0,2581000,,,2024.0,,,3539344962,2,614289,False,,רמת גן,הטייסים,,6142-89-18,6142/89,33519.48051948052,32.0522614976,34.8136094452,2021
2021-12-30,2021-12-30,"תובל 21, רמת גן",תובל 21,6109-347-289,משרד,,עשרים ותשע,185.0,3059000,,,1988.0,,29.0,3539053280,1,6109347,False,,רמת גן,תובל,,6109-347-289,6109/347,16535.135135135137,32.0838519184,34.8021240457,2021
2021-12-30,2021-12-30,"תובל 21, רמת גן",תובל 21,6109-347-290,משרד,,עשרים ותשע,191.0,3084000,,,1988.0,,29.0,3539067461,1,6109347,False,,רמת גן,תובל,,6109-347-290,6109/347,16146.596858638744,32.0838519184,34.8021240457,2021
2021-12-30,2021-12-30,"נחמיה תמרי 13, רמת גן",נחמיה תמרי 13,6158-1634-10,דירה בבית קומות,3.0,קומה ‎3‏,67.6,2140000,,,2018.0,,9.0,3538789902,1,61581634,False,,רמת גן,תמרי נחמיה,,6158-1634-10,6158/1634,31656.80473372781,32.0765070554,34.8265158612,2021
2021-12-30,2021-12-30,"תרצה 4, רמת גן",תרצה 4,6186-267-15,דירה בבית קומות,4.0,שישית,82.0,2270000,,,2019.0,,6.0,3539617243,1,6186267,False,,רמת גן,תרצה,,6186-267-15,6186/267,27682.926829268294,32.0753968303,34.8288533253,2021
2021-12-30,2021-12-30,"מגדים 14, רמת גן",מגדים 14,6125-668-45,דירה בבית קומות,3.0,רביעית,70.6,2080000,,,1960.0,,8.0,3538335066,1,6125668,False,,רמת גן,מגדים,,6125-668-45,6125/668,29461.75637393768,32.0882768714,34.8222128462,2021
2021-12-30,2021-12-30,"הביל""ויים 44, רמת גן","הביל""ויים 44",6180-438-30,דירה בבית קומות,4.0,חמישית,67.0,1840000,,,1970.0,,9.0,3538356613,1,6180438,False,,רמת גן,הבילויים,,6180-438-30,6180/438,27462.68656716418,32.0599772062,34.8255365981,2021
2021-12-30,2021-12-30,"הטייסים 3, רמת גן",הטייסים 3,6142-89-112,דירה בבית קומות,4.0,עשרים ושתיים,90.0,3354000,,,2022.0,,2.0,3538867941,1,614289,False,,רמת גן,הטייסים,,6142-89-112,6142/89,37266.66666666666,32.0522614976,34.8136094452,2021
2021-12-29,2021-12-29,"אנה פרנק 15, רמת גן",אנה פרנק 15,6207-132-14,דירה בבית קומות,4.0,שישית,97.0,3725000,,,2021.0,,7.0,3538826761,1,6207132,False,,רמת גן,אנה פרנק,,6207-132-14,6207/132,38402.0618556701,32.090566518,34.8036404099,2021
2021-12-29,2021-12-29,"הגת 23, רמת גן",הגת 23,6126-455-57,דירה בבית קומות,2.0,שלישית,50.0,1650000,,,1950.0,,3.0,3523956634,1,6126455,False,,רמת גן,הגת,,6126-455-57,6126/455,33000.0,32.0835136929,34.8210266167,2021
2021-12-29,2021-12-29,"ז'בוטינסקי 8, רמת גן",ז'בוטינסקי 8,6128-926-127,דירה בבית קומות,3.0,עשרים ושש,84.0,3700000,,,2020.0,,44.0,3539067925,1,6128926,False,,רמת גן,ז'בוטינסקי,,6128-926-127,6128/926,44047.619047619046,32.0826629807,34.8044700429,2021
2021-12-29,2021-12-29,,,6142-86-36,,4.0,עשרים ושתיים,90.0,3342625,1.0,,,,,11181263405,2,614286,False,,רמת גן,הטייסים,,6142-86-36,6142/86,37140.27777777778,32.0529191023,34.8131483936,2021
2021-12-29,2021-12-29,"סטופ 2, רמת גן",סטופ 2,6180-344-6,דירה בבית קומות,4.0,שביעית,90.0,2600000,,,1960.0,2019.0,6.0,3538796833,1,6180344,False,,רמת גן,סטופ,,6180-344-6,6180/344,28888.88888888889,32.058843852,34.8309575114,2021
2021-12-29,2021-12-29,"נחלה 6, רמת גן",נחלה 6,6182-118-1,דירה בבית קומות,3.0,ראשונה,58.0,1880000,,,1960.0,,3.0,3538197490,1,6182118,False,,רמת גן,נחלה,,6182-118-1,6182/118,32413.793103448275,32.063950039,34.8272666545,2021
2021-12-29,2021-12-29,"הרא""ה 93, רמת גן","הרא""ה 93",6159-725-11,דירה בבית קומות,4.0,שישית,85.0,2480000,1.0,,2014.0,,9.0,3538866955,1,6159725,False,,רמת גן,"הרא""ה",,6159-725-11,6159/725,29176.470588235294,32.0817939565,34.8258777548,2021
2021-12-29,2021-12-29,"ישורון 8, רמת גן",ישורון 8,6186-693-9,דירה בבית קומות,4.0,רביעית,90.0,2450000,,,2015.0,,3.0,3538012093,1,6186693,False,,רמת גן,ישורון,,6186-693-9,6186/693,27222.222222222223,32.0680107888,34.8298439579,2021
2021-12-29,2021-12-29,,,6142-86-35,,3.0,רביעית,77.0,2569750,1.0,,,,,11181263404,2,614286,False,,רמת גן,הטייסים,,6142-86-35,6142/86,33373.37662337662,32.0529191023,34.8131483936,2021
2021-12-28,2021-12-28,"עוזיאל 48, רמת גן",עוזיאל 48,6158-1291-14,דירה בבית קומות,2.0,שלישית,59.3,1500000,,,1960.0,,3.0,3538273122,1,61581291,False,,רמת גן,עוזיאל,,6158-1291-14,6158/1291,25295.10961214165,32.0755385587,34.8227798092,2021
2021-12-28,2021-12-28,"איינשטיין 21, רמת גן",איינשטיין 21,6182-456-18,דירה בבית קומות,3.0,ראשונה,83.0,2350000,,,1960.0,2019.0,5.0,3538919097,1,6182456,False,,רמת גן,אינשטיין,,6182-456-18,6182/456,28313.253012048197,32.0631870013,34.827036338,2021
2021-12-28,2021-12-28,"חירות 13, רמת גן",חירות 13,6205-466-10,דירה בבית קומות,4.0,שניה,77.0,300000,,,1960.0,2022.0,2.0,3539126998,1,6205466,False,,רמת גן,חרות,,6205-466-10,6205/466,3896.103896103896,32.0902299667,34.8118786859,2021
2021-12-28,2021-12-28,"נורית 4, רמת גן",נורית 4,6203-122-1,דירה בבית קומות,2.0,ראשונה,59.9,232000,,,1950.0,,2.0,3538794658,1,6203122,False,,רמת גן,נורית,,6203-122-1,6203/122,3873.121869782972,32.0949344963,34.8189169429,2021
2021-12-28,2021-12-28,"יהודה הנשיא 1, רמת גן",יהודה הנשיא 1,6158-1120-3,דירה בבית קומות,2.0,שניה,53.0,1500000,,,1960.0,,4.0,3538195605,1,61581120,False,,רמת גן,יהודה הנשיא,,6158-1120-3,6158/1120,28301.88679245283,32.0784386493,34.8256640787,2021
2021-12-28,2021-12-28,"ז'בוטינסקי 1, רמת גן",ז'בוטינסקי 1,6207-769-155,משרד,,עשרים ואחת,30.0,383000,,,1976.0,,23.0,3540094322,1,6207769,False,,רמת גן,ז'בוטינסקי,,6207-769-155,6207/769,12766.666666666666,32.0833649685,34.8003412005,2021
2021-12-28,2021-12-28,"ישורון 17, רמת גן",ישורון 17,6186-454-5,דירה בבית קומות,3.0,שניה,86.0,1800000,,,1970.0,,6.0,3539378225,1,6186454,False,50% ב 6.5 שנים,רמת גן,ישורון,7.69,6186-454-5,6186/454,20930.23255813953,32.0673213119,34.8302574685,2021
2021-12-28,2021-12-28,"ארנון 3, רמת גן",ארנון 3,6180-176-31,דירה בבית קומות,4.0,רביעית,87.0,2420000,,,2021.0,,7.0,3539016914,1,6180176,False,,רמת גן,ארנון,,6180-176-31,6180/176,27816.091954022988,32.0604823912,34.8288846876,2021
2021-12-28,2021-12-28,"נתן 19, רמת גן",נתן 19,6126-214-1,דירה בבית קומות,4.0,ראשונה,79.0,2479000,,,1960.0,,6.0,3538036946,1,6126214,False,,רמת גן,נתן,,6126-214-1,6126/214,31379.74683544304,32.0820642294,34.8176606412,2021
2021-12-28,2021-12-28,"רחובות הנהר 7, רמת גן",רחובות הנהר 7,6206-149-35,דירה בבית קומות,4.0,חמישית,89.0,3470000,1.0,,2017.0,,8.0,3523963565,1,6206149,False,,רמת גן,רחובות הנהר,,6206-149-35,6206/149,38988.76404494382,32.0903502405,34.8062964516,2021
2021-12-28,2021-12-28,"התפוצות 23, רמת גן",התפוצות 23,6183-418-7,דירה בבית קומות,3.0,שניה + גג,92.92,1760000,,,1970.0,,3.0,3538103733,1,6183418,False,,רמת גן,התפוצות,,6183-418-7,6183/418,18941.02453723633,32.0651913813,34.8360213897,2021
2021-12-28,2021-12-28,"המעיין 6, רמת גן",המעיין 6,6128-877-17,דירה בבית קומות,2.0,רביעית,50.0,2400000,,,1950.0,,4.0,3538418586,1,6128877,False,,רמת גן,המעיין,,6128-877-17,6128/877,48000.0,32.0820439551,34.8016375938,2021
2021-12-28,2021-12-28,,,6158-598-0,קרקע למגורים,,,500.0,6780000,,,,,,3539245695,2,6158598,False,,רמת גן,בית לחם,,6158-598-0,6158/598,13560.0,32.0737593941,34.8238783438,2021
2021-12-27,2021-12-27,"דן שומרון 3, רמת גן",דן שומרון 3,7278-80-15,דירה בבית קומות,5.0,ראשונה,158.0,4700000,,,2021.0,,3.0,3538893490,1,727880,False,,רמת גן,דן שומרון,,7278-80-15,7278/80,29746.835443037973,32.0537265403,34.8440702478,2021
2021-12-27,2021-12-27,,,7313-22-1,ללא תיכנון,,,,1750000,,,,,,3538927246,2,731322,False,,רמת גן,"רפאל איתן כפר אז""ר",,7313-22-1,7313/22,,32.048182845,34.8392159004,2021
2021-12-27,2021-12-27,"ישורון 8, רמת גן",ישורון 8,6186-693-10,דירה בבית קומות,3.0,שביעית,82.0,2375000,,,2015.0,,3.0,3523874825,1,6186693,False,,רמת גן,ישורון,,6186-693-10,6186/693,28963.414634146346,32.0680107888,34.8298439579,2021
2021-12-27,2021-12-27,"פנקס 11, רמת גן",פנקס 11,6186-99-1,קומבינציה,,,212.0,7905000,,,,,,3539187318,1,618699,False,,רמת גן,פנקס,,6186-99-1,6186/99,37287.73584905661,32.0681533291,34.8310648344,2021
2021-12-27,2021-12-27,"מצפה 2, רמת גן",מצפה 2,6128-958-92,דירה בבית קומות,4.0,שש עשרה,120.0,4300000,,,2025.0,,15.0,3523891065,1,6128958,False,,רמת גן,מצפה,,6128-958-92,6128/958,35833.333333333336,32.0819509091,34.8063846824,2021
2021-12-27,2021-12-27,,,6145-505-23,קומבינציה,,,94.0,7052000,,,,,,3539050177,2,6145505,False,,רמת גן,חד נס,,6145-505-23,6145/505,75021.27659574468,,,2021
2021-12-27,2021-12-27,"יואב 16, רמת גן",יואב 16,6206-67-16,דירה בבית קומות,4.0,שניה,96.0,3550000,,,2021.0,,7.0,3538217819,1,620667,False,,רמת גן,יואב,,6206-67-16,6206/67,36979.16666666666,32.0897997533,34.8075342901,2021
2021-12-27,2021-12-27,"שמעוני 5, רמת גן",שמעוני 5,6142-210-8,דירה בבית קומות,2.0,שניה,38.0,2000000,,,1950.0,,2.0,3538565210,1,6142210,False,,רמת גן,שמעוני,,6142-210-8,6142/210,52631.57894736842,32.051276812,34.8174196062,2021
2021-12-27,2021-12-27,"הראשונים 2, רמת גן",הראשונים 2,6128-223-1,תחנת דלק,,,432.0,34000000,,,,,,3538849439,1,6128223,False,,רמת גן,הראשונים,,6128-223-1,6128/223,78703.70370370371,32.082512769,34.8032955167,2021
2021-12-27,2021-12-27,"שרה אהרונסון 45, רמת גן",שרה אהרונסון 45,6180-421-7,דירה בבית קומות,3.0,קרקע,55.7,1970000,,,1960.0,,3.0,3523932477,1,6180421,False,53% ב 5.2 שנים,רמת גן,אהרונסון שרה,10.19,6180-421-7,6180/421,35368.04308797127,32.0610013085,34.82733777,2021
2021-12-27,2021-12-27,"איינשטיין 21, רמת גן",איינשטיין 21,6182-456-17,,4.0,,83.0,2350000,1.0,אינשטיין,1960.0,,5.0,11181266171,1,6182456,False,,רמת גן,אינשטיין,,6182-456-17,6182/456,28313.253012048197,32.0631870013,34.827036338,2021
2021-12-27,2021-12-27,"ארנון 3, רמת גן",ארנון 3,6180-176-30,,4.0,רביעית,87.0,2420000,1.0,,2021.0,,7.0,11181265754,1,6180176,False,,רמת גן,ארנון,,6180-176-30,6180/176,27816.091954022988,32.0604823912,34.8288846876,2021
2021-12-27,2021-12-27,"השחרור 4, רמת גן",השחרור 4,6157-205-4,דירה בבית קומות,4.0,שניה,86.0,2600000,,,1950.0,,1.0,3523859484,1,6157205,False,,רמת גן,השחרור,,6157-205-4,6157/205,30232.558139534885,32.0690295168,34.8176499708,2021
2021-12-26,2021-12-26,"מצפה 6, רמת גן",מצפה 6,6128-834-3,דירה בבית קומות,4.0,ראשונה,88.0,476000,,,1994.0,,6.0,3523776457,1,6128834,False,,רמת גן,מצפה,,6128-834-3,6128/834,5409.090909090909,32.0818011553,34.8071953563,2021
2021-12-26,2021-12-26,"מצפה 2, רמת גן",מצפה 2,6128-958-45,דירה בבית קומות,4.0,עשרים ושתיים,95.0,3490000,,,2025.0,,15.0,3539189899,1,6128958,False,,רמת גן,מצפה,,6128-958-45,6128/958,36736.84210526316,32.0819509091,34.8063846824,2021
2021-12-26,2021-12-26,"חרוד 4, רמת גן",חרוד 4,6182-83-3,דירה בבית קומות,3.0,שניה,86.04,2410000,,,1970.0,2013.0,3.0,3523778864,1,618283,False,233% ב 16.7 שנים,רמת גן,חרוד,13.95,6182-83-3,6182/83,28010.22780102278,32.0655423852,34.8275763735,2021
2021-12-26,2021-12-26,"יואב 16, רמת גן",יואב 16,6206-67-14,דירה בבית קומות,4.0,שישית,96.0,3750000,,,2021.0,,7.0,3538257549,1,620667,False,,רמת גן,יואב,,6206-67-14,6206/67,39062.5,32.0897997533,34.8075342901,2021
2021-12-26,2021-12-26,"תרצה 4, רמת גן",תרצה 4,6186-267-14,דירה בבית קומות,4.0,שביעית,91.0,2470000,,,2019.0,,6.0,3539332782,1,6186267,False,,רמת גן,תרצה,,6186-267-14,6186/267,27142.85714285714,32.0753968303,34.8288533253,2021
2021-12-26,2021-12-26,"דן שומרון 3, רמת גן",דן שומרון 3,7278-80-13,דירה בבית קומות,5.0,ראשונה,143.0,4715000,,,2021.0,,3.0,3538893258,1,727880,False,,רמת גן,דן שומרון,,7278-80-13,7278/80,32972.02797202797,32.0537265403,34.8440702478,2021
2021-12-26,2021-12-26,"אבא הלל 13, רמת גן",אבא הלל 13,6109-419-2,קרקע למגורים,,,,69000000,,,,,,3538900653,1,6109419,False,,רמת גן,אבא הלל,,6109-419-2,6109/419,,32.0851527303,34.8036180945,2021
2021-12-26,2021-12-26,"דן שומרון 3, רמת גן",דן שומרון 3,7278-80-14,דירת גג (פנטהאוז),5.0,,157.0,4700000,1.0,,2021.0,,3.0,11181294811,1,727880,False,,רמת גן,דן שומרון,,7278-80-14,7278/80,29936.30573248408,32.0537265403,34.8440702478,2021
2021-12-26,2021-12-26,"יואב 16, רמת גן",יואב 16,6206-67-15,,4.0,שניה,96.0,3550000,1.0,,2021.0,,7.0,11181267926,1,620667,False,,רמת גן,יואב,,6206-67-15,6206/67,36979.16666666666,32.0897997533,34.8075342901,2021
2021-12-26,2021-12-26,"המכבי 6, רמת גן",המכבי 6,6128-252-4,דירה בבית קומות,1.0,ראשונה,,179000,,,2022.0,,3.0,3538087203,1,6128252,False,,רמת גן,המכבי,,6128-252-4,6128/252,,32.0823856636,34.8089597131,2021
2021-12-25,2021-12-25,"דן שומרון 3, רמת גן",דן שומרון 3,7278-80-12,דירת גג (פנטהאוז),5.0,,143.0,4715000,1.0,,2021.0,,3.0,11181294810,1,727880,False,,רמת גן,דן שומרון,,7278-80-12,7278/80,32972.02797202797,32.0537265403,34.8440702478,2021
2021-12-25,2021-12-25,"יואב 16, רמת גן",יואב 16,6206-67-13,,4.0,שישית,96.0,3750000,1.0,,2021.0,,7.0,11181267925,1,620667,False,,רמת גן,יואב,,6206-67-13,6206/67,39062.5,32.0897997533,34.8075342901,2021
2021-12-24,2021-12-24,"איתמר 20, רמת גן",איתמר 20,6206-166-5,דירה בבית קומות,4.0,שישית,90.0,2880000,,,2017.0,,1.0,3523752039,1,6206166,False,,רמת גן,איתמר,,6206-166-5,6206/166,32000.0,32.0886906559,34.8074883824,2021
2021-12-23,2021-12-23,"ארנון 3, רמת גן",ארנון 3,6180-176-29,דירה בבית קומות,4.0,רביעית,87.0,2444000,,,2021.0,,7.0,3538868608,1,6180176,False,,רמת גן,ארנון,,6180-176-29,6180/176,28091.954022988502,32.0604823912,34.8288846876,2021
2021-12-23,2021-12-23,"הנשר 7, רמת גן",הנשר 7,6125-629-1,דירה בבית קומות,3.0,מרתף,62.0,1975000,,,1960.0,,3.0,3523753257,1,6125629,False,,רמת גן,הנשר,,6125-629-1,6125/629,31854.83870967742,32.0854347346,34.8161779596,2021
2021-12-23,2021-12-23,"ז'בוטינסקי 44, רמת גן",ז'בוטינסקי 44,6127-943-27,דירה בבית קומות,3.0,קומה ‎5‏,68.5,2120000,,,1992.0,,16.0,3538796601,1,6127943,False,,רמת גן,ז'בוטינסקי,,6127-943-27,6127/943,30948.905109489053,32.0843411379,34.8099198613,2021
2021-12-23,2021-12-23,"ז'בוטינסקי 105, רמת גן",ז'בוטינסקי 105,6205-782-28,דירה בבית קומות,5.0,עשרים ושש,132.0,4550000,,,2015.0,,22.0,3538702351,1,6205782,False,,רמת גן,ז'בוטינסקי,,6205-782-28,6205/782,34469.69696969697,32.0894367231,34.8160720881,2021
2021-12-23,2021-12-23,"בית חורון 6, רמת גן",בית חורון 6,6127-945-19,דירה בבית קומות,5.0,שניה,129.55,2800000,,,1987.0,,8.0,3538865302,1,6127945,False,,רמת גן,בית חורון,,6127-945-19,6127/945,21613.27672713238,32.0836966009,34.8102763662,2021
2021-12-23,2021-12-23,"ז'בוטינסקי 35, רמת גן",ז'בוטינסקי 35,6109-327-164,משרד,,רביעית,49.05,815000,,,1994.0,,16.0,3538061828,1,6109327,False,16% ב 2.7 שנים,רמת גן,ז'בוטינסקי,5.93,6109-327-164,6109/327,16615.698267074415,32.0839977342,34.806704565,2021
2021-12-23,2021-12-23,"מגדים 14, רמת גן",מגדים 14,6125-668-6,דירה בבית קומות,3.0,שלישית,65.17,2100000,,,1960.0,,8.0,3523902549,1,6125668,False,,רמת גן,מגדים,,6125-668-6,6125/668,32223.4156820623,32.0882768714,34.8222128462,2021
2021-12-23,2021-12-23,"אפרים 12, רמת גן",אפרים 12,6145-1568-1,דירה בבית קומות,4.0,ראשונה,98.95,2445000,,,2000.0,,5.0,3538404724,1,61451568,False,,רמת גן,אפרים,,6145-1568-1,6145/1568,24709.44921677615,32.0662970312,34.8249070081,2021
2021-12-23,2021-12-23,"יוסף הגלילי 12, רמת גן",יוסף הגלילי 12,6125-417-13,דירה בבית קומות,3.0,שלישית,84.0,2500000,1.0,,2021.0,,4.0,3538005597,1,6125417,False,,רמת גן,יוסף הגלילי,,6125-417-13,6125/417,29761.904761904763,32.0880938677,34.8196981612,2021
2021-12-23,2021-12-23,"ז'בוטינסקי 8, רמת גן",ז'בוטינסקי 8,6128-926-168,דירה בבית קומות,4.0,ארבעים ושלוש,121.0,5930000,,,2020.0,,44.0,3538457069,1,6128926,False,,רמת גן,ז'בוטינסקי,,6128-926-168,6128/926,49008.26446280992,32.0826629807,34.8044700429,2021
2021-12-23,2021-12-23,"ק""ם 6, רמת גן","ק""ם 6",6181-375-30,דירה בבית קומות,4.0,שמינית,86.6,2130000,,,1970.0,,9.0,3523838691,1,6181375,False,,רמת גן,"ק""ם",,6181-375-30,6181/375,24595.842956120094,32.0619828363,34.8293465878,2021
2021-12-22,2021-12-22,"הרכסים 49, רמת גן",הרכסים 49,6158-830-2,דירה בבית קומות,2.0,ראשונה,47.0,900000,,,1950.0,,2.0,3538324046,1,6158830,False,,רמת גן,הרכסים,,6158-830-2,6158/830,19148.936170212764,32.0730546242,34.8243873033,2021
2021-12-22,2021-12-22,"הסנה 13, רמת גן",הסנה 13,6158-1083-18,דירה בבית קומות,4.0,חמישית,100.0,2600000,,,2024.0,,5.0,3523663792,1,61581083,False,,רמת גן,הסנה,,6158-1083-18,6158/1083,26000.0,,,2021
2021-12-22,2021-12-22,"ארנון 3, רמת גן",ארנון 3,6180-176-28,,4.0,רביעית,87.0,2444000,1.0,,2021.0,,7.0,11181265753,1,6180176,False,,רמת גן,ארנון,,6180-176-28,6180/176,28091.954022988502,32.0604823912,34.8288846876,2021
2021-12-22,2021-12-22,"אריה בן-אליעזר 56, רמת גן",אריה בן-אליעזר 56,6181-376-42,דירה בבית קומות,4.0,אחת עשרה,72.73,2000000,,,1970.0,,14.0,3523808270,1,6181376,False,,רמת גן,בן אליעזר אריה,,6181-376-42,6181/376,27498.968788670423,32.0617000791,34.8298343482,2021
2021-12-22,2021-12-22,"יוסף הגלילי 14, רמת גן",יוסף הגלילי 14,6125-703-1,דירה בבית קומות,3.0,קרקע,83.0,2400000,,,1970.0,,4.0,3523645290,1,6125703,False,43% ב 5.5 שנים,רמת גן,יוסף הגלילי,7.82,6125-703-1,6125/703,28915.66265060241,32.0882852722,34.8196976149,2021
2021-12-21,2021-12-21,"יהודה הנשיא 10, רמת גן",יהודה הנשיא 10,6158-1140-5,דירה בבית קומות,3.0,ראשונה,67.0,1700000,,,1950.0,,2.0,3523656310,1,61581140,False,,רמת גן,יהודה הנשיא,,6158-1140-5,6158/1140,25373.13432835821,32.0780176111,34.8262602295,2021
2021-12-21,2021-12-21,"חירות 22, רמת גן",חירות 22,6205-477-11,דירה בבית קומות,3.0,רביעית,61.0,2598000,,,2021.0,,7.0,3523675218,1,6205477,False,,רמת גן,חרות,,6205-477-11,6205/477,42590.16393442623,32.0899974948,34.8122354457,2021
2021-12-21,2021-12-21,"אריה בן-אליעזר 63, רמת גן",אריה בן-אליעזר 63,6181-439-1,דירה בבית קומות,4.0,ראשונה,97.89,2450000,,,1970.0,,6.0,3523675943,1,6181439,False,,רמת גן,בן אליעזר אריה,,6181-439-1,6181/439,25028.092757176422,32.0611998246,34.8302275174,2021
2021-12-21,2021-12-21,"המאה ואחד 9, רמת גן",המאה ואחד 9,6156-558-1,קרקע למגורים,,,90.0,5625000,,,,,,3538415483,1,6156558,False,,רמת גן,המאה ואחד,,6156-558-1,6156/558,62500.0,32.057133706,34.8162728891,2021
2021-12-21,2021-12-21,"הסנה 13, רמת גן",הסנה 13,6158-1083-3,,4.0,שביעית,100.0,2600000,1.0,,,,5.0,11181264069,1,61581083,False,,רמת גן,הסנה,,6158-1083-3,6158/1083,26000.0,,,2021
2021-12-21,2021-12-21,"בדנר 4, רמת גן",בדנר 4,6205-688-8,דירה בבית קומות,3.0,רביעית,61.54,2000000,,,1970.0,,5.0,3524007326,1,6205688,False,,רמת גן,בדנר,,6205-688-8,6205/688,32499.187520311996,32.0878527298,34.8113012993,2021
2021-12-21,2021-12-21,"תובל 30, רמת גן",תובל 30,6207-310-14,משרד,,חמישית,33.0,4165000,,,1998.0,,7.0,3538579623,1,6207310,False,,רמת גן,תובל,,6207-310-14,6207/310,126212.12121212122,32.0865836815,34.8028556302,2021
2021-12-21,2021-12-21,,,6145-500-0,קומבינציה,,,501.0,5824000,,,,,,3538981070,2,6145500,False,,רמת גן,הראובני,,6145-500-0,6145/500,11624.750499001995,32.0654096579,34.8251834455,2021
2021-12-21,2021-12-21,"חד נס 35, רמת גן",חד נס 35,6145-1347-5,דירה בבית קומות,4.0,שלישית,91.6,2480000,,,1970.0,,3.0,3523725968,1,61451347,False,173% ב 14.9 שנים,רמת גן,חד נס,11.61,6145-1347-5,6145/1347,27074.235807860263,32.0659092843,34.8257110766,2021
2021-12-20,2021-12-20,"שלם 9, רמת גן",שלם 9,6142-111-6,דירה בבית קומות,4.0,ראשונה,82.0,2604000,,,2023.0,,5.0,3523807574,1,6142111,False,,רמת גן,שלם,,6142-111-6,6142/111,31756.09756097561,32.0523060179,34.8143533731,2021
2021-12-20,2021-12-20,"השושן 7, רמת גן",השושן 7,6145-308-11,דירה בבית קומות,4.0,שישית וגג,97.16,3550000,,,2003.0,,6.0,3523729361,1,6145308,False,81% ב 17.7 שנים,רמת גן,השושן,4.58,6145-308-11,6145/308,36537.66982297242,32.0714843642,34.8264605927,2021
2021-12-20,2021-12-20,"מצדה 49, רמת גן",מצדה 49,6180-407-1,קוטג' דו משפחתי,6.0,ראשונה,173.0,7950000,,,2010.0,,1.0,3538487983,1,6180407,False,,רמת גן,מצדה,,6180-407-1,6180/407,45953.757225433525,32.0569935984,34.824241574,2021
2021-12-20,2021-12-20,"חצור 16, רמת גן",חצור 16,6158-1321-24,דירה בבית קומות,4.0,ראשונה,98.0,2510000,,,2017.0,,8.0,3538526234,1,61581321,False,,רמת גן,חצור,,6158-1321-24,6158/1321,25612.244897959183,32.0773602498,34.8246744857,2021
2021-12-20,2021-12-20,,,6186-512-7,,4.0,,86.0,2350000,1.0,,,,,11181266427,2,6186512,False,,רמת גן,תרצה,,6186-512-7,6186/512,27325.58139534884,32.0750073939,34.8286711398,2021
2021-12-20,2021-12-20,"הגפן 13, רמת גן",הגפן 13,6205-82-9,דירה בבית קומות,3.0,שניה,52.0,2400000,,,1950.0,,2.0,3523592713,1,620582,False,76% ב 6.5 שנים,רמת גן,הגפן,11.69,6205-82-9,6205/82,46153.84615384616,32.0893386517,34.8114884404,2021
2021-12-20,2021-12-20,"עוזיאל 96, רמת גן",עוזיאל 96,6157-550-13,דירה בבית קומות,3.0,שניה,58.0,1500000,,,1950.0,,2.0,3523653961,1,6157550,False,,רמת גן,עוזיאל,,6157-550-13,6157/550,25862.068965517243,32.0700230481,34.8221097168,2021
2021-12-20,2021-12-20,"אבן עזרא 3, רמת גן",אבן עזרא 3,6186-94-6,דירה בבית קומות,4.0,שניה,130.0,2540000,,,1960.0,,2.0,3538319754,1,618694,False,54% ב 8.4 שנים,רמת גן,אבן עזרא,6.43,6186-94-6,6186/94,19538.46153846154,32.0694537607,34.831377607,2021
2021-12-20,2021-12-20,"הרצל 37, רמת גן",הרצל 37,6126-119-7,דירה בבית קומות,4.0,רביעית,75.32,2400000,,,2007.0,,6.0,3538123308,1,6126119,False,105% ב 14.3 שנים,רמת גן,הרצל,7.34,6126-119-7,6126/119,31864.04673393521,32.0821780926,34.8161644878,2021
2021-12-20,2021-12-20,"ירושלים 10, רמת גן",ירושלים 10,6158-657-1,חנות,,,195.0,14864000,,,1950.0,,,3538403535,1,6158657,False,,רמת גן,ירושלים,,6158-657-1,6158/657,76225.64102564103,32.0745916414,34.819596269,2021
2021-12-19,2021-12-19,"ירושלים 81, רמת גן",ירושלים 81,6186-274-11,דירה בבית קומות,2.0,שניה,47.0,1400000,,,1950.0,,2.0,3523631718,1,6186274,False,,רמת גן,ירושלים,,6186-274-11,6186/274,29787.23404255319,32.0747665491,34.8287999859,2021
2021-12-19,2021-12-19,"מורדי הגטאות 2, רמת גן",מורדי הגטאות 2,6205-761-11,דירה בבית קומות,5.0,שניה,113.0,3400000,,,2015.0,,4.0,3538594442,1,6205761,False,,רמת גן,מורדי הגטאות,,6205-761-11,6205/761,30088.49557522124,32.090312805,34.813811188,2021
2021-12-19,2021-12-19,"החשמונאים 10, רמת גן",החשמונאים 10,6128-733-3,דירה בבית קומות,3.0,שניה,88.11,2875000,,,1983.0,,3.0,3538608333,1,6128733,False,,רמת גן,החשמונאים,,6128-733-3,6128/733,32629.66746112813,32.0831378295,34.8093724133,2021
2021-12-19,2021-12-19,"נגבה 35, רמת גן",נגבה 35,6145-952-9,דירה בבית קומות,2.0,שלישית,55.0,1965000,,,1960.0,,3.0,3523481063,1,6145952,False,245% ב 23 שנים,רמת גן,נגבה,10.65,6145-952-9,6145/952,35727.27272727273,32.07049936,34.825960521,2021
2021-12-19,2021-12-19,"המחתרת 2, רמת גן",המחתרת 2,6183-245-7,דירה בבית קומות,3.0,שלישית,88.0,1484000,,,1950.0,,3.0,3538726218,1,6183245,False,,רמת גן,המחתרת,,6183-245-7,6183/245,16863.636363636364,32.0674087897,34.8341996159,2021
2021-12-19,2021-12-19,"פנחס 9, רמת גן",פנחס 9,6145-997-10,דירה בבית קומות,4.0,רביעית,104.53,2900000,,,2014.0,,5.0,3523513282,1,6145997,False,75% ב 8.4 שנים,רמת גן,פנחס,8.93,6145-997-10,6145/997,27743.23160815077,32.0644691836,34.8215858489,2021
2021-12-19,2021-12-19,"לאן 20, רמת גן",לאן 20,6128-734-11,דירה בבית קומות,3.0,רביעית,75.24,3100000,,,1970.0,,7.0,3523461923,1,6128734,False,,רמת גן,לאן,,6128-734-11,6128/734,41201.48856990963,32.0815638768,34.8080291505,2021
2021-12-16,2021-12-16,"זבוטינסקי 112, רמת גן",זבוטינסקי 112,6125-723-3,חנות,,קרקע+מפולשת,28.87,1022000,,,1970.0,,14.0,3523787709,1,6125723,False,47% ב 6.9 שנים,רמת גן,ז'בוטינסקי,6.81,6125-723-3,6125/723,35400.06927606512,32.0890460481,34.8182702741,2021
2021-12-16,2021-12-16,"אריה 3, רמת גן",אריה 3,6126-200-1,דירה בבית קומות,2.0,קרקע,45.0,1725000,,,1950.0,,2.0,3523776225,1,6126200,False,,רמת גן,אריה,,6126-200-1,6126/200,38333.333333333336,32.0804912378,34.818657144,2021
2021-12-16,2021-12-16,"האם 31, רמת גן",האם 31,6180-309-33,דירה בבית קומות,4.0,שלישית,83.6,1825000,,,1965.0,,4.0,3523441594,1,6180309,False,,רמת גן,האם,,6180-309-33,6180/309,21830.14354066986,32.0594972808,34.832501881,2021
2021-12-16,2021-12-16,"משה דיין 23, רמת גן",משה דיין 23,6181-239-6,דירה בבית קומות,3.0,שניה,74.5,1970000,,,1960.0,,3.0,3523368079,1,6181239,False,51% ב 9.1 שנים,רמת גן,דיין משה,5.6,6181-239-6,6181/239,26442.953020134228,32.0618501165,34.8259461464,2021
2021-12-16,2021-12-16,"ז'בוטינסקי 112, רמת גן",ז'בוטינסקי 112,6125-723-1,חנות,,קרקע+מפולשת,42.7,2190000,,,1970.0,,12.0,3523754214,1,6125723,False,64% ב 6.9 שנים,רמת גן,ז'בוטינסקי,9.28,6125-723-1,6125/723,51288.056206088986,32.0890460481,34.8182702741,2021
2021-12-16,2021-12-16,"ביאליק 134, רמת גן",ביאליק 134,6207-598-2,דירה בבית קומות,2.0,חמישית,59.0,2450000,,,2015.0,,2.0,3523498057,1,6207598,False,,רמת גן,ביאליק,,6207-598-2,6207/598,41525.42372881356,32.0886914613,34.8046702539,2021
2021-12-16,2021-12-16,"ז'בוטינסקי 112, רמת גן",ז'בוטינסקי 112,6125-723-2,חנות,,מרתף+קרקע+מפולשת,91.67,4088000,,,1970.0,,12.0,3523787477,1,6125723,False,64% ב 6.9 שנים,רמת גן,ז'בוטינסקי,9.28,6125-723-2,6125/723,44594.74200938147,32.0890460481,34.8182702741,2021
2021-12-16,2021-12-16,"אריה בן-אליעזר 20, רמת גן",אריה בן-אליעזר 20,6186-119-44,דירה בבית קומות,4.0,שישית,88.0,2425000,,,2022.0,,7.0,3523482252,1,6186119,False,,רמת גן,בן אליעזר אריה,,6186-119-44,6186/119,27556.81818181818,,,2021
2021-12-16,2021-12-16,"ארנון 24, רמת גן",ארנון 24,6180-78-9,דירה בבית קומות,3.0,שלישית,52.2,2080000,,,2008.0,,8.0,3523420743,1,618078,False,20% ב 2.8 שנים,רמת גן,ארנון,7.14,6180-78-9,6180/78,39846.74329501916,32.0610209118,34.8328128761,2021
2021-12-16,2021-12-16,"הגת 22, רמת גן",הגת 22,6126-446-11,דירה בבית קומות,4.0,שישית,92.39,3100000,,,2006.0,,6.0,3523462387,1,6126446,False,66% ב 6.6 שנים,רמת גן,הגת,10.0,6126-446-11,6126/446,33553.41487173937,32.0832383315,34.8205468713,2021
2021-12-16,2021-12-16,"הראובני 15, רמת גן",הראובני 15,6145-1424-4,דירה בבית קומות,4.0,שניה,108.0,2200000,,,1960.0,,1.0,3523728839,1,61451424,False,19% ב 9.4 שנים,רמת גן,הראובני,2.02,6145-1424-4,6145/1424,20370.37037037037,32.0652916408,34.8261748696,2021
2021-12-16,2021-12-16,"זבוטינסקי 155, רמת גן",זבוטינסקי 155,6204-646-33,משרד,,קרקע,313.93,12000000,,,1994.0,,8.0,3523618784,1,6204646,False,35% ב 1.9 שנים,רמת גן,ז'בוטינסקי,18.42,6204-646-33,6204/646,38225.08202465517,32.0913394218,34.8222437436,2021
2021-12-16,2021-12-16,"הילד 1, רמת גן",הילד 1,6127-142-6,דירה בבית קומות,2.0,ראשונה,,2200000,,,2028.0,,6.0,3538481719,1,6127142,False,,רמת גן,הילד,,6127-142-6,6127/142,,32.0870424667,34.8131075449,2021
2021-12-16,2021-12-16,"ההגנה 9, רמת גן",ההגנה 9,6183-459-5,דירה בבית קומות,3.0,רביעית,73.0,2250000,1.0,,2015.0,,4.0,3523551823,1,6183459,False,,רמת גן,ההגנה,,6183-459-5,6183/459,30821.91780821918,32.0698278204,34.8341244093,2021
2021-12-16,2021-12-16,"ירושלים 19, רמת גן",ירושלים 19,6158-1648-12,דירה בבית קומות,3.0,קומה ‎3‏,68.32,2130000,,,2015.0,,10.0,3523631254,1,61581648,False,,רמת גן,ירושלים,,6158-1648-12,6158/1648,31176.8149882904,32.0750011821,34.8212841203,2021
2021-12-16,2021-12-16,,,6206-34-4,דירה,3.0,שלישית,80.0,3000000,1.0,אסף,2022.0,,,3523584100,2,620634,False,,רמת גן,אסף,,6206-34-4,6206/34,37500.0,32.0898876941,34.809007653,2021
2021-12-16,2021-12-16,"רד""ק 8, רמת גן","רד""ק 8",6159-348-75,דירה בבית קומות,4.0,תשיעית,114.0,3320000,1.0,רדק 8,2016.0,,7.0,3523400646,1,6159348,False,,רמת גן,"רד""ק",,6159-348-75,6159/348,29122.80701754386,32.0841157089,34.8237214877,2021
2021-12-16,2021-12-16,"אלוף הנצחון 28, רמת גן",אלוף הנצחון 28,6158-1441-6,דירה בבית קומות,4.0,שלישית,72.54,2300000,,,1973.0,,4.0,3523459980,1,61581441,False,43% ב 9 שנים,רמת גן,אלוף הנצחון,4.78,6158-1441-6,6158/1441,31706.64460987041,32.0748744195,34.8272433946,2021
2021-12-15,2021-12-15,"הירדן 45, רמת גן",הירדן 45,6182-460-6,דירה בבית קומות,4.0,שניה,72.28,2350000,,,1970.0,,7.0,3523719240,1,6182460,False,30% ב 3.5 שנים,רמת גן,הירדן,8.57,6182-460-6,6182/460,32512.45157719978,32.0654403498,34.8286816015,2021
2021-12-15,2021-12-15,"טרומן 39, רמת גן",טרומן 39,6145-1181-5,דירה בבית קומות,3.0,שלישית,53.0,2150000,,,1970.0,,3.0,3538214948,1,61451181,False,185% ב 20 שנים,רמת גן,טרומן,9.25,6145-1181-5,6145/1181,40566.03773584906,32.0681289493,34.8274020483,2021
2021-12-15,2021-12-15,"אורנייה 5, רמת גן",אורנייה 5,6204-463-6,דירה בבית קומות,3.0,שלישית,59.0,2160000,,,1960.0,,3.0,3523359466,1,6204463,False,237% ב 23.8 שנים,רמת גן,ארניה,9.96,6204-463-6,6204/463,36610.16949152543,32.0922501133,34.817462577,2021
2021-12-15,2021-12-15,"סטרומה 7, רמת גן",סטרומה 7,6205-351-2,דירה בבית קומות,2.0,קרקע,38.0,1950000,,,1950.0,,2.0,3523668316,1,6205351,False,,רמת גן,סטרומה,,6205-351-2,6205/351,51315.78947368421,32.0909666386,34.8159746091,2021
2021-12-15,2021-12-15,"השר משה 58, רמת גן",השר משה 58,6145-1114-5,דירה בבית קומות,4.0,שלישית,77.0,1990000,,,1970.0,,3.0,3523678089,1,61451114,False,213% ב 17.3 שנים,רמת גן,השר משה,12.31,6145-1114-5,6145/1114,25844.155844155845,32.0649734707,34.8260903096,2021
2021-12-15,2021-12-15,"התמרים 9, רמת גן",התמרים 9,6125-768-2,דירה בבית קומות,4.0,שניה,83.35,2750000,,,2005.0,,28.0,3523489212,1,6125768,False,38% ב 7.3 שנים,רמת גן,התמרים,5.21,6125-768-2,6125/768,32993.401319736055,32.0892074758,34.822125758,2021
2021-12-15,2021-12-15,"הראשונים 22, רמת גן",הראשונים 22,6128-141-5,דירה בבית קומות,2.0,ראשונה,46.0,1900000,,,1950.0,,3.0,3538079576,1,6128141,False,211% ב 21.1 שנים,רמת גן,הראשונים,10.0,6128-141-5,6128/141,41304.34782608696,32.0800946807,34.803628139,2021
2021-12-15,2021-12-15,"ידע עם 16, רמת גן",ידע עם 16,6207-553-19,דירה בבית קומות,3.0,שביעית,49.6,2750000,,,2002.0,,7.0,3523469347,1,6207553,False,175% ב 13.5 שנים,רמת גן,ידע עם,12.96,6207-553-19,6207/553,55443.54838709677,32.0907999098,34.8018764845,2021
2021-12-15,2021-12-15,"אביגיל 6, רמת גן",אביגיל 6,6207-599-23,דירה,3.0,ראשונה,93.0,3300000,1.0,אביגיל,2015.0,,7.0,3523536946,1,6207599,False,,רמת גן,אביגיל,,6207-599-23,6207/599,35483.87096774193,32.0888874055,34.8047464827,2021
2021-12-14,2021-12-14,"יהודה הנשיא 18, רמת גן",יהודה הנשיא 18,6158-1136-13,דירה בבית קומות,5.0,רביעית,128.0,3020000,,,2022.0,,7.0,3523819522,1,61581136,False,,רמת גן,יהודה הנשיא,,6158-1136-13,6158/1136,23593.75,32.0780066982,34.8270166296,2021
2021-12-14,2021-12-14,"דב 13, רמת גן",דב 13,6128-435-9,דירה בבית קומות,4.0,חמישית,87.79,3250000,,,2003.0,,6.0,3523510643,1,6128435,False,50% ב 7.2 שנים,רמת גן,דב,6.94,6128-435-9,6128/435,37020.1617496298,32.081010769,34.8019474874,2021
2021-12-14,2021-12-14,"ברקאי 9, רמת גן",ברקאי 9,6158-1399-9,דירה בבית קומות,4.0,שלישית,80.0,2000000,,,1970.0,,3.0,3538127397,1,61581399,False,,רמת גן,ברקאי,,6158-1399-9,6158/1399,25000.0,32.0771519497,34.8260178239,2021
2021-12-14,2021-12-14,"לח""י 18, רמת גן","לח""י 18",6183-200-6,דירה בבית קומות,2.0,שניה,24.8,1170000,,,1950.0,,2.0,3523836516,1,6183200,False,80% ב 6.5 שנים,רמת גן,"לח""י",12.31,6183-200-6,6183/200,47177.41935483871,32.0654916503,34.8345415534,2021
2021-12-14,2021-12-14,"חיים לנדאו 7, רמת גן",חיים לנדאו 7,6186-658-143,דירה בבית קומות,4.0,שלישית,103.62,2710000,,,1999.0,,25.0,3523299436,1,6186658,False,,רמת גן,לנדאו חיים,,6186-658-143,6186/658,26153.25226790195,32.0715560105,34.8282376172,2021
2021-12-14,2021-12-14,"בועז 14, רמת גן",בועז 14,6128-211-37,קומבינציה,,,,12145000,,,2022.0,,6.0,3538441525,1,6128211,False,,רמת גן,בועז,,6128-211-37,6128/211,,32.0800663596,34.8081528322,2021
2021-12-14,2021-12-14,"ירושלים 96, רמת גן",ירושלים 96,6186-503-32,דירת גג,4.0,שביעית,76.33,3500000,,,1970.0,,8.0,3523325333,1,6186503,False,55% ב 2.8 שנים,רמת גן,ירושלים,19.64,6186-503-32,6186/503,45853.53072186559,32.0743699756,34.8302728886,2021
2021-12-14,2021-12-14,"עולי הגרדום 16, רמת גן",עולי הגרדום 16,6183-187-6,דירה בבית קומות,1.0,שניה,24.8,980000,,,1950.0,,2.0,3523281282,1,6183187,True,-2% ב 2.8 שנים,רמת גן,עולי הגרדום,-0.71,6183-187-6,6183/187,39516.12903225806,32.0658534966,34.8351892532,2021
2021-12-14,2021-12-14,,,6126-232-14,דירה,4.0,רביעית,87.0,2650000,1.0,האשל 16 רמת גן,2023.0,,,3523576705,2,6126232,False,,רמת גן,האשל,,6126-232-14,6126/232,30459.77011494253,32.082370198,34.8180096522,2021
2021-12-14,2021-12-14,"חירות 22, רמת גן",חירות 22,6205-477-10,דירה בבית קומות,5.0,שישית,114.0,3508000,,,2021.0,,7.0,3523349229,1,6205477,False,,רמת גן,חרות,,6205-477-10,6205/477,30771.929824561405,32.0899974948,34.8122354457,2021
2021-12-13,2021-12-13,"יוחנן 6, רמת גן",יוחנן 6,6127-655-16,דירה בבית קומות,5.0,רביעית + גג,110.1,3900000,,,1989.0,,4.0,3523319591,1,6127655,False,,רמת גן,יוחנן,,6127-655-16,6127/655,35422.34332425068,32.0801026175,34.8107507752,2021
2021-12-13,2021-12-13,"הבנים 15, רמת גן",הבנים 15,6159-731-4,דירה בבית קומות,4.0,קומה ‎1‏,82.4,2154000,,,2016.0,,10.0,3523317648,1,6159731,False,25% ב 5 שנים,רמת גן,הבנים,5.0,6159-731-4,6159/731,26140.776699029124,32.0840360043,34.8251498453,2021
2021-12-13,2021-12-13,"ביאליק 22, רמת גן",ביאליק 22,6126-438-16,דירה בבית קומות,3.0,שלישית,64.56,2070000,,,1960.0,,3.0,3523206172,1,6126438,False,,רמת גן,ביאליק,,6126-438-16,6126/438,32063.197026022302,32.080963876,34.8152891909,2021
2021-12-13,2021-12-13,"גבעתי 46, רמת גן",גבעתי 46,6143-459-1,קרקע למגורים,,,247.0,7650000,,,,,,3538137953,1,6143459,False,,רמת גן,גבעתי,,6143-459-1,6143/459,30971.65991902834,32.0544031753,34.8174352445,2021
2021-12-13,2021-12-13,"חצור 15, רמת גן",חצור 15,6158-889-35,דירה,3.0,שמינית,87.0,2490000,1.0,,2021.0,,9.0,3523516849,1,6158889,False,,רמת גן,חצור,,6158-889-35,6158/889,28620.689655172413,,,2021
2021-12-13,2021-12-13,"מצפה 7, רמת גן",מצפה 7,6128-242-17,דירה בבית קומות,3.0,ראשונה,73.0,2400000,,,2023.0,,5.0,3523267681,1,6128242,False,,רמת גן,מצפה,,6128-242-17,6128/242,32876.71232876712,32.0822059703,34.8073766477,2021
2021-12-13,2021-12-13,"האחים בז'רנו 7, רמת גן",האחים בז'רנו 7,6109-132-3,מחסנים,,,,1350000,,,2000.0,,1.0,3538486997,1,6109132,False,,רמת גן,האחים בז'רנו,,6109-132-3,6109/132,,32.0875743094,34.8042995342,2021
2021-12-13,2021-12-13,"מלכי צדק 11, רמת גן",מלכי צדק 11,6142-385-10,דירה בבית קומות,3.0,ראשונה,64.6,1600000,,,1980.0,,2.0,3538294350,1,6142385,False,,רמת גן,מלכי צדק,,6142-385-10,6142/385,24767.801857585146,32.0498347051,34.8180770803,2021
2021-12-13,2021-12-13,"אצ""ל 3, רמת גן","אצ""ל 3",6182-435-5,דירה בבית קומות,4.0,שניה,85.6,2395000,,,1970.0,,7.0,3523351636,1,6182435,False,,רמת גן,"אצ""ל",,6182-435-5,6182/435,27978.971962616823,32.0665838967,34.8294691872,2021
2021-12-13,2021-12-13,"השושן 3, רמת גן",השושן 3,6145-306-6,דירה בבית קומות,6.0,שלישית + גג,109.0,3280000,,,1991.0,,3.0,3523487240,1,6145306,False,,רמת גן,השושן,,6145-306-6,6145/306,30091.74311926605,32.0719094456,34.8264957215,2021
2021-12-13,2021-12-13,"עלומים 23, רמת גן",עלומים 23,6144-592-64,דירה,4.0,שביעית,87.0,2750000,1.0,עיר גני,2021.0,,8.0,3538172173,1,6144592,False,,רמת גן,עלומים,,6144-592-64,6144/592,31609.19540229885,32.0630024681,34.8208316539,2021
2021-12-13,2021-12-13,"שאנן 24, רמת גן",שאנן 24,6126-138-9,דירה בבית קומות,5.0,רביעית+חמישית,98.8,3200000,,,1990.0,,4.0,3538086739,1,6126138,False,,רמת גן,שאנן,,6126-138-9,6126/138,32388.663967611337,32.0798310026,34.8179918697,2021
2021-12-13,2021-12-13,"הבילויים 11, רמת גן",הבילויים 11,6144-714-1,דירה בבית קומות,4.0,ראשונה,90.08,2075000,,,1965.0,,7.0,3523238449,1,6144714,False,,רמת גן,הבילויים,,6144-714-1,6144/714,23035.079928952044,32.0608409029,34.822886389,2021
2021-12-13,2021-12-13,"ז'בוטינסקי 3, רמת גן",ז'בוטינסקי 3,6109-402-209,דירה בבית קומות,4.0,שבע עשרה,111.0,3570000,,,2017.0,,38.0,3523398761,1,6109402,False,,רמת גן,ז'בוטינסקי,,6109-402-209,6109/402,32162.162162162163,32.0822525692,34.8006846322,2021
2021-12-12,2021-12-12,"ביאליק 76, רמת גן",ביאליק 76,6127-957-57,דירה בבית קומות,5.0,שש עשרה,125.6,3070000,,,2000.0,,20.0,3523303757,1,6127957,False,112% ב 21 שנים,רמת גן,ביאליק,5.33,6127-957-57,6127/957,24442.67515923567,32.0857359453,34.811599417,2021
2021-12-12,2021-12-12,"החוגה 2, רמת גן",החוגה 2,6176-776-1,חנות,,ראשונה,,750000,,,1960.0,,1.0,3538283388,1,6176776,False,,רמת גן,החוגה,,6176-776-1,6176/776,,32.0462199612,34.834695123,2021
2021-12-12,2021-12-12,"חד נס 7, רמת גן",חד נס 7,6145-1139-5,דירה בבית קומות,5.0,חמישית,107.0,2670000,,,2019.0,,4.0,3523923864,1,61451139,False,,רמת גן,חד נס,,6145-1139-5,6145/1139,24953.271028037383,32.0663449265,34.8222106286,2021
2021-12-12,2021-12-12,,,6159-341-23,דירה בבית קומות,5.0,שביעית,103.0,2850000,,,2022.0,,,3523648451,2,6159341,False,,רמת גן,הבנים,,6159-341-23,6159/341,27669.90291262136,32.0841603101,34.82463042,2021
2021-12-12,2021-12-12,"ז'בוטינסקי 16, רמת גן",ז'בוטינסקי 16,6128-929-12,דירה בבית קומות,4.0,רביעית,112.0,3025000,,,2013.0,,15.0,3538374593,1,6128929,False,,רמת גן,ז'בוטינסקי,,6128-929-12,6128/929,27008.92857142857,32.0825981069,34.8054905451,2021
2021-12-12,2021-12-12,"הרא""ה 259, רמת גן","הרא""ה 259",6145-490-12,דירה בבית קומות,3.0,שניה,71.0,2000000,,,1999.0,,4.0,3523202576,1,6145490,False,,רמת גן,"הרא""ה",,6145-490-12,6145/490,28169.01408450704,32.0655059585,34.8240646985,2021
2021-12-12,2021-12-12,"הרב חבה אליה 5, רמת גן",הרב חבה אליה 5,6127-558-8,דירה,4.0,,106.0,3250000,1.0,,2024.0,,3.0,11181261847,1,6127558,False,,רמת גן,הרב חבה אליהו,,6127-558-8,6127/558,30660.377358490565,32.0806340812,34.8100285179,2021
2021-12-12,2021-12-12,"ישורון 8, רמת גן",ישורון 8,6186-693-11,דירה בבית קומות,4.0,ראשונה,86.0,2080000,,,2015.0,,3.0,3523376489,1,6186693,False,,רמת גן,ישורון,,6186-693-11,6186/693,24186.04651162791,32.0680107888,34.8298439579,2021
2021-12-12,2021-12-12,"החשמונאים 18, רמת גן",החשמונאים 18,6128-906-30,דירה בבית קומות,4.0,חמישית,84.0,2800000,1.0,,2014.0,,9.0,3523310920,1,6128906,False,,רמת גן,החשמונאים,,6128-906-30,6128/906,33333.333333333336,32.0820319783,34.8095213147,2021
2021-12-12,2021-12-12,"חברון 3, רמת גן",חברון 3,6158-589-6,דירה,4.0,רביעית,94.0,2800000,1.0,,2021.0,,5.0,3523271712,1,6158589,False,,רמת גן,חברון,,6158-589-6,6158/589,29787.23404255319,32.0742465434,34.8245409449,2021
2021-12-11,2021-11-12,"ז'בוטינסקי 57, רמת גן",ז'בוטינסקי 57,6205-220-51,דירה בבית קומות,4.0,שמינית,92.0,2836000,,,2016.0,,15.0,3521606010,1,6205220,False,,רמת גן,ז'בוטינסקי,,6205-220-51,6205/220,30826.08695652174,32.0861064998,34.8106701204,2021
2021-12-11,2021-11-12,"המחתרת 18, רמת גן",המחתרת 18,6183-179-7,דירה בבית קומות,1.0,שניה,24.8,1000000,,,1950.0,,2.0,3522094834,1,6183179,False,,רמת גן,המחתרת,,6183-179-7,6183/179,40322.58064516129,32.0667864758,34.8366237701,2021
2021-12-11,2021-11-12,"שאנן 21, רמת גן",שאנן 21,6126-136-5,דירה בבית קומות,3.0,ראשונה,73.0,2274000,,,2020.0,,,3522261555,1,6126136,False,,רמת גן,שאנן,,6126-136-5,6126/136,31150.68493150685,,,2021
2021-12-11,2021-11-12,"המחתרת 18, רמת גן",המחתרת 18,6183-179-6,דירה בבית קומות,1.0,שניה,24.8,975000,,,1950.0,,2.0,3522086221,1,6183179,False,,רמת גן,המחתרת,,6183-179-6,6183/179,39314.51612903226,32.0667864758,34.8366237701,2021
2021-12-11,2021-11-12,"תפארת ישראל 10, רמת גן",תפארת ישראל 10,6186-50-2,דירה בבית קומות,3.0,ראשונה,53.85,1650000,,,1970.0,,3.0,3521612970,1,618650,False,,רמת גן,תפארת ישראל,,6186-50-2,6186/50,30640.66852367688,32.0674113886,34.8293575525,2021
2021-12-10,2021-10-12,"האתרוג 17, רמת גן",האתרוג 17,6176-156-1,קוטג' חד משפחתי,5.0,ראשונה,247.0,5950000,,,1970.0,,1.0,3520779829,1,6176156,False,,רמת גן,האתרוג,,6176-156-1,6176/156,24089.06882591093,32.0478949737,34.8352449602,2021
2021-12-10,2021-10-12,"ז'בוטינסקי 8, רמת גן",ז'בוטינסקי 8,6128-926-173,דירה בבית קומות,3.0,שלושים ותשע,84.0,4205000,,,2020.0,,44.0,3520688943,1,6128926,False,,רמת גן,ז'בוטינסקי,,6128-926-173,6128/926,50059.52380952381,32.0826629807,34.8044700429,2021
2021-12-10,2021-10-12,"ברקאי 19, רמת גן",ברקאי 19,6158-1679-13,,5.0,שניה,103.0,2650000,1.0,,2020.0,,7.0,11181264234,1,61581679,False,,רמת גן,ברקאי,,6158-1679-13,6158/1679,25728.155339805824,32.0771155138,34.8270037536,2021
2021-12-10,2021-10-12,"תלפיות 27, רמת גן",תלפיות 27,6205-160-7,דירה בבית קומות,2.0,שניה,56.0,2000000,,,1950.0,,3.0,3521056924,1,6205160,False,,רמת גן,תלפיות,,6205-160-7,6205/160,35714.28571428572,32.08700384,34.810209062,2021
2021-12-10,2021-10-12,"הגפן 25, רמת גן",הגפן 25,6205-75-10,דירה בבית קומות,3.0,שלישית,65.0,2040000,,,1950.0,,2.0,3520299966,1,620575,False,,רמת גן,הגפן,,6205-75-10,6205/75,31384.615384615383,32.089679728,34.8127051913,2021
2021-12-10,2021-10-12,"פנחס 35, רמת גן",פנחס 35,6145-1064-10,דירה בבית קומות,4.0,ראשונה,85.0,2175000,,,2023.0,,6.0,3521364817,1,61451064,False,,רמת גן,פנחס,,6145-1064-10,6145/1064,25588.235294117647,32.0640693126,34.8246893353,2021
2021-12-10,2021-10-12,,,6157-694-3,דירה בבית קומות,3.0,חמישית,67.0,2315000,,,2022.0,,,3520835828,2,6157694,False,,רמת גן,אלרואי,,6157-694-3,6157/694,34552.23880597015,32.0715399201,34.8213867511,2021
2021-12-10,2021-10-12,"זבוטינסקי 5, רמת גן",זבוטינסקי 5,6109-348-4,משרד,,"מרתף,ראשונה",73.4,95050000,,,1983.0,,18.0,3521405301,1,6109348,False,,רמת גן,ז'בוטינסקי,,6109-348-4,6109/348,1294959.128065395,32.0833998099,34.8025067333,2021
2021-12-10,2021-10-12,"ז'בוטינסקי 3, רמת גן",ז'בוטינסקי 3,6109-402-232,דירה בבית קומות,5.0,שמונה עשרה,130.0,3750000,,,2017.0,,38.0,3520644225,1,6109402,False,,רמת גן,ז'בוטינסקי,,6109-402-232,6109/402,28846.153846153848,32.0822525692,34.8006846322,2021
2021-12-10,2021-10-12,"ההלכה 6, רמת גן",ההלכה 6,6158-1184-30,דירה בבית קומות,3.0,חמישית,76.0,2020000,,,2021.0,,5.0,3520629116,1,61581184,False,,רמת גן,ההלכה,,6158-1184-30,6158/1184,26578.947368421053,,,2021
2021-12-10,2021-10-12,"מאיר אבנר 4, רמת גן",מאיר אבנר 4,6182-24-21,דירה בבית קומות,5.0,שביעית,114.0,2850000,,,2021.0,,5.0,3520696599,1,618224,False,,רמת גן,אבנר מאיר,,6182-24-21,6182/24,25000.0,32.0632463329,34.8275077901,2021
2021-12-10,2021-10-12,"שלומציון 12, רמת גן",שלומציון 12,6145-1659-3,דירה בבית קומות,4.0,שלישית,82.0,2362000,,,2019.0,,2.0,3520693264,1,61451659,False,,רמת גן,שלומציון,,6145-1659-3,6145/1659,28804.878048780487,32.0693708561,34.8256879193,2021
2021-12-09,2021-09-12,"אריה בן-אליעזר 20, רמת גן",אריה בן-אליעזר 20,6186-119-27,דירה בבית קומות,5.0,שישית,107.0,2585000,,,2022.0,,7.0,3519853250,1,6186119,False,,רמת גן,בן אליעזר אריה,,6186-119-27,6186/119,24158.8785046729,,,2021
2021-12-09,2021-09-12,"אבטליון 11, רמת גן",אבטליון 11,6125-571-14,דירה בבית קומות,4.0,שניה,80.0,2100000,,,1950.0,,3.0,3520475097,1,6125571,False,94% ב 13.2 שנים,רמת גן,אבטליון,7.12,6125-571-14,6125/571,26250.0,32.0854117428,34.8165975002,2021
2021-12-09,2021-09-12,"הגאון אליהו 5, רמת גן",הגאון אליהו 5,6186-371-6,דירה בבית קומות,4.0,קומה ‎2‏,103.98,2510000,,,1968.0,,6.0,3519523375,1,6186371,False,42% ב 6.2 שנים,רמת גן,הגאון אליהו,6.77,6186-371-6,6186/371,24139.257549528756,32.073508387,34.8290997059,2021
2021-12-09,2021-09-12,"ז'בוטינסקי 3, רמת גן",ז'בוטינסקי 3,6109-402-202,דירה בבית קומות,5.0,שלושים ואחת,135.0,4466000,,,2017.0,,38.0,3520000657,1,6109402,False,,רמת גן,ז'בוטינסקי,,6109-402-202,6109/402,33081.48148148148,32.0822525692,34.8006846322,2021
2021-12-09,2021-09-12,"החי""ל 33, רמת גן","החי""ל 33",6145-782-2,קוטג' דו משפחתי,3.0,ראשונה,80.0,3600000,,,1960.0,,1.0,3520270067,1,6145782,False,,רמת גן,"החי""ל",,6145-782-2,6145/782,45000.0,32.0673804192,34.8260006284,2021
2021-12-09,2021-09-12,"האגדה 15, רמת גן",האגדה 15,6158-1039-1,דירה,3.0,ראשונה,84.0,1860000,1.0,,2022.0,,5.0,3520008574,1,61581039,False,,רמת גן,האגדה,,6158-1039-1,6158/1039,22142.85714285714,,,2021
2021-12-09,2021-09-12,"עוזיאל 75, רמת גן",עוזיאל 75,6145-953-9,דירה בבית קומות,3.0,שלישית,49.6,1680000,,,1960.0,,3.0,3519471175,1,6145953,False,15% ב 1.8 שנים,רמת גן,עוזיאל,8.33,6145-953-9,6145/953,33870.967741935485,32.0722538671,34.8233502726,2021
2021-12-09,2021-09-12,"ברקאי 19, רמת גן",ברקאי 19,6158-1679-11,,4.0,שישית,88.0,2450000,1.0,,2020.0,,7.0,11181264233,1,61581679,False,,רמת גן,ברקאי,,6158-1679-11,6158/1679,27840.90909090909,32.0771155138,34.8270037536,2021
2021-12-09,2021-09-12,"משה שרת 44, רמת גן",משה שרת 44,6125-350-31,דירה בבית קומות,6.0,שביעית,171.0,5295000,,,2021.0,,8.0,3519480542,1,6125350,False,,רמת גן,שרת משה,,6125-350-31,6125/350,30964.91228070176,32.0877188819,34.8169229312,2021
2021-12-09,2021-09-12,"הצבי 1, רמת גן",הצבי 1,6127-659-8,דירה בבית קומות,4.0,ראשונה,85.0,2600000,,,2010.0,,6.0,3519725563,1,6127659,False,,רמת גן,הצבי,,6127-659-8,6127/659,30588.235294117647,32.0849217016,34.8119608953,2021
2021-12-09,2021-09-12,"בר-כוכבא 34, רמת גן",בר-כוכבא 34,6145-1650-25,דירה בבית קומות,4.0,קומה ‎3‏,101.23,2600000,,,2019.0,,10.0,3520203280,1,61451650,False,,רמת גן,בר כוכבא,,6145-1650-25,6145/1650,25684.08574533241,32.0707230988,34.8257811604,2021
2021-12-09,2021-09-12,"רננים 2, רמת גן",רננים 2,6203-141-40,דירה,5.0,שישית,129.0,4455849,1.0,,2022.0,,8.0,3520085337,1,6203141,False,,רמת גן,רננים,,6203-141-40,6203/141,34541.46511627907,32.0928424979,34.8147862776,2021
2021-12-08,2021-08-12,"ארנון 3, רמת גן",ארנון 3,6180-176-50,דירה בבית קומות,4.0,שניה,96.0,2400000,1.0,,2021.0,,7.0,3519274526,1,6180176,False,,רמת גן,ארנון,,6180-176-50,6180/176,25000.0,32.0604823912,34.8288846876,2021
2021-12-08,2021-08-12,"המאה ואחד 35, רמת גן",המאה ואחד 35,6144-249-1,קרקע למגורים,,,143.0,6200000,,,,,,3519330960,1,6144249,False,,רמת גן,המאה ואחד,,6144-249-1,6144/249,43356.64335664336,32.0557766804,34.8206849417,2021
2021-12-08,2021-08-12,"בית חורון 8, רמת גן",בית חורון 8,6127-853-18,דירה בבית קומות,4.0,חמישית,65.7,2320000,,,1960.0,,6.0,3518203614,1,6127853,False,186% ב 14.5 שנים,רמת גן,בית חורון,12.83,6127-853-18,6127/853,35312.02435312024,32.0839711288,34.8106432697,2021
2021-12-08,2021-08-12,"חורגין 52, רמת גן",חורגין 52,6158-771-7,דירה בבית קומות,5.0,חמישית,107.0,2620000,,,2020.0,,5.0,3519070221,1,6158771,False,,רמת גן,חורגין,,6158-771-7,6158/771,24485.98130841121,32.0732680469,34.8245520201,2021
2021-12-08,2021-08-12,"הפודים 15, רמת גן",הפודים 15,6204-306-9,דירה בבית קומות,2.0,ראשונה,57.0,1505000,,,1960.0,,3.0,3519328814,1,6204306,False,,רמת גן,הפודים,,6204-306-9,6204/306,26403.508771929824,32.0918287429,34.8178987111,2021
2021-12-08,2021-08-12,"החשמונאים 28, רמת גן",החשמונאים 28,6128-111-8,דירה בבית קומות,3.0,ראשונה,89.0,2770000,,,2012.0,,4.0,3518391679,1,6128111,False,,רמת גן,החשמונאים,,6128-111-8,6128/111,31123.595505617977,32.0809582561,34.8091495464,2021
2021-12-08,2021-08-12,"אבא הלל 50, רמת גן",אבא הלל 50,6205-743-3,דירה בבית קומות,3.0,שניה,57.9,2075000,,,1991.0,,3.0,3518874007,1,6205743,False,28% ב 3.2 שנים,רמת גן,אבא הלל,8.75,6205-743-3,6205/743,35837.65112262522,32.0890429309,34.8090615181,2021
2021-12-08,2021-08-12,"ז'בוטינסקי 8, רמת גן",ז'בוטינסקי 8,6128-926-113,דירה בבית קומות,3.0,עשרים וחמש,81.0,3621000,,,2020.0,,44.0,3519098177,1,6128926,False,,רמת גן,ז'בוטינסקי,,6128-926-113,6128/926,44703.7037037037,32.0826629807,34.8044700429,2021
2021-12-08,2021-08-12,"יוסף קארו 6, רמת גן",יוסף קארו 6,6186-709-1,דירה בבית קומות,3.0,ראשונה,64.0,1880000,,,2020.0,,1.0,3518626434,1,6186709,False,,רמת גן,קארו יוסף,,6186-709-1,6186/709,29375.0,32.0679942407,34.8290727415,2021
2021-12-08,2021-08-12,,,6204-61-30,דירה,4.0,רביעית,95.0,2645849,1.0,,2025.0,,,3519221398,2,620461,False,76% ב 3.5 שנים,רמת גן,הפודים,21.71,6204-61-30,6204/61,27851.04210526316,32.0923882698,34.8201778984,2021
2021-12-08,2021-08-12,"משה דיין 33, רמת גן",משה דיין 33,6181-248-1,דירה בבית קומות,3.0,ראשונה,69.0,1905000,,,1960.0,,3.0,3518553441,1,6181248,False,,רמת גן,דיין משה,,6181-248-1,6181/248,27608.695652173912,32.0617821767,34.8270041885,2021
2021-12-07,2021-07-12,"קריניצי 51, רמת גן",קריניצי 51,6126-293-22,דירה,4.0,,88.0,2520896,1.0,,2021.0,,8.0,11181261521,1,6126293,False,,רמת גן,קריניצי,,6126-293-22,6126/293,28646.545454545456,32.0831914675,34.8190007078,2021
2021-12-07,2021-07-12,"קריניצי 51, רמת גן",קריניצי 51,6126-293-21,דירה בבית קומות,4.0,רביעית,88.0,1260000,,,2021.0,,8.0,3516843514,1,6126293,False,,רמת גן,קריניצי,,6126-293-21,6126/293,14318.181818181818,32.0831914675,34.8190007078,2021
2021-12-07,2021-07-12,"קריניצי 13, רמת גן",קריניצי 13,6126-178-16,דירה בבית קומות,3.0,רביעית,55.88,1800000,,,1970.0,,4.0,3517222747,1,6126178,False,,רמת גן,קריניצי,,6126-178-16,6126/178,32211.882605583392,32.0798468083,34.8163310714,2021
2021-12-07,2021-07-12,"חיים לנדאו 7, רמת גן",חיים לנדאו 7,6186-658-124,דירה בבית קומות,5.0,תשיעית,126.05,3200000,,,1999.0,,25.0,3517088767,1,6186658,False,,רמת גן,לנדאו חיים,,6186-658-124,6186/658,25386.751289170963,32.0715560105,34.8282376172,2021
2021-12-07,2021-07-12,"גרשום 8, רמת גן",גרשום 8,6186-473-7,דירה בבית קומות,4.0,שניה,69.24,2250000,,,2024.0,,3.0,3516938518,1,6186473,False,,רמת גן,גרשום,,6186-473-7,6186/473,32495.66724436742,32.0688776444,34.829657076,2021
2021-12-07,2021-07-12,"מוצא 18, רמת גן",מוצא 18,6158-1417-1,דירה בבית קומות,3.0,ראשונה,67.72,2180000,,,1970.0,,3.0,3516778931,1,61581417,False,,רמת גן,מוצא,,6158-1417-1,6158/1417,32191.37625516834,32.0733323101,34.8272815069,2021
2021-12-07,2021-07-12,"רוקח 15, רמת גן",רוקח 15,6205-598-36,דירה בבית קומות,3.0,חמישית,75.0,2290000,1.0,,2015.0,,5.0,3516969867,1,6205598,False,,רמת גן,רוקח,,6205-598-36,6205/598,30533.33333333333,32.0878308176,34.8106830571,2021
2021-12-07,2021-07-12,"חרות 53, רמת גן",חרות 53,6205-415-6,דירה בבית קומות,4.0,שניה,74.29,1590000,,,1989.0,,3.0,3517546938,1,6205415,False,,רמת גן,חרות,,6205-415-6,6205/415,21402.611387804547,32.0919996312,34.8159041248,2021
2021-12-07,2021-07-12,"מנחם בגין 3, רמת גן",מנחם בגין 3,6207-877-131,דירה בבית קומות,2.0,קומה ‎23‏,48.25,1900000,,,2000.0,,24.0,3517192587,1,6207877,False,85% ב 14.1 שנים,רמת גן,בגין מנחם,6.03,6207-877-131,6207/877,39378.238341968914,32.0844858541,34.7994713944,2021
2021-12-07,2021-07-12,"תש""י 1, רמת גן","תש""י 1",6128-542-21,דירה בבית קומות,3.0,חמישית,73.0,1345000,,,2021.0,,4.0,3516817675,1,6128542,False,,רמת גן,"תש""י",,6128-542-21,6128/542,18424.657534246577,32.0798288258,34.8030573583,2021
2021-12-06,2021-06-12,"שיבא 18, ",שיבא 18,7313-6-1,,5.0,ראשונה,130.0,1941317,1.0,,2019.0,,2.0,11181295102,1,73136,False,,רמת גן,שיבא,,7313-6-1,7313/6,14933.207692307691,32.0497051873,34.8408680236,2021
2021-12-06,2021-06-12,"אנה פרנק 25, רמת גן",אנה פרנק 25,6207-203-2,,3.0,שביעית,85.0,2715000,1.0,,,,5.0,11181268014,1,6207203,False,,רמת גן,אנה פרנק,,6207-203-2,6207/203,31941.176470588234,,,2021
2021-12-06,2021-06-12,"הכבאים 6, רמת גן",הכבאים 6,6181-585-13,דירה בבית קומות,5.0,שישית,115.09,2000000,,,1997.0,,7.0,3517188266,1,6181585,False,,רמת גן,הכבאים,,6181-585-13,6181/585,17377.704405248067,32.0635194139,34.8335350554,2021
2021-12-05,2021-05-12,"הכלניות 2, רמת גן",הכלניות 2,6203-93-9,דירה בבית קומות,2.0,ראשונה,46.0,1850000,,,1960.0,,3.0,3514884303,1,620393,False,,רמת גן,הכלניות,,6203-93-9,6203/93,40217.391304347824,32.0936832366,34.8168426508,2021
2021-12-05,2021-05-12,"מיכאל 12, רמת גן",מיכאל 12,6145-151-7,דירה בבית קומות,4.0,חמישית,74.0,2490000,1.0,מיכאל 12,2021.0,,3.0,3514284960,1,6145151,False,,רמת גן,מיכאל,,6145-151-7,6145/151,33648.64864864865,,,2021
2021-12-05,2021-05-12,"ז'בוטינסקי 3, רמת גן",ז'בוטינסקי 3,6109-275-123,משרד,,שבע עשרה,,240000,,,1966.0,,20.0,3515008887,1,6109275,False,,רמת גן,ז'בוטינסקי,,6109-275-123,6109/275,,32.0834052795,34.8014749201,2021
2021-12-05,2021-05-12,"הסרן דב 5, רמת גן",הסרן דב 5,6143-824-2,דירה בבית קומות,4.0,ראשונה +שניה,76.39,3400000,,,1950.0,,1.0,3514578759,1,6143824,False,,רמת גן,הסרן דב,,6143-824-2,6143/824,44508.4435135489,32.0549101153,34.8116748495,2021
2021-12-05,2021-05-12,"אלמוג 10, רמת גן",אלמוג 10,6887-22-1,דירה בבית קומות,9.0,ראשונה,300.0,7400000,,,2000.0,,1.0,3514480449,1,688722,False,,רמת גן,אלמוג,,6887-22-1,6887/22,24666.666666666668,32.0433779916,34.8329458881,2021
2021-12-05,2021-05-12,"ז'בוטינסקי 3, רמת גן",ז'בוטינסקי 3,6109-402-195,דירה בבית קומות,5.0,שלושים ושלוש,170.0,4509000,,,2017.0,,38.0,3514566376,1,6109402,False,,רמת גן,ז'בוטינסקי,,6109-402-195,6109/402,26523.529411764703,32.0822525692,34.8006846322,2021
2021-12-05,2021-05-12,"תש""י 1, רמת גן","תש""י 1",6128-542-18,דירה,4.0,שניה,96.0,2940000,1.0,,2021.0,,4.0,3514527835,1,6128542,False,,רמת גן,"תש""י",,6128-542-18,6128/542,30625.0,32.0798288258,34.8030573583,2021
2021-12-05,2021-05-12,"הפודים 48, רמת גן",הפודים 48,6204-85-1,דירה בבית קומות,3.0,קרקע,57.93,2110000,,,1988.0,,3.0,3514500778,1,620485,False,140% ב 15.2 שנים,רמת גן,הפודים,9.21,6204-85-1,6204/85,36423.26946314517,32.0932087873,34.8215806589,2021
2021-12-05,2021-05-12,"מצפה 7, רמת גן",מצפה 7,6128-242-1,דירה בבית קומות,3.0,חמישית,68.0,2180000,,,2023.0,,5.0,3514626145,1,6128242,False,,רמת גן,מצפה,,6128-242-1,6128/242,32058.82352941177,32.0822059703,34.8073766477,2021
2021-12-05,2021-05-12,"הצבי 6, רמת גן",הצבי 6,6127-437-13,דירה בבית קומות,2.0,ראשונה,47.0,1650000,,,1950.0,,3.0,3515118507,1,6127437,False,,רמת גן,הצבי,,6127-437-13,6127/437,35106.382978723406,32.0847516711,34.811251659,2021
2021-12-05,2021-05-12,"הגת 13, רמת גן",הגת 13,6125-466-10,דירה בבית קומות,3.0,שלישית,73.47,1800000,,,1970.0,,4.0,3514276608,1,6125466,False,,רמת גן,הגת,,6125-466-10,6125/466,24499.795835034707,32.0847660602,34.8212123306,2021
2021-12-05,2021-05-12,"הרכסים 5, רמת גן",הרכסים 5,6158-1611-11,דירה בבית קומות,3.0,שלישית,54.0,2450000,,,2009.0,,6.0,3514268459,1,61581611,False,122% ב 12.1 שנים,רמת גן,הרכסים,10.08,6158-1611-11,6158/1611,45370.37037037037,32.0732651964,34.8190678356,2021
2021-12-05,2021-05-12,"תל חי 17, רמת גן",תל חי 17,6186-153-12,דירה בבית קומות,4.0,רביעית,96.0,2042000,,,2021.0,,,3514851736,1,6186153,False,,רמת גן,תל חי,,6186-153-12,6186/153,21270.83333333333,,,2021
2021-12-05,2021-05-12,"פבריגט 6, רמת גן",פבריגט 6,6157-183-8,דירה בבית קומות,2.0,ראשונה,35.52,1660000,,,1950.0,,2.0,3514466790,1,6157183,False,25% ב 4.8 שנים,רמת גן,פבריגט,5.21,6157-183-8,6157/183,46734.23423423423,32.068010908,34.8175484582,2021
2021-12-04,2021-04-12,"יואב 30, רמת גן",יואב 30,6206-74-15,דירה בבית קומות,4.0,שביעית,97.0,3250000,,,2017.0,,8.0,3513152104,1,620674,False,,רמת גן,יואב,,6206-74-15,6206/74,33505.154639175256,32.0905171288,34.8087556469,2021
2021-12-04,2021-04-12,"עטרות 15, רמת גן",עטרות 15,6158-1495-16,דירה בבית קומות,3.0,שביעית,89.0,2190000,,,2021.0,,3.0,3513409740,1,61581495,False,,רמת גן,עטרות,,6158-1495-16,6158/1495,24606.74157303371,32.0743155178,34.8203608394,2021
2021-12-04,2021-04-12,"ירושלים 92, רמת גן",ירושלים 92,6186-385-4,דירה בבית קומות,4.0,ראשונה,95.0,1940000,,,1960.0,,3.0,3512956644,1,6186385,False,,רמת גן,ירושלים,,6186-385-4,6186/385,20421.052631578947,32.0744421473,34.8299135573,2021
2021-12-04,2021-04-12,"קריניצי 49, רמת גן",קריניצי 49,6126-558-11,דירה בבית קומות,3.0,רביעית,90.8,1750000,,,1974.0,,5.0,3513584639,1,6126558,False,,רמת גן,קריניצי,,6126-558-11,6126/558,19273.127753303965,32.0829901041,34.8189341905,2021
2021-12-04,2021-04-12,"ארלוזורוב 47, רמת גן",ארלוזורוב 47,6128-868-16,דירה בבית קומות,4.0,שמינית,86.43,2550000,,,2009.0,,9.0,3513136560,1,6128868,False,52% ב 8.5 שנים,רמת גן,ארלוזורוב,6.12,6128-868-16,6128/868,29503.64456785838,32.0813132329,34.8093653426,2021
2021-12-04,2021-04-12,"הנגיד 10, רמת גן",הנגיד 10,6127-607-4,דירה בבית קומות,2.0,שניה,32.0,1550000,,,2000.0,,4.0,3512960704,1,6127607,False,,רמת גן,הנגיד,,6127-607-4,6127/607,48437.5,32.0816392287,34.8136830277,2021
2021-12-04,2021-04-12,"הנח""ל 20, רמת גן","הנח""ל 20",6158-292-4,דירה בבית קומות,4.0,שניה,76.8,2100000,,,1987.0,,3.0,3512945392,1,6158292,False,,רמת גן,"הנח""ל",,6158-292-4,6158/292,27343.75,32.0752176706,34.8236886761,2021
2021-12-04,2021-04-12,"אנה פרנק 21, רמת גן",אנה פרנק 21,6207-205-6,דירה בבית קומות,4.0,שביעית,122.0,3925000,,,2020.0,,1.0,3514034719,1,6207205,False,,רמת גן,אנה פרנק,,6207-205-6,6207/205,32172.131147540986,,,2021
2021-12-04,2021-04-12,"הקונגרס 15, רמת גן",הקונגרס 15,6182-7-6,דירה בבית קומות,3.0,שלישית,62.0,2830000,,,1970.0,,3.0,3513338719,1,61827,False,,רמת גן,הקונגרס,,6182-7-6,6182/7,45645.16129032258,32.0626329068,34.8260714064,2021
2021-12-04,2021-04-12,"אסף 3, רמת גן",אסף 3,6206-46-10,דירה,3.0,,79.0,2700000,1.0,,2020.0,,4.0,3513072180,1,620646,False,,רמת גן,אסף,,6206-46-10,6206/46,34177.215189873416,32.0889038141,34.8065619669,2021
2021-12-04,2021-04-12,"אנה פרנק 2, רמת גן",אנה פרנק 2,6207-546-23,דירה בבית קומות,3.0,שניה,65.98,1930000,,,1970.0,,8.0,3513147058,1,6207546,False,,רמת גן,אנה פרנק,,6207-546-23,6207/546,29251.288269172477,32.0919421731,34.8021342857,2021
2021-12-04,2021-04-12,"שלומציון 16, רמת גן",שלומציון 16,6145-1039-5,דירה בבית קומות,4.0,שלישית,110.2,2285000,,,1960.0,,6.0,3512969317,1,61451039,False,,רמת גן,שלומציון,,6145-1039-5,6145/1039,20735.02722323049,32.0689084152,34.8258147858,2021
2021-12-02,2021-02-12,"יהודה הנשיא 14, רמת גן",יהודה הנשיא 14,6158-1138-2,דירה בבית קומות,4.0,ראשונה,69.3,1650000,,,1950.0,,3.0,3510933778,1,61581138,False,,רמת גן,יהודה הנשיא,,6158-1138-2,6158/1138,23809.52380952381,32.0780160535,34.8266343776,2021
2021-12-02,2021-02-12,"פני הגבעה 7, רמת גן",פני הגבעה 7,6205-577-2,דירה בבית קומות,1.0,קרקע,26.0,1200000,,,1960.0,,2.0,3511232652,1,6205577,False,,רמת גן,פני הגבעה,,6205-577-2,6205/577,46153.84615384616,32.0889598325,34.8097719023,2021
2021-12-02,2021-02-12,"רחובות הנהר 16, רמת גן",רחובות הנהר 16,6207-991-4,דירה בבית קומות,4.0,שישית,85.0,3200000,1.0,,2018.0,,7.0,3511159166,1,6207991,False,,רמת גן,רחובות הנהר,,6207-991-4,6207/991,37647.05882352941,32.0890608879,34.8057978428,2021
2021-12-01,2021-01-12,"החשמונאים 32, רמת גן",החשמונאים 32,6128-114-7,דירה בבית קומות,3.0,שלישית,62.0,1855000,,,1963.0,,3.0,3510426539,1,6128114,False,,רמת גן,החשמונאים,,6128-114-7,6128/114,29919.35483870968,32.0805269913,34.8091179706,2021
2021-12-01,2021-01-12,"יצחק רבין 14, רמת גן",יצחק רבין 14,6144-608-22,דירה,4.0,עשירית,96.0,2405895,1.0,עלומים,2022.0,,9.0,3510667007,1,6144608,False,,רמת גן,יצחק רבין,,6144-608-22,6144/608,25061.40625,32.0623223709,34.820440527,2021
2021-12-01,2021-01-12,"סורא 4, רמת גן",סורא 4,6183-96-6,דירה בבית קומות,1.0,שניה,24.8,1120000,,,1960.0,,2.0,3509441322,1,618396,False,0% ב 0.5 שנים,רמת גן,סורא,0.0,6183-96-6,6183/96,45161.29032258064,32.0696641576,34.8351716543,2021
2021-12-01,2021-01-12,"לוי 2, רמת גן",לוי 2,6128-908-1,דירה בבית קומות,4.0,שניה,77.0,2380000,,,2019.0,,4.0,3509444193,1,6128908,False,,רמת גן,לוי,,6128-908-1,6128/908,30909.090909090908,32.0834552572,34.8091730037,2021
2021-12-01,2021-01-12,"הראשונים 20, רמת גן",הראשונים 20,6128-447-3,דירה בבית קומות,2.0,קרקע,38.0,1500000,,,1956.0,,3.0,3509534644,1,6128447,False,11% ב 9.5 שנים,רמת גן,הראשונים,1.16,6128-447-3,6128/447,39473.68421052631,32.0804041194,34.8034962716,2021
2021-12-01,2021-01-12,"קדמה 7, רמת גן",קדמה 7,6158-800-11,דירה בבית קומות,2.0,שניה,38.98,1580000,,,2001.0,,5.0,3510707955,1,6158800,False,,רמת גן,קדמה,,6158-800-11,6158/800,40533.60697793741,32.0739294414,34.8265785284,2021
2021-12-01,2021-01-12,"החולה 8, רמת גן",החולה 8,6181-712-4,דירה,4.0,,116.0,25353000,1.0,,2020.0,,4.0,11181266018,1,6181712,False,,רמת גן,החולה,,6181-712-4,6181/712,218560.3448275862,32.0610731643,34.8333820583,2021
2021-11-30,2021-11-30,"ההלכה 6, רמת גן",ההלכה 6,6158-1184-20,דירה בבית קומות,3.0,שמינית,76.0,2200000,,,2021.0,,5.0,3522898453,1,61581184,False,,רמת גן,ההלכה,,6158-1184-20,6158/1184,28947.36842105263,,,2021
2021-11-30,2021-11-30,"ז'בוטינסקי 8, רמת גן",ז'בוטינסקי 8,6128-926-169,דירה בבית קומות,1.0,רביעית,111.0,4145000,,,2020.0,,44.0,3523193731,1,6128926,False,,רמת גן,ז'בוטינסקי,,6128-926-169,6128/926,37342.342342342345,32.0826629807,34.8044700429,2021
2021-11-30,2021-11-30,"שלם 9, רמת גן",שלם 9,6142-111-5,דירה בבית קומות,3.0,רביעית,71.0,2080000,,,2023.0,,5.0,3523154668,1,6142111,False,,רמת גן,שלם,,6142-111-5,6142/111,29295.774647887323,32.0523060179,34.8143533731,2021
2021-11-30,2021-11-30,"דוד בן-גוריון 132, רמת גן",דוד בן-גוריון 132,6126-578-3,דירה בבית קומות,4.0,שניה,77.5,2260000,,,1970.0,,3.0,3522642209,1,6126578,False,15% ב 1.8 שנים,רמת גן,בן גוריון דוד,8.33,6126-578-3,6126/578,29161.290322580644,32.0813955378,34.8200628898,2021
2021-11-30,2021-11-30,"אחד העם 14, רמת גן",אחד העם 14,6141-139-26,דירה בבית קומות,6.0,שלושים ואחת,152.0,5900000,,,2017.0,,20.0,6072610250,1,6141139,False,,רמת גן,אחד העם,,6141-139-26,6141/139,38815.78947368421,32.0478082079,34.8169712607,2021
2021-11-30,2021-11-30,"אחד העם 14, רמת גן",אחד העם 14,6141-139-36,דירה בבית קומות,5.0,שביעית,120.0,3070000,,,2017.0,,20.0,6072339650,1,6141139,False,,רמת גן,אחד העם,,6141-139-36,6141/139,25583.33333333333,32.0478082079,34.8169712607,2021
2021-11-30,2021-11-30,,,6175-62-8,דירה בבית קומות,3.0,שניה,37.0,3040000,,,2024.0,,,3522785498,2,617562,False,11% ב 0.2 שנים,רמת גן,אחד העם,55.0,6175-62-8,6175/62,82162.16216216216,32.050635831,34.8222786249,2021
2021-11-30,2021-11-30,"חצור 15, רמת גן",חצור 15,6158-889-33,דירה בבית קומות,3.0,ראשונה,87.0,2300000,,,2021.0,,9.0,3523866444,1,6158889,False,,רמת גן,חצור,,6158-889-33,6158/889,26436.7816091954,,,2021
2021-11-30,2021-11-30,"הרכסים 77, רמת גן",הרכסים 77,6158-1419-18,דירה בבית קומות,3.0,חמישית,80.0,2330000,,,2022.0,,3.0,3547259816,1,61581419,False,,רמת גן,הרכסים,,6158-1419-18,6158/1419,29125.0,32.0730738122,34.827650117,2021
2021-11-30,2021-11-30,"הכבאים 19, רמת גן",הכבאים 19,6181-655-39,דירה בבית קומות,5.0,עשירית,117.43,2850000,,,1993.0,,12.0,3522905413,1,6181655,False,278% ב 18 שנים,רמת גן,הכבאים,15.44,6181-655-39,6181/655,24269.77773993017,32.063386873,34.8357852629,2021
2021-11-29,2021-11-29,"אלוף דוד 3, רמת גן",אלוף דוד 3,6156-575-2,דירה בבית קומות,2.0,קרקע,37.88,2400000,,,1960.0,,2.0,3522844600,1,6156575,False,,רמת גן,אלוף דוד,,6156-575-2,6156/575,63357.97254487856,32.0580159084,34.8121986556,2021
2021-11-29,2021-11-29,"אסף 5, רמת גן",אסף 5,6206-45-7,מחסנים,,ראשונה,,153000,,,2020.0,,3.0,3523112357,1,620645,False,,רמת גן,אסף,,6206-45-7,6206/45,,32.0890025757,34.8067369089,2021
2021-11-29,2021-11-29,"גרנדוס 5, רמת גן",גרנדוס 5,6157-152-8,דירה בבית קומות,2.0,ראשונה,50.0,1950000,,,1950.0,,2.0,3522985801,1,6157152,False,,רמת גן,גרנדוס,,6157-152-8,6157/152,39000.0,32.0703919263,34.8183917953,2021
2021-11-29,2021-11-29,"חצור 15, רמת גן",חצור 15,6158-889-32,דירה,3.0,,87.0,2300000,1.0,,2021.0,,9.0,11181264587,1,6158889,False,,רמת גן,חצור,,6158-889-32,6158/889,26436.7816091954,,,2021
2021-11-29,2021-11-29,"עוזיאל 34, רמת גן",עוזיאל 34,6158-441-2,דירה בבית קומות,4.0,ראשונה,80.4,2380000,,,1999.0,,8.0,3522676197,1,6158441,False,,רמת גן,עוזיאל,,6158-441-2,6158/441,29601.990049751243,32.0764621035,34.8230481674,2021
2021-11-29,2021-11-29,"הביל""ויים 39, רמת גן","הביל""ויים 39",6180-431-7,דירה בבית קומות,3.0,רביעית,66.0,2250000,,,1970.0,,4.0,3522656100,1,6180431,False,35% ב 2.5 שנים,רמת גן,הבילויים,14.0,6180-431-7,6180/431,34090.90909090909,32.0602594451,34.8261995549,2021
2021-11-29,2021-11-29,"אסף 5, רמת גן",אסף 5,6206-45-8,אחר,1.0,,25.0,179660,1.0,,2020.0,,3.0,11181267893,1,620645,False,,רמת גן,אסף,,6206-45-8,6206/45,7186.4,32.0890025757,34.8067369089,2021
2021-11-29,2021-11-29,"הילד 1, רמת גן",הילד 1,6127-142-5,קומבינציה,,,,64768000,,,2028.0,,6.0,3538684893,1,6127142,False,,רמת גן,הילד,,6127-142-5,6127/142,,32.0870424667,34.8131075449,2021
2021-11-29,2021-11-29,"הילד 1, רמת גן",הילד 1,6127-142-4,קומבינציה,,,,52348000,,,2028.0,,6.0,3523087939,1,6127142,False,,רמת גן,הילד,,6127-142-4,6127/142,,32.0870424667,34.8131075449,2021
2021-11-28,2021-11-28,"חירות 22, רמת גן",חירות 22,6205-478-6,דירה בבית קומות,4.0,ראשונה,94.0,3048000,,,2021.0,,6.0,3523899678,1,6205478,False,,רמת גן,חרות,,6205-478-6,6205/478,32425.531914893618,32.0898468637,34.8123195113,2021
2021-11-28,2021-11-28,"גרנדוס 15, רמת גן",גרנדוס 15,6157-157-4,דירה בבית קומות,5.0,שניה,157.0,3725000,,,1950.0,,1.0,3523138660,1,6157157,False,,רמת גן,גרנדוס,,6157-157-4,6157/157,23726.114649681527,32.0701706639,34.8196374745,2021
2021-11-28,2021-11-28,"הלפיד 3, רמת גן",הלפיד 3,6204-214-14,דירה בבית קומות,4.0,רביעית,84.75,2110000,,,1994.0,,6.0,3522590299,1,6204214,False,16% ב 1.9 שנים,רמת גן,הלפיד,8.42,6204-214-14,6204/214,24896.755162241887,32.0921769212,34.8217581585,2021
2021-11-28,2021-11-28,"שושנים 5, רמת גן",שושנים 5,6203-208-13,דירה בבית קומות,4.0,רביעית,93.5,4100000,,,1970.0,,8.0,3522583107,1,6203208,False,,רמת גן,שושנים,,6203-208-13,6203/208,43850.26737967914,32.0944611719,34.8139800461,2021
2021-11-28,2021-11-28,"הרב חבה אליה 23, רמת גן",הרב חבה אליה 23,6127-593-7,דירה בבית קומות,4.0,שניה,90.0,2800000,,,2024.0,,2.0,3522529312,1,6127593,False,166% ב 11.6 שנים,רמת גן,הרב חבה אליהו,14.31,6127-593-7,6127/593,31111.11111111111,32.0797857953,34.8097209318,2021
2021-11-28,2021-11-28,"הסנה 15, רמת גן",הסנה 15,6158-1082-13,דירה בבית קומות,3.0,שלישית,71.0,1905000,,,1950.0,2025.0,5.0,3523032955,1,61581082,False,,רמת גן,הסנה,,6158-1082-13,6158/1082,26830.98591549296,32.0749830113,34.8246260968,2021
2021-11-28,2021-11-28,"אבטליון 9, רמת גן",אבטליון 9,6125-570-12,דירה בבית קומות,3.0,ראשונה,80.0,2160000,,,1950.0,,2.0,3522636003,1,6125570,False,,רמת גן,אבטליון,,6125-570-12,6125/570,27000.0,32.0856348465,34.8165650297,2021
2021-11-28,2021-11-28,"נתן 2, רמת גן",נתן 2,6126-479-26,דירה בבית קומות,4.0,ראשונה,71.0,2110000,,,1950.0,,6.0,3522531951,1,6126479,False,83% ב 11 שנים,רמת גן,נתן,7.55,6126-479-26,6126/479,29718.309859154928,32.0835630753,34.8173652774,2021
2021-11-28,2021-11-28,"ז'בוטינסקי 75, רמת גן",ז'בוטינסקי 75,6205-241-1,מחסנים,,קרקע,68.4,320000,,,1950.0,,3.0,3523869315,1,6205241,False,,רמת גן,ז'בוטינסקי,,6205-241-1,6205/241,4678.362573099415,32.0872695446,34.812453012,2021
2021-11-28,2021-11-28,"ז'בוטינסקי 75, רמת גן",ז'בוטינסקי 75,6205-241-7,חנות,,חנויות,,316000,,,1950.0,,3.0,3523893472,1,6205241,False,,רמת גן,ז'בוטינסקי,,6205-241-7,6205/241,,32.0872695446,34.812453012,2021
2021-11-28,2021-11-28,"ז'בוטינסקי 75, רמת גן",ז'בוטינסקי 75,6205-241-6,חנות,,חנויות,24.5,311000,,,1950.0,,3.0,3523889644,1,6205241,False,,רמת גן,ז'בוטינסקי,,6205-241-6,6205/241,12693.877551020409,32.0872695446,34.812453012,2021
2021-11-28,2021-11-28,"ז'בוטינסקי 75, רמת גן",ז'בוטינסקי 75,6205-241-5,חנות,,חנויות,24.0,273000,,,1950.0,,3.0,3523897039,1,6205241,False,,רמת גן,ז'בוטינסקי,,6205-241-5,6205/241,11375.0,32.0872695446,34.812453012,2021
2021-11-27,2021-11-27,"ז'בוטינסקי 92, רמת גן",ז'בוטינסקי 92,6125-193-3,קומבינציה,,קרקע,70.0,2748000,,,1957.0,,2.0,3538894476,1,6125193,False,,רמת גן,ז'בוטינסקי,,6125-193-3,6125/193,39257.142857142855,32.0883132099,34.8157106802,2021
2021-11-26,2021-11-26,"קלאוזנר 5, רמת גן",קלאוזנר 5,6126-386-1,דירה בבית קומות,6.0,ראשונה,137.5,1850000,,,1960.0,,2.0,3523717819,1,6126386,False,23% ב 8.5 שנים,רמת גן,קלאוזנר,2.71,6126-386-1,6126/386,13454.545454545454,32.0811717681,34.8167567215,2021
2021-11-26,2021-11-26,"שאנן 13, רמת גן",שאנן 13,6126-399-2,קוטג' חד משפחתי,1.0,ראשונה,,4100000,,,1950.0,2011.0,1.0,3523728143,1,6126399,False,,רמת גן,שאנן,,6126-399-2,6126/399,,32.0807869494,34.8175900513,2021
2021-11-26,2021-11-26,"אנה פרנק 25, רמת גן",אנה פרנק 25,6207-203-14,דירה בבית קומות,3.0,ראשונה,85.0,3379000,,,2022.0,,5.0,3523437737,1,6207203,False,,רמת גן,אנה פרנק,,6207-203-14,6207/203,39752.94117647059,,,2021
2021-11-26,2021-11-26,"אבני החושן 8, רמת גן",אבני החושן 8,6187-524-90,דירה בבית קומות,5.0,תשיעית,113.0,3080000,,,2013.0,,20.0,3523722401,1,6187524,False,,רמת גן,אבני החושן,,6187-524-90,6187/524,27256.63716814159,32.0709286258,34.8348584485,2021
2021-11-26,2021-11-26,"חצור 16, רמת גן",חצור 16,6158-1321-8,דירה בבית קומות,4.0,שלישית,123.0,2879000,,,2017.0,,8.0,3523182682,1,61581321,False,,רמת גן,חצור,,6158-1321-8,6158/1321,23406.50406504065,32.0773602498,34.8246744857,2021
2021-11-26,2021-11-26,"הטייסים 3, רמת גן",הטייסים 3,6142-89-113,דירה בבית קומות,4.0,עשרים ושלוש,90.0,3386000,,,2022.0,,2.0,3523761348,1,614289,False,,רמת גן,הטייסים,,6142-89-113,6142/89,37622.22222222222,32.0522614976,34.8136094452,2021
2021-11-26,2021-11-26,"הררי 2, רמת גן",הררי 2,6180-339-7,דירה בבית קומות,4.0,שלישית,113.0,2225000,,,1950.0,,3.0,3523530450,1,6180339,False,,רמת גן,הררי,,6180-339-7,6180/339,19690.265486725664,32.0589882249,34.8289386131,2021
2021-11-26,2021-11-26,"האגדה 15, רמת גן",האגדה 15,6158-1039-5,דירה,4.0,שישית,98.0,2200000,1.0,,2022.0,,5.0,3523636532,1,61581039,False,,רמת גן,האגדה,,6158-1039-5,6158/1039,22448.97959183673,,,2021
2021-11-25,2021-11-25,"הרצל 53, רמת גן",הרצל 53,6127-912-14,מחסנים,,קרקע,,75000,,,1940.0,,4.0,3522483840,1,6127912,False,,רמת גן,הרצל,,6127-912-14,6127/912,,32.0844007981,34.8150755079,2021
2021-11-25,2021-11-25,"אחד העם 16, רמת גן",אחד העם 16,6141-140-11,חניה,,,,500000,,,0.0,,9.0,6072153550,1,6141140,False,,רמת גן,אחד העם,,6141-140-11,6141/140,,32.0479436693,34.8174756753,2021
2021-11-25,2021-11-25,"שלם 9, רמת גן",שלם 9,6142-111-4,דירה בבית קומות,3.0,ראשונה,71.0,2070000,,,2023.0,,5.0,3522959962,1,6142111,False,,רמת גן,שלם,,6142-111-4,6142/111,29154.929577464787,32.0523060179,34.8143533731,2021
2021-11-25,2021-11-25,"חורגין 29, רמת גן",חורגין 29,6158-696-5,דירה,2.0,רביעית,47.0,1630000,1.0,,1950.0,2022.0,4.0,3522893639,1,6158696,False,,רמת גן,חורגין,,6158-696-5,6158/696,34680.85106382979,32.0736794815,34.8221598525,2021
2021-11-25,2021-11-25,,,6142-86-34,,4.0,עשרים וארבע,90.0,3375000,1.0,,,,,11181263403,2,614286,False,,רמת גן,הטייסים,,6142-86-34,6142/86,37500.0,32.0529191023,34.8131483936,2021
2021-11-25,2021-11-25,"בני הנביאים 17, רמת גן",בני הנביאים 17,6143-925-6,קרקע למגורים,,ראשונה,58.27,4040000,,,,,1.0,3522596331,1,6143925,False,,רמת גן,בני הנביאים,,6143-925-6,6143/925,69332.41805388707,32.0529755199,34.8204021471,2021
2021-11-25,2021-11-25,"יואב 16, רמת גן",יואב 16,6206-67-12,דירה בבית קומות,4.0,שישית,96.0,3750000,,,2021.0,,7.0,3522643398,1,620667,False,,רמת גן,יואב,,6206-67-12,6206/67,39062.5,32.0897997533,34.8075342901,2021
2021-11-25,2021-11-25,"רות 1, רמת גן",רות 1,6207-604-11,דירה בבית קומות,7.0,שביעית,150.0,6600000,,,2023.0,,3.0,3522981973,1,6207604,False,,רמת גן,רות,,6207-604-11,6207/604,44000.0,32.0906575172,34.8056236077,2021
2021-11-25,2021-11-25,"הסנה 13, רמת גן",הסנה 13,6158-1083-2,דירה בבית קומות,4.0,שמינית,100.0,2690000,1.0,,2021.0,,5.0,3523680264,1,61581083,False,,רמת גן,הסנה,,6158-1083-2,6158/1083,26900.0,,,2021
2021-11-25,2021-11-25,"מאיר אבנר 2, רמת גן",מאיר אבנר 2,6182-25-11,דירה בבית קומות,4.0,ראשונה,92.0,2400000,,,2021.0,,5.0,3522994878,1,618225,False,,רמת גן,אבנר מאיר,,6182-25-11,6182/25,26086.95652173913,32.0634138007,34.8275344032,2021
2021-11-25,2021-11-25,"יעלים 7, רמת גן",יעלים 7,6203-194-2,קוטג' דו משפחתי,6.0,"ראשונה , שניה וגג",151.9,7250000,,,1960.0,,1.0,3523292766,1,6203194,False,,רמת גן,יעלים,,6203-194-2,6203/194,47728.76892692561,32.0948394497,34.8157024116,2021
2021-11-25,2021-11-25,"פנחס 29, רמת גן",פנחס 29,6145-440-2,דירה בבית קומות,3.0,ראשונה,57.64,2170000,,,1965.0,,3.0,3522906631,1,6145440,False,40% ב 6.9 שנים,רמת גן,פנחס,5.8,6145-440-2,6145/440,37647.46703678001,32.0641391477,34.8240194767,2021
2021-11-25,2021-11-25,"ארלוזורוב 70, רמת גן",ארלוזורוב 70,6128-829-14,קרקע למגורים,4.0,רביעית,80.0,2650000,,,1970.0,,4.0,3522687971,1,6128829,False,155% ב 15.6 שנים,רמת גן,ארלוזורוב,9.94,6128-829-14,6128/829,33125.0,32.0816152585,34.8076485959,2021
2021-11-25,2021-11-25,"ז'בוטינסקי 8, רמת גן",ז'בוטינסקי 8,6128-926-126,דירה בבית קומות,4.0,שניה,112.0,4205000,,,2020.0,,44.0,3523313559,1,6128926,False,,רמת גן,ז'בוטינסקי,,6128-926-126,6128/926,37544.642857142855,32.0826629807,34.8044700429,2021
2021-11-25,2021-11-25,"אלוף דוד 45, רמת גן",אלוף דוד 45,6156-82-1,קרקע למגורים,,,100.0,3500000,,,,,,3522496977,1,615682,False,,רמת גן,אלוף דוד,,6156-82-1,6156/82,35000.0,32.0582272179,34.8171031101,2021
2021-11-25,2021-11-25,"פנקס 6, רמת גן",פנקס 6,6186-80-0,קרקע למגורים,,,1039.0,17640000,,,2022.0,,3.0,3538296786,1,618680,False,,רמת גן,פנקס,,6186-80-0,6186/80,16977.86333012512,32.0692810104,34.8306344215,2021
2021-11-25,2021-11-25,"ביאליק 105, רמת גן",ביאליק 105,6207-502-13,דירה בבית קומות,3.0,רביעית,55.18,1950000,,,1970.0,,5.0,3523667098,1,6207502,False,21% ב 3.2 שנים,רמת גן,ביאליק,6.56,6207-502-13,6207/502,35338.890902500905,32.0876012459,34.8056485284,2021
2021-11-25,2021-11-25,"ביאליק 130, רמת גן",ביאליק 130,6207-606-10,דירה בבית קומות,3.0,חמישית,58.36,1400000,,,1965.0,,5.0,3522659667,1,6207606,False,,רמת גן,ביאליק,,6207-606-10,6207/606,23989.03358464702,32.0884735974,34.8050649706,2021
2021-11-25,2021-11-25,"העמל 1, רמת גן",העמל 1,6204-364-15,דירה בבית קומות,2.0,שניה,48.0,1450000,,,1950.0,,4.0,3523510875,1,6204364,False,,רמת גן,העמל,,6204-364-15,6204/364,30208.33333333333,32.0929861625,34.8178551123,2021
2021-11-25,2021-11-25,"בית חורון 8, רמת גן",בית חורון 8,6127-853-14,דירה בבית קומות,3.0,רביעית,65.7,2540000,,,1960.0,,6.0,3523054502,1,6127853,False,,רמת גן,בית חורון,,6127-853-14,6127/853,38660.57838660578,32.0839711288,34.8106432697,2021
2021-11-25,2021-11-25,"ביאליק 112, רמת גן",ביאליק 112,6205-288-1,דירה בבית קומות,3.0,מרתף,70.0,1740000,,,1950.0,,2.0,3522627158,1,6205288,False,,רמת גן,ביאליק,,6205-288-1,6205/288,24857.14285714286,32.0872373599,34.8068682936,2021
2021-11-25,2021-11-25,"ז'בוטינסקי 8, רמת גן",ז'בוטינסקי 8,6128-926-125,דירה בבית קומות,3.0,עשרים ואחת,81.0,3401000,,,2020.0,,44.0,3523046324,1,6128926,False,,רמת גן,ז'בוטינסקי,,6128-926-125,6128/926,41987.654320987655,32.0826629807,34.8044700429,2021
2021-11-24,2021-11-24,"גאולים 10, רמת גן",גאולים 10,6205-337-9,דירה בבית קומות,2.0,שלישית,48.0,1750000,,,1965.0,,3.0,3522512086,1,6205337,False,30% ב 7.8 שנים,רמת גן,גאולים,3.85,6205-337-9,6205/337,36458.333333333336,32.0905913732,34.8154847746,2021
2021-11-24,2021-11-24,"הרא""ה 196, רמת גן","הרא""ה 196",6145-858-0,קומבינציה,,,675.0,12376000,,,2023.0,,3.0,3523369297,1,6145858,False,,רמת גן,"הרא""ה",,6145-858-0,6145/858,18334.81481481481,32.0687203251,34.8241737122,2021
2021-11-24,2021-11-24,"מאיר אבנר 2, רמת גן",מאיר אבנר 2,6182-25-9,דירה בבית קומות,3.0,ראשונה,56.0,1790000,,,2021.0,,5.0,3522955902,1,618225,False,,רמת גן,אבנר מאיר,,6182-25-9,6182/25,31964.285714285717,32.0634138007,34.8275344032,2021
2021-11-24,2021-11-24,"יואב 16, רמת גן",יואב 16,6206-67-11,,4.0,שישית,96.0,3750000,1.0,,2021.0,,7.0,11181267924,1,620667,False,,רמת גן,יואב,,6206-67-11,6206/67,39062.5,32.0897997533,34.8075342901,2021
2021-11-24,2021-11-24,"סוקולוב 13, רמת גן",סוקולוב 13,6204-166-6,דירה בבית קומות,3.0,שלישית,61.35,2120000,,,1920.0,,4.0,3522397478,1,6204166,False,130% ב 12.5 שנים,רמת גן,סוקולוב,10.4,6204-166-6,6204/166,34555.827220863895,32.0913543784,34.8194551633,2021
2021-11-24,2021-11-24,"יואב 28, רמת גן",יואב 28,6206-73-0,חניה,,,1198.0,100000,,,0.0,,10.0,3522550105,1,620673,False,,רמת גן,יואב,,6206-73-0,6206/73,83.47245409015025,32.0904149934,34.8085809051,2021
2021-11-24,2021-11-24,"הילד 1, רמת גן",הילד 1,6127-142-3,דירה בבית קומות,1.0,ראשונה,,983000,,,2028.0,,6.0,3523704160,1,6127142,False,,רמת גן,הילד,,6127-142-3,6127/142,,32.0870424667,34.8131075449,2021
2021-11-24,2021-11-24,"המכבי 5, רמת גן",המכבי 5,6128-259-7,דירה בבית קומות,2.0,שניה,48.0,925000,,,1950.0,,3.0,3523008044,1,6128259,False,,רמת גן,המכבי,,6128-259-7,6128/259,19270.83333333333,32.0827441577,34.8089435492,2021
2021-11-24,2021-11-24,"סוקולוב 19, רמת גן",סוקולוב 19,6204-684-9,דירה בבית קומות,3.0,שלישית,62.0,2430000,1.0,,2015.0,,8.0,3522408208,1,6204684,False,105% ב 6.6 שנים,רמת גן,סוקולוב,15.91,6204-684-9,6204/684,39193.54838709677,32.0919880202,34.8196221676,2021
2021-11-24,2021-11-24,"ז'בוטינסקי 8, רמת גן",ז'בוטינסקי 8,6128-926-124,דירה בבית קומות,4.0,ארבעים ושמונה,110.0,5425000,,,2020.0,,44.0,3522439354,1,6128926,False,,רמת גן,ז'בוטינסקי,,6128-926-124,6128/926,49318.181818181816,32.0826629807,34.8044700429,2021
2021-11-24,2021-11-24,,,6159-341-7,דירה בבית קומות,3.0,ראשונה,87.0,330000,,,1950.0,,,3522443646,2,6159341,False,,רמת גן,הבנים,,6159-341-7,6159/341,3793.103448275862,32.0841603101,34.82463042,2021
2021-11-24,2021-11-24,"הרא""ה 128, רמת גן","הרא""ה 128",6158-863-10,דירה בבית קומות,3.0,ראשונה,64.9,1800000,,,1950.0,,2.0,3539028630,1,6158863,False,,רמת גן,"הרא""ה",,6158-863-10,6158/863,27734.976887519257,32.076970417,34.8249853649,2021
2021-11-24,2021-11-24,"ברקאי 1, רמת גן",ברקאי 1,6158-1325-1,דירה בבית קומות,3.0,ראשונה,63.0,1910000,,,1960.0,,3.0,3522462554,1,61581325,False,,רמת גן,ברקאי,,6158-1325-1,6158/1325,30317.46031746032,32.0771668592,34.8253623081,2021
2021-11-24,2021-11-24,"החשמונאים 28, רמת גן",החשמונאים 28,6128-111-7,דירה בבית קומות,2.0,שישית,59.0,1800000,,,2012.0,,4.0,3523640621,1,6128111,False,,רמת גן,החשמונאים,,6128-111-7,6128/111,30508.474576271183,32.0809582561,34.8091495464,2021
2021-11-24,2021-11-24,"מאיר אבנר 2, רמת גן",מאיר אבנר 2,6182-25-10,,4.0,ראשונה,92.0,2400000,1.0,,2021.0,,5.0,11181266157,1,618225,False,,רמת גן,אבנר מאיר,,6182-25-10,6182/25,26086.95652173913,32.0634138007,34.8275344032,2021
2021-11-23,2021-11-23,"הסנה 13, רמת גן",הסנה 13,6158-1083-20,דירה בבית קומות,4.0,חמישית,101.0,2500000,1.0,,2022.0,,5.0,3523448960,1,61581083,False,,רמת גן,הסנה,,6158-1083-20,6158/1083,24752.47524752475,,,2021
2021-11-23,2021-11-23,"ז'בוטינסקי 8, רמת גן",ז'בוטינסקי 8,6128-926-170,דירה בבית קומות,3.0,ארבעים,84.0,4103000,,,2020.0,,44.0,3522644152,1,6128926,False,,רמת גן,ז'בוטינסקי,,6128-926-170,6128/926,48845.23809523809,32.0826629807,34.8044700429,2021
2021-11-23,2021-11-23,"מרים 7, רמת גן",מרים 7,6127-728-4,דירה בבית קומות,2.0,ראשונה,46.0,1870000,,,1960.0,,4.0,3522330227,1,6127728,False,,רמת גן,מרים,,6127-728-4,6127/728,40652.17391304348,32.0783387192,34.8138272393,2021
2021-11-23,2021-11-23,"מיכאל 20, רמת גן",מיכאל 20,6145-1046-6,דירה בבית קומות,3.0,ראשונה,65.0,1073000,,,1960.0,,3.0,3539068389,1,61451046,False,,רמת גן,מיכאל,,6145-1046-6,6145/1046,16507.69230769231,32.0704906091,34.8273606376,2021
2021-11-23,2021-11-23,"מאיר אבנר 2, רמת גן",מאיר אבנר 2,6182-25-8,,3.0,ראשונה,56.0,1790000,1.0,,2021.0,,5.0,11181266162,1,618225,False,,רמת גן,אבנר מאיר,,6182-25-8,6182/25,31964.285714285717,32.0634138007,34.8275344032,2021
2021-11-23,2021-11-23,"הררי 12, רמת גן",הררי 12,6180-334-63,דירה בבית קומות,5.0,אחת עשרה,115.0,2706000,1.0,,2025.0,,2.0,3523078862,1,6180334,False,,רמת גן,הררי,,6180-334-63,6180/334,23530.434782608696,32.0584213793,34.830868265,2021
2021-11-23,2021-11-23,"הרב חבה אליה 5, רמת גן",הרב חבה אליה 5,6127-558-5,דירה,2.0,שלישית,51.0,2230000,1.0,,2024.0,,3.0,11181261846,1,6127558,False,,רמת גן,הרב חבה אליהו,,6127-558-5,6127/558,43725.490196078434,32.0806340812,34.8100285179,2021
2021-11-23,2021-11-23,"קריניצי 51, רמת גן",קריניצי 51,6126-293-50,דירה בבית קומות,4.0,תשיעית,87.0,1432000,,,2021.0,,8.0,3522948478,1,6126293,False,,רמת גן,קריניצי,,6126-293-50,6126/293,16459.77011494253,32.0831914675,34.8190007078,2021
2021-11-23,2021-11-23,"חביבה רייק 1, רמת גן",חביבה רייק 1,6207-468-9,דירה בבית קומות,5.0,רביעית,122.0,3700000,,,2020.0,,7.0,3522369928,1,6207468,False,,רמת גן,רייק חביבה,,6207-468-9,6207/468,30327.868852459014,32.0903659739,34.8037710086,2021
2021-11-23,2021-11-23,"חיים לנדאו 7, רמת גן",חיים לנדאו 7,6186-658-189,דירה בבית קומות,3.0,שלישית,82.03,2500000,,,1999.0,,25.0,3522770708,1,6186658,False,,רמת גן,לנדאו חיים,,6186-658-189,6186/658,30476.65488236011,32.0715560105,34.8282376172,2021
2021-11-23,2021-11-23,"הרא""ה 88, רמת גן","הרא""ה 88",6159-441-9,דירה בבית קומות,2.0,שלישית,50.0,1000000,,,1960.0,,3.0,3522419257,1,6159441,False,,רמת גן,"הרא""ה",,6159-441-9,6159/441,20000.0,32.080905438,34.8253440223,2021
2021-11-23,2021-11-23,"רוקח 13, רמת גן",רוקח 13,6205-144-7,דירה בבית קומות,4.0,שלישית,90.3,3380000,,,2000.0,,4.0,3522314451,1,6205144,False,50% ב 2.9 שנים,רמת גן,רוקח,17.24,6205-144-7,6205/144,37430.78626799557,32.0876941472,34.8107714341,2021
2021-11-23,2021-11-23,"ז'בוטינסקי 119, רמת גן",ז'בוטינסקי 119,6204-649-12,דירה בבית קומות,4.0,שלישית,93.0,2450000,,,1998.0,,7.0,3522382137,1,6204649,False,,רמת גן,ז'בוטינסקי,,6204-649-12,6204/649,26344.086021505376,32.0900243093,34.8179831511,2021
2021-11-22,2021-11-22,"ז'בוטינסקי 103, רמת גן",ז'בוטינסקי 103,6205-388-14,דירה בבית קומות,5.0,תשיעית,141.0,4700000,,,2020.0,,7.0,3523694155,1,6205388,False,,רמת גן,ז'בוטינסקי,,6205-388-14,6205/388,33333.333333333336,,,2021
2021-11-22,2021-11-22,"השילוח 10, רמת גן",השילוח 10,6158-223-4,דירה בבית קומות,3.0,שניה,73.0,1880000,,,2020.0,,2.0,3522276432,1,6158223,False,,רמת גן,השלוח,,6158-223-4,6158/223,25753.424657534248,32.0754742164,34.8204532751,2021
2021-11-22,2021-11-22,"לב הזהב 9, רמת גן",לב הזהב 9,6144-577-1,דירה בבית קומות,3.0,קרקע,75.6,2442000,,,1950.0,,1.0,3523596280,1,6144577,False,75% ב 4.4 שנים,רמת גן,לב הזהב,17.05,6144-577-1,6144/577,32301.587301587304,32.0626652542,34.8222936541,2021
2021-11-22,2021-11-22,"אביגיל 6, רמת גן",אביגיל 6,6207-599-22,דירה בבית קומות,2.0,שישית,50.0,1900000,,,2015.0,,7.0,3523525984,1,6207599,False,,רמת גן,אביגיל,,6207-599-22,6207/599,38000.0,32.0888874055,34.8047464827,2021
2021-11-22,2021-11-22,"השילוח 10, רמת גן",השילוח 10,6158-223-6,דירה בבית קומות,4.0,ראשונה,82.0,2500000,,,2020.0,,2.0,3522568056,1,6158223,False,,רמת גן,השלוח,,6158-223-6,6158/223,30487.80487804878,32.0754742164,34.8204532751,2021
2021-11-22,2021-11-22,"משואה 9, רמת גן",משואה 9,6176-226-1,קרקע למגורים,,,207.0,6500000,,,,,,3523466012,1,6176226,False,,רמת גן,משואה,,6176-226-1,6176/226,31400.96618357488,32.045208966,34.8333644107,2021
2021-11-22,2021-11-22,"משה שרת 44, רמת גן",משה שרת 44,6125-350-34,דירה בבית קומות,5.0,ראשונה,161.0,3650000,,,2021.0,,8.0,3522538882,1,6125350,False,,רמת גן,שרת משה,,6125-350-34,6125/350,22670.80745341615,32.0877188819,34.8169229312,2021
2021-11-22,2021-11-22,"חרות 28, רמת גן",חרות 28,6205-472-3,דירה בבית קומות,5.0,שניה,95.0,3000000,,,1990.0,,3.0,3523214292,1,6205472,False,,רמת גן,חרות,,6205-472-3,6205/472,31578.947368421053,32.0902197512,34.8130056064,2021
2021-11-22,2021-11-22,"השר משה 9, רמת גן",השר משה 9,6145-469-3,דירה בבית קומות,4.0,ראשונה,93.0,3300000,,,1967.0,,3.0,3522287626,1,6145469,False,,רמת גן,השר משה,,6145-469-3,6145/469,35483.87096774193,32.0658645542,34.8214413102,2021
2021-11-22,2021-11-22,"שלם 39, רמת גן",שלם 39,6142-139-3,דירה בבית קומות,4.0,ראשונה ושניה,128.6,2500000,,,1950.0,,2.0,3523472160,1,6142139,False,,רמת גן,שלם,,6142-139-3,6142/139,19440.12441679627,32.0485380436,34.8153201745,2021
2021-11-22,2021-11-22,"תש""י 15, רמת גן","תש""י 15",6128-547-12,דירה בבית קומות,2.0,שניה,46.0,2000000,,,1960.0,,2.0,3522221651,1,6128547,False,17% ב 2.8 שנים,רמת גן,"תש""י",6.07,6128-547-12,6128/547,43478.260869565216,32.0799638839,34.8046772072,2021
2021-11-22,2021-11-22,"הבנים 15, רמת גן",הבנים 15,6159-731-3,דירה בבית קומות,4.0,קומה ‎1‏,84.4,2380000,,,2016.0,,10.0,3522373756,1,6159731,False,,רמת גן,הבנים,,6159-731-3,6159/731,28199.05213270142,32.0840360043,34.8251498453,2021
2021-11-22,2021-11-22,"הפטמן 10, רמת גן",הפטמן 10,6126-222-24,דירה,5.0,,129.0,3627000,1.0,הפטמן רמת גן,2018.0,,6.0,11181261456,1,6126222,False,,רמת גן,הפטמן,,6126-222-24,6126/222,28116.279069767443,32.081632819,34.81999493,2021
2021-11-22,2021-11-22,"הפטמן 10, רמת גן",הפטמן 10,6126-222-29,דירה בבית קומות,5.0,שביעית,129.0,3632000,,,2018.0,,6.0,3522625708,1,6126222,False,,רמת גן,הפטמן,,6126-222-29,6126/222,28155.038759689924,32.081632819,34.81999493,2021
2021-11-22,2021-11-22,"נורדאו 18, רמת גן",נורדאו 18,6127-498-15,דירה,4.0,שמינית,104.0,3400000,1.0,,2024.0,,9.0,3522905877,1,6127498,False,,רמת גן,נורדאו,,6127-498-15,6127/498,32692.30769230769,32.0833188355,34.8115110225,2021
2021-11-22,2021-11-22,"משה שרת 40, רמת גן",משה שרת 40,6125-522-6,דירה בבית קומות,5.0,"מרתף,קרקע",189.25,4550000,,,2006.0,,,3522644616,1,6125522,False,148% ב 14.6 שנים,רמת גן,שרת משה,10.14,6125-522-6,6125/522,24042.27212681638,32.0879744705,34.8176562429,2021
2021-11-22,2021-11-22,"עיר גנים 1, רמת גן",עיר גנים 1,6128-934-1,דירה בבית קומות,5.0,קרקע,113.92,4880000,,,2015.0,,9.0,3522780742,1,6128934,False,,רמת גן,עיר גנים,,6128-934-1,6128/934,42837.07865168539,32.0818761408,34.8030760234,2021
2021-11-21,2021-11-21,"הרצל 77, רמת גן",הרצל 77,6127-883-199,דירה בבית קומות,4.0,רביעית,83.0,1600000,,,1970.0,,18.0,3523461169,1,6127883,False,,רמת גן,הרצל,,6127-883-199,6127/883,19277.10843373494,32.0875299542,34.8145136961,2021
2021-11-21,2021-11-21,"עולי הגרדום 18, רמת גן",עולי הגרדום 18,6183-188-7,דירה בבית קומות,2.0,שניה,24.8,980000,,,1950.0,,2.0,3523189120,1,6183188,False,,רמת גן,עולי הגרדום,,6183-188-7,6183/188,39516.12903225806,32.0656699486,34.8352744352,2021
2021-11-21,2021-11-21,"הראובני 6, רמת גן",הראובני 6,6145-664-3,דירה בבית קומות,3.0,שניה,59.54,1607000,,,1960.0,,3.0,3522333852,1,6145664,False,,רמת גן,הראובני,,6145-664-3,6145/664,26990.258649647298,32.0650933017,34.8251475243,2021
2021-11-21,2021-11-21,"עלומים 23, רמת גן",עלומים 23,6144-592-63,דירה,4.0,ראשונה,87.0,2630000,1.0,עיר גני,2021.0,,8.0,3522914258,1,6144592,False,,רמת גן,עלומים,,6144-592-63,6144/592,30229.885057471263,32.0630024681,34.8208316539,2021
2021-11-21,2021-11-21,"דוד בן-גוריון 118, רמת גן",דוד בן-גוריון 118,6126-283-4,דירה בבית קומות,2.0,שניה,52.0,1700000,,,1950.0,,2.0,3523597034,1,6126283,False,,רמת גן,בן גוריון דוד,,6126-283-4,6126/283,32692.30769230769,32.082898616,34.8208089247,2021
2021-11-21,2021-11-21,"הירדן 45, רמת גן",הירדן 45,6182-460-23,דירה בבית קומות,4.0,שישית,72.28,1840000,,,1970.0,,7.0,3522172583,1,6182460,False,,רמת גן,הירדן,,6182-460-23,6182/460,25456.55783065855,32.0654403498,34.8286816015,2021
2021-11-21,2021-11-21,,,6126-232-13,דירה,4.0,חמישית,87.0,2700000,1.0,האשל 16 רמת גן,2023.0,,,3522290729,2,6126232,False,,רמת גן,האשל,,6126-232-13,6126/232,31034.48275862069,32.082370198,34.8180096522,2021
2021-11-21,2021-11-21,"באר אורה 16, רמת גן",באר אורה 16,6182-320-1,דירה בבית קומות,3.0,ראשונה,32.56,1600000,,,1960.0,,3.0,3522338840,1,6182320,False,199% ב 19.5 שנים,רמת גן,באר אורה,10.21,6182-320-1,6182/320,49140.04914004914,32.0641828208,34.8303074741,2021
2021-11-21,2021-11-21,"תש""י 1, רמת גן","תש""י 1",6128-542-32,דירה בבית קומות,3.0,שלישית,69.0,3160000,,,2021.0,,4.0,3522201728,1,6128542,False,,רמת גן,"תש""י",,6128-542-32,6128/542,45797.10144927536,32.0798288258,34.8030573583,2021
2021-11-21,2021-11-21,"תובל 21, רמת גן",תובל 21,6109-347-287,חניה,,,,71000,,,1988.0,,29.0,3523238971,1,6109347,False,,רמת גן,תובל,,6109-347-287,6109/347,,32.0838519184,34.8021240457,2021
2021-11-21,2021-11-21,"היסמין 9, רמת גן",היסמין 9,6181-617-3,דירה בבית קומות,2.0,ראשונה,57.35,1800000,,,1998.0,,6.0,3522587196,1,6181617,False,38% ב 8 שנים,רמת גן,היסמין,4.75,6181-617-3,6181/617,31386.22493461203,32.0628605179,34.8331921763,2021
2021-11-21,2021-11-21,"ז'בוטינסקי 3, רמת גן",ז'בוטינסקי 3,6109-402-208,דירת גג (פנטהאוז),7.0,שלושים וחמש,225.0,9500000,1.0,טיים טאוור,2017.0,,38.0,3523384580,1,6109402,False,,רמת גן,ז'בוטינסקי,,6109-402-208,6109/402,42222.22222222222,32.0822525692,34.8006846322,2021
2021-11-21,2021-11-21,"משה שרת 44, רמת גן",משה שרת 44,6125-350-33,,5.0,ראשונה,161.0,3650000,1.0,כוכב שרת 44,2021.0,,8.0,11181261224,1,6125350,False,,רמת גן,שרת משה,,6125-350-33,6125/350,22670.80745341615,32.0877188819,34.8169229312,2021
2021-11-21,2021-11-21,"ז'בוטינסקי 65, רמת גן",ז'בוטינסקי 65,6205-129-13,דירה בבית קומות,3.0,ראשונה,60.0,1687000,,,1950.0,,4.0,3522135753,1,6205129,False,,רמת גן,ז'בוטינסקי,,6205-129-13,6205/129,28116.666666666668,32.0866407741,34.8113644307,2021
2021-11-21,2021-11-21,"המלך ינאי 2, רמת גן",המלך ינאי 2,6127-403-17,דירה בבית קומות,3.0,שמינית,69.0,3420000,,,2020.0,,2.0,3522385008,1,6127403,False,,רמת גן,המלך ינאי,,6127-403-17,6127/403,49565.21739130434,,,2021
2021-11-21,2021-11-21,"קריניצי 15, רמת גן",קריניצי 15,6126-179-9,דירה בבית קומות,2.0,שניה,50.0,1915000,,,1950.0,,3.0,3522193637,1,6126179,False,69% ב 6.6 שנים,רמת גן,קריניצי,10.45,6126-179-9,6126/179,38300.0,32.0798868179,34.8165544123,2021
2021-11-21,2021-11-21,,,6206-34-2,דירה,4.0,שלישית,90.0,3500000,1.0,אסף,2022.0,,,3523258778,2,620634,False,,רמת גן,אסף,,6206-34-2,6206/34,38888.88888888889,32.0898876941,34.809007653,2021
2021-11-20,2021-11-20,"נוה יהושע 10, רמת גן",נוה יהושע 10,6180-158-3,דירה בבית קומות,2.0,ראשונה,48.0,1500000,,,1950.0,,1.0,3538665753,1,6180158,False,156% ב 14.4 שנים,רמת גן,נוה יהושע,10.83,6180-158-3,6180/158,31250.0,32.0597449422,34.8293381431,2021
2021-11-20,2021-11-20,"המלך ינאי 2, רמת גן",המלך ינאי 2,6127-403-12,,3.0,,48.0,3420000,1.0,,,,2.0,11181261832,1,6127403,False,,רמת גן,המלך ינאי,,6127-403-12,6127/403,71250.0,,,2021
2021-11-20,2021-11-20,"אבא הלל 96, רמת גן",אבא הלל 96,6205-294-8,דירה בבית קומות,2.0,שניה,58.6,1700000,,,1956.0,,2.0,3523303061,1,6205294,False,163% ב 13.8 שנים,רמת גן,אבא הלל,11.81,6205-294-8,6205/294,29010.238907849827,32.0910274801,34.813718282,2021
2021-11-19,2021-11-19,"הרצל 65, רמת גן",הרצל 65,6127-714-31,דירה בבית קומות,2.0,שניה,60.0,1670000,,,1950.0,,4.0,3523347112,1,6127714,False,,רמת גן,הרצל,,6127-714-31,6127/714,27833.33333333333,32.0855794046,34.8147962595,2021
2021-11-19,2021-11-19,"נטר 1, רמת גן",נטר 1,6182-494-3,דירה בבית קומות,3.0,שניה,66.29,1700000,,,1960.0,,3.0,3522246968,1,6182494,False,,רמת גן,נטר,,6182-494-3,6182/494,25644.89364911751,32.0629851354,34.8260117987,2021
2021-11-18,2021-11-18,"אפרים 4, רמת גן",אפרים 4,6145-1565-5,דירה בבית קומות,4.0,שלישית,81.58,2300000,,,1999.0,,4.0,3522544131,1,61451565,False,41% ב 8.6 שנים,רמת גן,אפרים,4.77,6145-1565-5,6145/1565,28193.184604069625,32.0662075262,34.8264072774,2021
2021-11-18,2021-11-18,"שאנן 21, רמת גן",שאנן 21,6126-136-4,דירה בבית קומות,3.0,שניה,70.0,2110000,,,2020.0,,,3523203997,1,6126136,False,,רמת גן,שאנן,,6126-136-4,6126/136,30142.85714285714,,,2021
2021-11-18,2021-11-18,"החץ 1, רמת גן",החץ 1,6159-596-1,דירה בבית קומות,5.0,ראשונה,100.0,2575000,,,1960.0,,3.0,3522135028,1,6159596,False,,רמת גן,החץ,,6159-596-1,6159/596,25750.0,32.0822992558,34.8209118939,2021
2021-11-18,2021-11-18,"אלימלך רימלט 10, רמת גן",אלימלך רימלט 10,6186-676-72,דירה בבית קומות,5.0,שמונה עשרה,206.1,6000000,,,2000.0,,19.0,3523313095,1,6186676,False,,רמת גן,רימלט אלימלך,,6186-676-72,6186/676,29112.08151382824,32.0708325575,34.8307644488,2021
2021-11-18,2021-11-18,"עטרות 15, רמת גן",עטרות 15,6158-1495-13,דירה בבית קומות,3.0,שלישית,89.0,2190000,,,2021.0,,3.0,3522637888,1,61581495,False,,רמת גן,עטרות,,6158-1495-13,6158/1495,24606.74157303371,32.0743155178,34.8203608394,2021
2021-11-18,2021-11-18,"יד שלום 39, רמת גן",יד שלום 39,6157-658-8,דירה בבית קומות,4.0,רביעית,78.73,2400000,,,2010.0,,6.0,3522437672,1,6157658,False,,רמת גן,יד שלום,,6157-658-8,6157/658,30483.93242728312,32.0726656415,34.821804609,2021
2021-11-18,2021-11-18,"חצור 16, רמת גן",חצור 16,6158-1321-25,דירה בבית קומות,4.0,שמינית,85.0,2385000,,,2017.0,,8.0,3523208811,1,61581321,False,,רמת גן,חצור,,6158-1321-25,6158/1321,28058.82352941177,32.0773602498,34.8246744857,2021
2021-11-18,2021-11-18,"הרכסים 51, רמת גן",הרכסים 51,6158-831-6,דירה בבית קומות,1.0,ראשונה,,510000,,,1950.0,,3.0,3523492750,1,6158831,False,34% ב 7 שנים,רמת גן,הרכסים,4.86,6158-831-6,6158/831,,32.0730446075,34.824691288,2021
2021-11-18,2021-11-18,,,7313-26-7,קרקע למגורים,,,,4990000,,,,,,3543256946,2,731326,False,,רמת גן,"רפאל איתן כפר אז""ר",,7313-26-7,7313/26,,32.0497664762,34.8397716704,2021
2021-11-18,2021-11-18,"השר משה 42, רמת גן",השר משה 42,6145-586-6,דירה בבית קומות,5.0,שלישית,81.0,1980000,,,1960.0,,3.0,3522173250,1,6145586,False,,רמת גן,השר משה,,6145-586-6,6145/586,24444.444444444445,32.0664437992,34.825989833,2021
2021-11-18,2021-11-18,"ארנון 3, רמת גן",ארנון 3,6180-176-27,דירה,4.0,חמישית,82.0,2070000,1.0,,2021.0,,7.0,3523336295,1,6180176,False,,רמת גן,ארנון,,6180-176-27,6180/176,25243.90243902439,32.0604823912,34.8288846876,2021
2021-11-18,2021-11-18,"פנחס 35, רמת גן",פנחס 35,6145-1064-14,דירה בבית קומות,4.0,שמינית,85.0,2565000,,,2023.0,,6.0,3522432162,1,61451064,False,,רמת גן,פנחס,,6145-1064-14,6145/1064,30176.470588235294,32.0640693126,34.8246893353,2021
2021-11-18,2021-11-18,"ארנון 3, רמת גן",ארנון 3,6180-176-26,דירה,4.0,חמישית,81.0,2056000,1.0,,2021.0,,7.0,3523332467,1,6180176,False,,רמת גן,ארנון,,6180-176-26,6180/176,25382.71604938272,32.0604823912,34.8288846876,2021
2021-11-18,2021-11-18,"ארלוזורוב 11, רמת גן",ארלוזורוב 11,6127-770-1,דירה בבית קומות,2.0,קרקע,24.0,1350000,,,1960.0,,3.0,3522437150,1,6127770,False,25% ב 3.7 שנים,רמת גן,ארלוזורוב,6.76,6127-770-1,6127/770,56250.0,32.07886742,34.8133637955,2021
2021-11-18,2021-11-18,"מצפה 5, רמת גן",מצפה 5,6128-243-11,דירה בבית קומות,3.0,שישית,73.0,2700000,,,2023.0,,5.0,3523237985,1,6128243,False,,רמת גן,מצפה,,6128-243-11,6128/243,36986.30136986302,32.0821958445,34.8071585359,2021
2021-11-18,2021-11-18,"ארלוזורוב 19, רמת גן",ארלוזורוב 19,6127-257-9,דירה בבית קומות,2.0,שניה,53.0,2030000,,,1950.0,,3.0,3522212052,1,6127257,False,65% ב 6.1 שנים,רמת גן,ארלוזורוב,10.66,6127-257-9,6127/257,38301.88679245283,32.0796514378,34.812865824,2021
2021-11-18,2021-11-18,,,6159-341-6,דירת גן,3.0,ראשונה,70.0,2220000,,,2022.0,,,3523410477,2,6159341,False,,רמת גן,הבנים,,6159-341-6,6159/341,31714.285714285717,32.0841603101,34.82463042,2021
2021-11-17,2021-11-17,,,6145-760-15,דירה,5.0,חמישית,100.0,2730000,1.0,הצנחנים,2022.0,,,3522066095,2,6145760,False,,רמת גן,"החי""ל",,6145-760-15,6145/760,27300.0,32.06770485,34.8236396023,2021
2021-11-17,2021-11-17,"נורדאו 18, רמת גן",נורדאו 18,6127-498-14,דירה,5.0,שלישית,129.0,3550000,1.0,,2024.0,,9.0,3522272575,1,6127498,False,,רמת גן,נורדאו,,6127-498-14,6127/498,27519.37984496124,32.0833188355,34.8115110225,2021
2021-11-17,2021-11-17,"הטייסים 3, רמת גן",הטייסים 3,6142-89-115,דירה בבית קומות,5.0,עשרים ושמונה,164.0,5502000,,,2022.0,,2.0,3522232381,1,614289,False,,רמת גן,הטייסים,,6142-89-115,6142/89,33548.78048780488,32.0522614976,34.8136094452,2021
2021-11-17,2021-11-17,"ארנון 3, רמת גן",ארנון 3,6180-176-25,דירה,3.0,שישית,74.0,2100000,1.0,,2021.0,,7.0,3522828853,1,6180176,False,,רמת גן,ארנון,,6180-176-25,6180/176,28378.37837837838,32.0604823912,34.8288846876,2021
2021-11-17,2021-11-17,"חירות 22, רמת גן",חירות 22,6205-478-5,דירה בבית קומות,4.0,ראשונה,95.0,3228000,,,2021.0,,6.0,3523239609,1,6205478,False,,רמת גן,חרות,,6205-478-5,6205/478,33978.94736842105,32.0898468637,34.8123195113,2021
2021-11-17,2021-11-17,"ז'בוטינסקי 3, רמת גן",ז'בוטינסקי 3,6109-275-108,משרד,,עשרים,,215000,,,1966.0,,20.0,3523486341,1,6109275,False,,רמת גן,ז'בוטינסקי,,6109-275-108,6109/275,,32.0834052795,34.8014749201,2021
2021-11-17,2021-11-17,"חצור 15, רמת גן",חצור 15,6158-889-52,דירה בבית קומות,4.0,שניה,87.0,2380000,1.0,,2021.0,,9.0,3522035210,1,6158889,False,,רמת גן,חצור,,6158-889-52,6158/889,27356.32183908046,,,2021
2021-11-17,2021-11-17,"פנחס 35, רמת גן",פנחס 35,6145-1064-13,,4.0,שמינית,85.0,2565000,1.0,,2023.0,,6.0,11181263539,1,61451064,False,,רמת גן,פנחס,,6145-1064-13,6145/1064,30176.470588235294,32.0640693126,34.8246893353,2021
2021-11-17,2021-11-17,"נחלת יוסף 5, רמת גן",נחלת יוסף 5,6126-474-8,דירה בבית קומות,3.0,שניה,64.0,2090000,,,1950.0,,3.0,3522031411,1,6126474,False,60% ב 7.3 שנים,רמת גן,נחלת יוסף,8.22,6126-474-8,6126/474,32656.25,32.0801673962,34.8162419172,2021
2021-11-17,2021-11-17,"שרה אהרונסון 5, רמת גן",שרה אהרונסון 5,6144-636-3,דירה בבית קומות,2.0,שניה,55.07,2100000,,,1950.0,,2.0,3523399225,1,6144636,False,,רמת גן,אהרונסון שרה,,6144-636-3,6144/636,38133.2849101144,32.0613331765,34.8216897931,2021
2021-11-17,2021-11-17,"חיבת ציון 27, רמת גן",חיבת ציון 27,6159-543-26,דירה בבית קומות,4.0,שמינית,109.0,2840000,1.0,חיבת ציון,2020.0,,5.0,3522360387,1,6159543,False,,רמת גן,חיבת ציון,,6159-543-26,6159/543,26055.045871559632,32.0795080294,34.823208651,2021
2021-11-17,2021-11-17,"דוד בן-גוריון 253, רמת גן",דוד בן-גוריון 253,6157-321-15,דירה בבית קומות,4.0,חמישית,73.0,2600000,,,2004.0,,6.0,3521955344,1,6157321,False,47% ב 8.5 שנים,רמת גן,בן גוריון דוד,5.53,6157-321-15,6157/321,35616.438356164384,32.0670531478,34.8167495756,2021
2021-11-17,2021-11-17,,,6204-61-21,דירה בבית קומות,5.0,שניה,123.0,3399000,,,2025.0,,,3523124305,2,620461,False,,רמת גן,הפודים,,6204-61-21,6204/61,27634.146341463416,32.0923882698,34.8201778984,2021
2021-11-17,2021-11-17,"הבנים 15, רמת גן",הבנים 15,6159-731-17,דירה בבית קומות,3.0,קומה ‎4‏,64.45,2190000,,,2016.0,,10.0,3522783613,1,6159731,False,43% ב 5.1 שנים,רמת גן,הבנים,8.43,6159-731-17,6159/731,33979.829325058185,32.0840360043,34.8251498453,2021
2021-11-17,2021-11-17,"יואב 16, רמת גן",יואב 16,6206-67-10,דירה בבית קומות,4.0,רביעית,96.0,3690000,,,2021.0,,7.0,3522240994,1,620667,False,,רמת גן,יואב,,6206-67-10,6206/67,38437.5,32.0897997533,34.8075342901,2021
2021-11-16,2021-11-16,"המאירי 5, רמת גן",המאירי 5,6236-135-1,קרקע למגורים,,א' + ב',147.7,4400000,,,1970.0,,1.0,3523367644,1,6236135,False,,רמת גן,המאירי,,6236-135-1,6236/135,29790.115098171973,32.0563042449,34.8488414139,2021
2021-11-16,2021-11-16,"תרע""ד 20, רמת גן","תרע""ד 20",6128-127-4,דירה בבית קומות,2.0,ראשונה,55.0,1970000,,,1949.0,,3.0,3522859709,1,6128127,False,,רמת גן,"תרע""ד",,6128-127-4,6128/127,35818.181818181816,32.07922642,34.8033808078,2021
2021-11-16,2021-11-16,"ז'בוטינסקי 105, רמת גן",ז'בוטינסקי 105,6205-782-27,מחסנים,,ראשונה,,180000,,,2015.0,,22.0,3522277128,1,6205782,False,,רמת גן,ז'בוטינסקי,,6205-782-27,6205/782,,32.0894367231,34.8160720881,2021
2021-11-16,2021-11-16,"חורגין 52, רמת גן",חורגין 52,6158-771-9,דירה בבית קומות,5.0,שישית,107.0,2750000,,,2020.0,,5.0,3521931912,1,6158771,False,,רמת גן,חורגין,,6158-771-9,6158/771,25700.93457943925,32.0732680469,34.8245520201,2021
2021-11-16,2021-11-16,"הלפיד 3, רמת גן",הלפיד 3,6204-214-6,דירה בבית קומות,4.0,שניה,89.73,2200000,,,1994.0,,6.0,3521880640,1,6204214,False,,רמת גן,הלפיד,,6204-214-6,6204/214,24517.99843976373,32.0921769212,34.8217581585,2021
2021-11-16,2021-11-16,"המרגנית 36, רמת גן",המרגנית 36,6210-31-2,דירה בבית קומות,6.0,"קרקע, ראשונה,גג",178.0,6433000,,,1970.0,,,3522067081,1,621031,False,,רמת גן,המרגנית,,6210-31-2,6210/31,36140.449438202246,32.0946441129,34.8100755476,2021
2021-11-16,2021-11-16,"החילזון 6, רמת גן",החילזון 6,6109-408-0,משרד,,שניה,1872.0,49750000,,,1997.0,,10.0,3523338731,1,6109408,False,34% ב 4.3 שנים,רמת גן,החילזון,7.91,6109-408-0,6109/408,26575.8547008547,32.0867070619,34.8042144706,2021
2021-11-16,2021-11-16,"סטרומה 9, רמת גן",סטרומה 9,6205-353-4,דירה בבית קומות,4.0,שניה,97.5,1680000,,,1970.0,,3.0,3522494570,1,6205353,False,0% ב 0.8 שנים,רמת גן,סטרומה,0.0,6205-353-4,6205/353,17230.76923076923,32.0908150065,34.8160341545,2021
2021-11-16,2021-11-16,"חצור 15, רמת גן",חצור 15,6158-889-30,דירה,4.0,,87.0,2380000,1.0,,2021.0,,9.0,11181264586,1,6158889,False,,רמת גן,חצור,,6158-889-30,6158/889,27356.32183908046,,,2021
2021-11-16,2021-11-16,"הרא""ה 121, רמת גן","הרא""ה 121",6159-438-24,דירה בבית קומות,2.0,שלישית,70.0,1570000,,,1950.0,,5.0,3521921559,1,6159438,False,,רמת גן,"הרא""ה",,6159-438-24,6159/438,22428.571428571428,32.0792400568,34.8258256979,2021
2021-11-16,2021-11-16,"ז'בוטינסקי 3, רמת גן",ז'בוטינסקי 3,6109-402-207,דירה בבית קומות,3.0,אחת עשרה,79.0,2900000,,,2017.0,,38.0,3522033325,1,6109402,False,,רמת גן,ז'בוטינסקי,,6109-402-207,6109/402,36708.86075949367,32.0822525692,34.8006846322,2021
2021-11-16,2021-11-16,"הרא""ה 52, רמת גן","הרא""ה 52",6159-365-7,דירה בבית קומות,2.0,שניה,51.0,1550000,,,1950.0,,3.0,3521886150,1,6159365,False,,רמת גן,"הרא""ה",,6159-365-7,6159/365,30392.156862745094,32.0833006537,34.823658598,2021
2021-11-16,2021-11-16,"הדר 12, רמת גן",הדר 12,6205-508-17,דירה בבית קומות,1.0,שניה,26.0,1530000,,,1950.0,,3.0,3523118099,1,6205508,False,,רמת גן,הדר,,6205-508-17,6205/508,58846.15384615384,32.0873916182,34.8120937847,2021
2021-11-16,2021-11-16,"ירושלים 3, רמת גן",ירושלים 3,6158-1626-4,דירה בבית קומות,4.0,חמישית,100.0,2520000,,,2020.0,,1.0,3522976956,1,61581626,False,,רמת גן,ירושלים,,6158-1626-4,6158/1626,25200.0,32.0750078699,34.8192098252,2021
2021-11-16,2021-11-16,,,6142-86-33,,5.0,עשרים ושמונה,164.0,5450000,1.0,,,,,11181263402,2,614286,False,,רמת גן,הטייסים,,6142-86-33,6142/86,33231.70731707317,32.0529191023,34.8131483936,2021
2021-11-16,2021-11-16,"נוה יהושע 44, רמת גן",נוה יהושע 44,6180-52-1,דירת גג,5.0,-,110.0,3200000,,,2019.0,,1.0,3523540049,1,618052,False,60% ב 0.5 שנים,רמת גן,נוה יהושע,120.0,6180-52-1,6180/52,29090.90909090909,,,2021
2021-11-16,2021-11-16,"ארלוזורוב 74, רמת גן",ארלוזורוב 74,6128-730-12,דירה בבית קומות,4.0,רביעית,99.5,3250000,,,1970.0,,4.0,3521966538,1,6128730,False,,רמת גן,ארלוזורוב,,6128-730-12,6128/730,32663.316582914573,32.0818570287,34.8068362436,2021
2021-11-16,2021-11-16,"בר-יוחאי 20, רמת גן",בר-יוחאי 20,6145-1330-2,דירה בבית קומות,2.0,ראשונה,56.0,1480000,,,2022.0,,3.0,3522666163,1,61451330,False,82% ב 21.2 שנים,רמת גן,בר יוחאי,3.87,6145-1330-2,6145/1330,26428.571428571428,32.0641281258,34.8256774847,2021
2021-11-16,2021-11-16,"חירות 22, רמת גן",חירות 22,6205-478-16,דירה בבית קומות,4.0,שישית,91.0,2948000,,,2021.0,,6.0,3522058178,1,6205478,False,,רמת גן,חרות,,6205-478-16,6205/478,32395.604395604398,32.0898468637,34.8123195113,2021
2021-11-16,2021-11-16,"יואב 16, רמת גן",יואב 16,6206-67-8,דירה בבית קומות,4.0,ראשונה,96.0,3400000,,,2021.0,,7.0,3522284291,1,620667,False,,רמת גן,יואב,,6206-67-8,6206/67,35416.666666666664,32.0897997533,34.8075342901,2021
2021-11-16,2021-11-16,"פנחס 7, רמת גן",פנחס 7,6145-1120-6,קומבינציה,3.0,שלישית,56.0,1457000,,,2023.0,,3.0,3523360916,1,61451120,False,,רמת גן,פנחס,,6145-1120-6,6145/1120,26017.85714285714,32.0645042026,34.8213660443,2021
2021-11-16,2021-11-16,"אנה פרנק 25, רמת גן",אנה פרנק 25,6207-203-15,דירה בבית קומות,3.0,שמינית,98.0,4370000,,,2022.0,,5.0,3523009233,1,6207203,False,,רמת גן,אנה פרנק,,6207-203-15,6207/203,44591.83673469388,,,2021
