DEALDATE,DEALDATETIME,FULLADRESS,DISPLAYADRESS,GUSH,DEALNATUREDESCRIPTION,ASSETROOMNUM,FLOORNO,DEALNATURE,DEALAMOUNT,NEWPROJECTTEXT,PROJECTNAME,BUILDINGYEAR,YEARBUILT,BUILDINGFLOORS,KEYVALUE,TYPE,POLYGON_ID,TREND_IS_NEGATIVE,TREND_FORMAT,city_name,street,presentage per year,GUSH - Copy,Gush_Helka,Price per sqm,lat,lon,Year
2019-12-31,2019-12-31,"העצמאות 9, בת ים",העצמאות 9,7143-32-60,דירה בבית קומות,2.0,שמינית,49.0,1614000,,,2016.0,,14.0,6000359100,1,714332,False,,בת ים,העצמאות,,7143-32-60,7143/32,32938.77551020408,32.0227650945,34.7413927532,2019
2019-12-30,2019-12-30,"הגליל 3, בת ים",הגליל 3,7152-244-2,דירה בבית קומות,4.0,ראשונה,96.3,1910000,,,1950.0,,2.0,5965191600,1,7152244,False,,בת ים,הגליל,,7152-244-2,7152/244,19833.85254413292,32.0269591445,34.7550849246,2019
2019-12-30,2019-12-30,"החרושת 20, בת ים",החרושת 20,7129-134-23,משרד,,שלוש עשרה,77.0,929000,,,2020.0,,29.0,6001260900,1,7129134,False,,בת ים,החרושת,,7129-134-23,7129/134,12064.935064935064,32.0132941368,34.7519503401,2019
2019-12-30,2019-12-30,"רוטשילד 35, בת ים",רוטשילד 35,7147-113-32,דירה בבית קומות,3.0,שניה,60.24,1360000,,,1970.0,,3.0,6000187200,1,7147113,False,,בת ים,רוטשילד,,7147-113-32,7147/113,22576.36122177955,32.027509414,34.7476924788,2019
2019-12-30,2019-12-30,"בלפור 96, בת ים",בלפור 96,7140-191-14,דירה בבית קומות,2.0,שניה,62.5,1300000,,,1970.0,,5.0,6000029150,1,7140191,False,,בת ים,בלפור,,7140-191-14,7140/191,20800.0,32.016914391,34.7446563927,2019
2019-12-29,2019-12-29,"בן-גוריון 89, בת ים",בן-גוריון 89,7139-96-0,חנות,,ראשונה,555.0,2400000,,,2016.0,,7.0,6000715150,1,713996,False,,בת ים,בן גוריון,,7139-96-0,7139/96,4324.324324324324,32.0179366971,34.7390846896,2019
2019-12-29,2019-12-29,"הרצל 79, בת ים",הרצל 79,7136-285-6,דירה בבית קומות,4.0,שלישית,97.6,2000000,,,2002.0,,5.0,5965186250,1,7136285,False,50% ב 7.5 שנים,בת ים,הרצל,6.67,7136-285-6,7136/285,20491.803278688527,32.0193354073,34.7459741471,2019
2019-12-29,2019-12-29,"ששת הימים 18, בת ים",ששת הימים 18,7155-187-3,דירה בבית קומות,2.0,ראשונה,55.93,1220000,,,1970.0,,5.0,6000080350,1,7155187,False,,בת ים,ששת הימים,,7155-187-3,7155/187,21812.98051135348,32.0177832127,34.752032171,2019
2019-12-29,2019-12-29,"כהן אלי 2, בת ים",כהן אלי 2,7128-49-12,דירה בבית קומות,4.0,שניה,65.0,1100000,,,1970.0,,4.0,6000044000,1,712849,False,15% ב 7.1 שנים,בת ים,כהן אלי,2.11,7128-49-12,7128/49,16923.076923076922,32.0096514542,34.7580465043,2019
2019-12-29,2019-12-29,"השר פנקס 7, בת ים",השר פנקס 7,7136-367-6,דירה בבית קומות,2.5,ראשונה,60.16,1350000,,,1970.0,,5.0,6000648400,1,7136367,False,,בת ים,השר פנקס,,7136-367-6,7136/367,22440.159574468085,32.0184232424,34.7485571517,2019
2019-12-29,2019-12-29,"הרשת 17, בת ים",הרשת 17,7136-223-54,דירה בבית קומות,3.0,חמישית,82.0,1535000,,,1970.0,,3.0,6001135500,1,7136223,False,,בת ים,הרשת,,7136-223-54,7136/223,18719.51219512195,32.0223586586,34.7473461366,2019
2019-12-27,2019-12-27,"השלושה 14, בת ים",השלושה 14,7152-156-1,דירה בבית קומות,5.0,ראשונה,134.0,2000000,,,1970.0,,2.0,6000676450,1,7152156,False,263% ב 18 שנים,בת ים,השלושה,14.61,7152-156-1,7152/156,14925.373134328358,32.0274462581,34.7535230413,2019
2019-12-26,2019-12-26,"העצמאות 45, בת ים",העצמאות 45,7148-41-1,משרד,,קרקע,50.0,750000,,,1960.0,,4.0,6000589800,1,714841,False,,בת ים,העצמאות,,7148-41-1,7148/41,15000.0,32.0248456271,34.7473643086,2019
2019-12-26,2019-12-26,"בר-יהודה 21, בת ים",בר-יהודה 21,7140-146-1,דירה בבית קומות,3.0,ראשונה,50.0,1592000,,,1970.0,2020.0,4.0,6000052600,1,7140146,False,,בת ים,בר יהודה,,7140-146-1,7140/146,31840.0,32.0145488259,34.7441845174,2019
2019-12-26,2019-12-26,"שלום עליכם 1, בת ים",שלום עליכם 1,7136-329-54,דירה בבית קומות,3.0,חמישית,74.0,1500000,,,2019.0,,3.0,6000198750,1,7136329,False,,בת ים,שלום עליכם,,7136-329-54,7136/329,20270.27027027027,32.0198045455,34.7481456531,2019
2019-12-25,2019-12-25,"הרשת 17, בת ים",הרשת 17,7136-223-32,דירה בבית קומות,3.0,רביעית,82.0,1505000,1.0,הרשת 17,1970.0,,3.0,6000266750,1,7136223,False,,בת ים,הרשת,,7136-223-32,7136/223,18353.658536585364,32.0223586586,34.7473461366,2019
2019-12-25,2019-12-25,"ארלוזורוב 67, בת ים",ארלוזורוב 67,7141-140-6,דירה בבית קומות,2.5,שניה,54.0,1470000,,,1970.0,,3.0,5965100400,1,7141140,False,,בת ים,ארלוזורוב,,7141-140-6,7141/140,27222.222222222223,32.0209622334,34.744792161,2019
2019-12-25,2019-12-25,"זלמן מייזל 7, בת ים",זלמן מייזל 7,7155-276-20,דירה בבית קומות,3.0,רביעית,59.0,1295000,,,1970.0,,5.0,5965123050,1,7155276,False,,בת ים,מייזל זלמן,,7155-276-20,7155/276,21949.15254237288,32.0164466064,34.7511382999,2019
2019-12-25,2019-12-25,"זמנהוף 11, בת ים",זמנהוף 11,7136-323-16,דירה בבית קומות,2.5,שניה,54.0,1250000,,,1960.0,,5.0,6000485850,1,7136323,False,134% ב 17.1 שנים,בת ים,זמנהוף,7.84,7136-323-16,7136/323,23148.14814814815,32.0203443479,34.7490615637,2019
2019-12-24,2019-12-24,"ירושלים 74, בת ים",ירושלים 74,7151-177-10,דירה בבית קומות,3.0,חמישית,57.4,1550000,,,1960.0,,8.0,5964965550,1,7151177,False,189% ב 13 שנים,בת ים,ירושלים,14.54,7151-177-10,7151/177,27003.48432055749,32.0256208744,34.7540257168,2019
2019-12-23,2019-12-23,"השר שפירא 23, בת ים",השר שפירא 23,7138-303-7,דירה בבית קומות,3.0,שלישית,58.2,1300000,,,1970.0,,7.0,6000649600,1,7138303,False,,בת ים,השר שפירא,,7138-303-7,7138/303,22336.76975945017,32.0142359667,34.7418482023,2019
2019-12-22,2019-12-22,"מסריק 6, בת ים",מסריק 6,7143-50-9,דירה בבית קומות,3.0,שניה,76.76,1600000,,,1970.0,,3.0,5965148700,1,714350,False,159% ב 18 שנים,בת ים,מסריק,8.83,7143-50-9,7143/50,20844.189682126107,32.0238609729,34.7410256218,2019
2019-12-22,2019-12-22,"הנביאים 61, בת ים",הנביאים 61,7120-82-15,דירה בבית קומות,3.0,רביעית,52.0,1390000,,,1970.0,,4.0,5965004650,1,712082,False,,בת ים,הנביאים,,7120-82-15,7120/82,26730.76923076923,32.00879812,34.7433376674,2019
2019-12-22,2019-12-22,"דניאל 79, בת ים",דניאל 79,7135-199-8,דירה בבית קומות,4.0,שניה,73.16,1400000,,,1970.0,,4.0,6000269200,1,7135199,False,,בת ים,דניאל,,7135-199-8,7135/199,19136.13996719519,32.0185073338,34.7504081499,2019
2019-12-22,2019-12-22,"רוטשילד 44, בת ים",רוטשילד 44,7149-192-22,דירה בבית קומות,2.5,שניה,68.0,1400000,,,1950.0,,3.0,6000308800,1,7149192,False,12% ב 2.4 שנים,בת ים,רוטשילד,5.0,7149-192-22,7149/192,20588.235294117647,32.0270428299,34.7499463514,2019
2019-12-20,2019-12-20,"הרשת 17, בת ים",הרשת 17,7136-223-31,דירה בבית קומות,3.0,שביעית,110.0,2542000,1.0,הרשת 17,1970.0,,3.0,6000648800,1,7136223,False,,בת ים,הרשת,,7136-223-31,7136/223,23109.090909090908,32.0223586586,34.7473461366,2019
2019-12-19,2019-12-19,"ליבורנו 5, בת ים",ליבורנו 5,7128-39-10,דירה בבית קומות,3.0,שניה,69.1,1450000,,,1970.0,,4.0,5965030700,1,712839,False,,בת ים,ליבורנו,,7128-39-10,7128/39,20984.08104196816,32.0107392318,34.7595337385,2019
2019-12-19,2019-12-19,"טשרניחובסקי 20, בת ים",טשרניחובסקי 20,7136-310-9,דירה בבית קומות,2.5,שניה,52.8,1275000,,,1960.0,,3.0,5964875250,1,7136310,False,1% ב 2.8 שנים,בת ים,טשרניחובסקי,0.36,7136-310-9,7136/310,24147.72727272728,32.0200710572,34.7475218321,2019
2019-12-19,2019-12-19,"רמב""ם 3, בת ים","רמב""ם 3",7146-232-50,דירה בבית קומות,2.0,שביעית,50.2,1540000,,,1970.0,,9.0,5964708550,1,7146232,False,100% ב 7.6 שנים,בת ים,"רמב""ם",13.16,7146-232-50,7146/232,30677.290836653385,32.0303412002,34.7451422638,2019
2019-12-19,2019-12-19,"בלפור 25, בת ים",בלפור 25,7146-99-24,דירה בבית קומות,3.0,שלישית,62.32,1620000,,,1970.0,,4.0,5964758000,1,714699,False,40% ב 3.2 שנים,בת ים,בלפור,12.5,7146-99-24,7146/99,25994.86521181001,32.0290257139,34.7453605103,2019
2019-12-19,2019-12-19,"הרצל 76, בת ים",הרצל 76,7141-210-35,דירה בבית קומות,2.0,רביעית,43.0,1160000,,,1970.0,,4.0,6000548100,1,7141210,False,,בת ים,הרצל,,7141-210-35,7141/210,26976.74418604651,32.0196061269,34.7434040163,2019
2019-12-19,2019-12-19,"רמב""ם 3, בת ים","רמב""ם 3",7146-232-25,דירה בבית קומות,3.0,רביעית,64.25,1449000,,,1970.0,,9.0,6000163600,1,7146232,False,,בת ים,"רמב""ם",,7146-232-25,7146/232,22552.529182879374,32.0303412002,34.7451422638,2019
2019-12-19,2019-12-19,"חלמית 12, בת ים",חלמית 12,6998-226-4,דירה בבית קומות,3.0,ראשונה,74.0,1350000,,,1960.0,,4.0,6000200750,1,6998226,False,,בת ים,חלמית,,6998-226-4,6998/226,18243.243243243243,32.0321523606,34.7566873273,2019
2019-12-19,2019-12-19,"בר אילן 16, בת ים",בר אילן 16,7130-286-27,דירה בבית קומות,3.0,שלישית,60.67,1365000,,,1970.0,,4.0,5965102850,1,7130286,False,,בת ים,בר אילן,,7130-286-27,7130/286,22498.763804186583,32.0154518428,34.7480799148,2019
2019-12-18,2019-12-18,"השומרון 5, בת ים",השומרון 5,7128-25-27,דירה בבית קומות,3.0,חמישית,68.5,1339000,,,1970.0,,5.0,5964730950,1,712825,False,,בת ים,השומרון,,7128-25-27,7128/25,19547.445255474453,32.0126195141,34.7613562751,2019
2019-12-18,2019-12-18,"בר יהודה 54, בת ים",בר יהודה 54,7137-143-11,דירה בבית קומות,2.5,שלישית,57.99,1260000,,,1970.0,,4.0,5964691350,1,7137143,False,91% ב 9 שנים,בת ים,בר יהודה,10.11,7137-143-11,7137/143,21727.88411795137,32.0118585442,34.7425749602,2019
2019-12-18,2019-12-18,"הרשת 35, בת ים",הרשת 35,7136-232-9,דירה בבית קומות,2.0,שלישית,51.5,1270000,,,1970.0,,3.0,5964730050,1,7136232,False,49% ב 5.2 שנים,בת ים,הרשת,9.42,7136-232-9,7136/232,24660.19417475728,32.0216065554,34.7491116214,2019
2019-12-18,2019-12-18,"שלום עליכם 1, בת ים",שלום עליכם 1,7136-329-55,דירה בבית קומות,3.5,שישית,86.0,1727000,1.0,,2019.0,,3.0,6000123200,1,7136329,False,,בת ים,שלום עליכם,,7136-329-55,7136/329,20081.39534883721,32.0198045455,34.7481456531,2019
2019-12-18,2019-12-18,"אנה פרנק 29, בת ים",אנה פרנק 29,7124-250-22,דירה בבית קומות,5.0,קומה ‎6‏,88.2,2020000,,,2007.0,,16.0,5965149100,1,7124250,False,120% ב 12.6 שנים,בת ים,פרנק אנה,9.52,7124-250-22,7124/250,22902.49433106576,32.0068162329,34.7538850585,2019
2019-12-18,2019-12-18,"חצור 2, בת ים",חצור 2,7128-90-12,דירה בבית קומות,3.0,שלישית,51.8,1350000,,,1970.0,,5.0,5964882650,1,712890,False,61% ב 8.8 שנים,בת ים,חצור,6.93,7128-90-12,7128/90,26061.77606177606,32.0114792251,34.7577497276,2019
2019-12-18,2019-12-18,"דניאל 12, בת ים",דניאל 12,7149-201-8,דירה בבית קומות,2.5,ראשונה,63.0,1250000,,,2024.0,,4.0,5964908200,1,7149201,False,,בת ים,דניאל,,7149-201-8,7149/201,19841.26984126984,32.0261545348,34.7500692851,2019
2019-12-17,2019-12-17,"גבעתי 7, בת ים",גבעתי 7,7154-176-1,דירה בבית קומות,2.0,ראשונה,42.0,1170000,,,1970.0,,5.0,5964693400,1,7154176,False,67% ב 5 שנים,בת ים,גבעתי,13.4,7154-176-1,7154/176,27857.14285714286,32.0148528419,34.7471291239,2019
2019-12-17,2019-12-17,"ארלוזורוב 3, בת ים",ארלוזורוב 3,7146-92-43,דירה בבית קומות,2.0,רביעית,47.0,1190000,,,1960.0,,4.0,5964642600,1,714692,False,,בת ים,ארלוזורוב,,7146-92-43,7146/92,25319.14893617021,32.0294976106,34.7445109652,2019
2019-12-17,2019-12-17,"פרלשטיין 14, בת ים",פרלשטיין 14,7136-297-47,דירה בבית קומות,5.0,שישית,127.0,2700000,1.0,פרלשטיין 14-16,2016.0,,2.0,5964766750,1,7136297,False,,בת ים,פרלשטיין,,7136-297-47,7136/297,21259.84251968504,32.0208349769,34.7473862683,2019
2019-12-17,2019-12-17,"השקמה 45, בת ים",השקמה 45,7154-209-27,מחסנים,,ראשונה,,2370000,,,1970.0,2020.0,3.0,6001893300,1,7154209,False,,בת ים,השקמה,,7154-209-27,7154/209,,32.0120038939,34.7437772445,2019
2019-12-17,2019-12-17,"ברל כצנלסון 61, בת ים",ברל כצנלסון 61,7156-3-27,דירה בבית קומות,3.0,שניה,67.7,1319000,,,1962.0,,4.0,5964601750,1,71563,False,,בת ים,כצנלסון ברל,,7156-3-27,7156/3,19483.01329394387,32.0165566205,34.7550143532,2019
2019-12-17,2019-12-17,"בלפור 117, בת ים",בלפור 117,7140-270-8,דירה בבית קומות,2.5,שניה,52.85,1330000,,,1970.0,,5.0,5964747850,1,7140270,False,,בת ים,בלפור,,7140-270-8,7140/270,25165.562913907284,32.0155870084,34.7441338556,2019
2019-12-16,2019-12-16,"צה""ל 3, בת ים","צה""ל 3",7148-227-10,דירה בבית קומות,4.0,רביעית,91.35,1950000,,,1997.0,,6.0,5964686800,1,7148227,False,44% ב 10 שנים,בת ים,"צה""ל",4.4,7148-227-10,7148/227,21346.469622331693,32.0244566341,34.7483349789,2019
2019-12-15,2019-12-15,"אנילביץ 16, בת ים",אנילביץ 16,7134-10-5,דירה,5.0,,128.0,2275000,1.0,,1952.0,,,11181292889,1,713410,False,,בת ים,אנילביץ,,7134-10-5,7134/10,17773.4375,32.0218006738,34.7527135626,2019
2019-12-15,2019-12-15,"ירושלים 53, בת ים",ירושלים 53,7149-178-24,דירה בבית קומות,2.0,שניה,54.3,1410000,,,1960.0,,3.0,5964729650,1,7149178,False,36% ב 4.2 שנים,בת ים,ירושלים,8.57,7149-178-24,7149/178,25966.850828729283,32.0261119421,34.7512138117,2019
2019-12-15,2019-12-15,"מבצע סיני 26, בת ים",מבצע סיני 26,7131-148-20,דירה בבית קומות,3.0,שניה,55.0,1245000,,,1960.0,,4.0,5964447950,1,7131148,False,3% ב 1.5 שנים,בת ים,מבצע סיני,2.0,7131-148-20,7131/148,22636.36363636364,32.0191693021,34.7587219174,2019
2019-12-15,2019-12-15,"יחזקאל דנין 25, בת ים",יחזקאל דנין 25,7136-405-12,דירה בבית קומות,2.5,שלישית,54.0,1310000,,,1970.0,,4.0,5964596000,1,7136405,False,,בת ים,דנין יחזקאל,,7136-405-12,7136/405,24259.25925925926,32.017660113,34.7486929592,2019
2019-12-13,2019-12-13,"השרון 4, בת ים",השרון 4,7128-95-26,דירה בבית קומות,3.0,רביעית,46.58,1050000,,,1970.0,,4.0,5964424800,1,712895,False,,בת ים,השרון,,7128-95-26,7128/95,22541.863460712757,32.0107428278,34.7569223714,2019
2019-12-12,2019-12-12,"אסירי ציון 1, בת ים",אסירי ציון 1,7178-4-7,דירה בבית קומות,3.0,רביעית,66.9,1215000,,,1970.0,,4.0,5964776650,1,71784,False,3% ב 2.6 שנים,בת ים,אסירי ציון,1.15,7178-4-7,7178/4,18161.434977578472,32.0083790009,34.7584568981,2019
2019-12-12,2019-12-12,"שלום עליכם 9, בת ים",שלום עליכם 9,7136-339-19,דירה בבית קומות,3.0,שלישית,64.8,1300000,,,1970.0,,4.0,5964348950,1,7136339,False,,בת ים,שלום עליכם,,7136-339-19,7136/339,20061.728395061727,32.0197920898,34.749116094,2019
2019-12-12,2019-12-12,"העמדות 5, בת ים",העמדות 5,7146-212-10,דירה בבית קומות,3.0,שלישית,59.46,1585000,,,1970.0,,3.0,5964752650,1,7146212,False,,בת ים,העמדות,,7146-212-10,7146/212,26656.575849310462,32.0304747924,34.7465039649,2019
2019-12-12,2019-12-12,"יחזקאל דנין 7, בת ים",יחזקאל דנין 7,7136-386-2,דירה בבית קומות,2.0,ראשונה,42.25,1300000,,,1970.0,,4.0,5964460250,1,7136386,False,,בת ים,דנין יחזקאל,,7136-386-2,7136/386,30769.23076923077,32.0182228028,34.7470582407,2019
2019-12-12,2019-12-12,"הרב לוי 23, בת ים",הרב לוי 23,7128-159-3,דירה בבית קומות,4.0,ראשונה,72.52,1480000,,,1973.0,,3.0,6001397900,1,7128159,False,,בת ים,הרב לוי,,7128-159-3,7128/159,20408.163265306124,32.0142278197,34.7542353465,2019
2019-12-12,2019-12-12,"פרלשטיין 5, בת ים",פרלשטיין 5,7136-249-28,דירה בבית קומות,2.5,שניה,48.0,1370000,,,1960.0,,3.0,5964349350,1,7136249,False,233% ב 12.1 שנים,בת ים,פרלשטיין,19.26,7136-249-28,7136/249,28541.666666666668,32.0214109732,34.7461100593,2019
2019-12-12,2019-12-12,"ז'בוטינסקי 7, בת ים",ז'בוטינסקי 7,7142-60-12,דירה בבית קומות,3.0,רביעית,94.0,1690000,,,1960.0,,3.0,5964537850,1,714260,True,-24% ב 1.8 שנים,בת ים,ז'בוטינסקי,-13.33,7142-60-12,7142/60,17978.72340425532,32.021283422,34.7407603286,2019
2019-12-12,2019-12-12,"הרצל 72, בת ים",הרצל 72,7141-75-37,דירה בבית קומות,1.0,רביעית,26.4,800000,,,1970.0,,4.0,5964387650,1,714175,False,,בת ים,הרצל,,7141-75-37,7141/75,30303.030303030304,32.0201469783,34.742993425,2019
2019-12-11,2019-11-12,"דניאל 74, בת ים",דניאל 74,7136-369-21,דירה בבית קומות,3.0,רביעית,60.14,1350000,,,1970.0,,4.0,5963023950,1,7136369,False,62% ב 7.5 שנים,בת ים,דניאל,8.27,7136-369-21,7136/369,22447.62221483206,32.0183349693,34.7496289986,2019
2019-12-11,2019-11-12,"ביאליק 3, בת ים",ביאליק 3,7136-262-2,דירה בבית קומות,4.5,ראשונה,95.0,1800000,,,1970.0,,4.0,5963126250,1,7136262,False,,בת ים,ביאליק,,7136-262-2,7136/262,18947.36842105263,32.0217108324,34.7473238791,2019
2019-12-11,2019-11-12,"אוסקר שינדלר 10, בת ים",אוסקר שינדלר 10,7146-253-33,דירה בבית קומות,5.0,תשיעית,119.78,3220000,,,2001.0,,17.0,5963033850,1,7146253,False,95% ב 12.8 שנים,בת ים,שינדלר אוסקר,7.42,7146-253-33,7146/253,26882.61813324428,32.0309645259,34.7426446261,2019
2019-12-11,2019-11-12,"זמנהוף 15, בת ים",זמנהוף 15,7136-325-44,דירה בבית קומות,3.0,רביעית,74.0,1600000,,,1970.0,,4.0,5962980600,1,7136325,False,21% ב 4.1 שנים,בת ים,זמנהוף,5.12,7136-325-44,7136/325,21621.62162162162,32.0202481404,34.7494180389,2019
2019-12-11,2019-11-12,"החלוצים 12, בת ים",החלוצים 12,7160-132-1,דירה בבית קומות,3.0,ראשונה,60.34,1350000,,,1970.0,,4.0,5963125450,1,7160132,False,,בת ים,החלוצים,,7160-132-1,7160/132,22373.21842890288,32.0270477536,34.758206165,2019
2019-12-11,2019-11-12,"הצורפים 5, בת ים",הצורפים 5,7122-113-2,משרד,,,3600.0,39985000,,,1970.0,,1.0,5964205750,1,7122113,False,,בת ים,הצורפים,,7122-113-2,7122/113,11106.944444444443,32.00681337,34.7439398745,2019
2019-12-11,2019-11-12,"אתרוג 2, בת ים",אתרוג 2,7150-291-13,דירה בבית קומות,3.0,שניה,73.7,1410000,,,1960.0,,3.0,5963109300,1,7150291,False,,בת ים,אתרוג,,7150-291-13,7150/291,19131.61465400271,32.023891505,34.7526163125,2019
2019-12-09,2019-09-12,"קלויזנר 6, בת ים",קלויזנר 6,7150-346-28,דירה בבית קומות,5.0,"קומה ‎10‏, קומה ‎11‏",131.5,2650000,,,2016.0,,10.0,5961746000,1,7150346,False,,בת ים,קלויזנר,,7150-346-28,7150/346,20152.091254752853,32.0232911691,34.7509099643,2019
2019-12-09,2019-09-12,"החרושת 20, בת ים",החרושת 20,7129-134-123,דירה בבית קומות,4.0,שלושים ושמונה,105.0,2610000,,,2020.0,,29.0,5962008300,1,7129134,False,,בת ים,החרושת,,7129-134-123,7129/134,24857.14285714286,32.0132941368,34.7519503401,2019
2019-12-09,2019-09-12,"דניאל 49, בת ים",דניאל 49,7135-150-10,דירה בבית קומות,2.5,שלישית,63.8,1210000,,,1960.0,,3.0,5961211400,1,7135150,False,45% ב 8.6 שנים,בת ים,דניאל,5.23,7135-150-10,7135/150,18965.51724137931,32.0208440796,34.7505127584,2019
2019-12-08,2019-08-12,"כ""ט בנובמבר 23, בת ים","כ""ט בנובמבר 23",7128-190-24,דירה בבית קומות,3.0,שלישית,53.9,1036000,,,1970.0,,4.0,6000475950,1,7128190,False,,בת ים,"כ""ט בנובמבר",,7128-190-24,7128/190,19220.779220779223,32.009886147,34.7556076548,2019
2019-12-08,2019-08-12,"עגנון 71, בת ים",עגנון 71,7138-261-9,דירה בבית קומות,4.0,שלישית,77.45,1450000,,,1980.0,,5.0,5959326300,1,7138261,False,,בת ים,עגנון,,7138-261-9,7138/261,18721.75597159457,32.011644932,34.7400489337,2019
2019-12-08,2019-08-12,"בר-אילן 34, בת ים",בר-אילן 34,7154-192-4,דירה בבית קומות,2.0,ראשונה,43.0,1110000,,,1970.0,,4.0,5959617950,1,7154192,False,,בת ים,בר אילן,,7154-192-4,7154/192,25813.95348837209,32.0138196081,34.7467579035,2019
2019-12-08,2019-08-12,"בר-אילן 6, בת ים",בר-אילן 6,7130-273-14,דירה בבית קומות,3.0,רביעית,62.05,1170000,,,1970.0,,5.0,5959402150,1,7130273,False,,בת ים,בר אילן,,7130-273-14,7130/273,18855.76148267526,32.0167267737,34.7490006203,2019
2019-12-08,2019-08-12,"הציפורנים 3, בת ים",הציפורנים 3,7156-98-16,דירה בבית קומות,2.0,רביעית,37.5,1325000,,,1970.0,,5.0,5959320950,1,715698,False,145% ב 8.8 שנים,בת ים,הצפורנים,16.48,7156-98-16,7156/98,35333.333333333336,32.0178439014,34.757565644,2019
2019-12-08,2019-08-12,"שלום עליכם 16, בת ים",שלום עליכם 16,7136-350-2,דירה בבית קומות,3.5,ראשונה,75.0,1670000,,,1994.0,,4.0,5959307300,1,7136350,False,28% ב 5.5 שנים,בת ים,שלום עליכם,5.09,7136-350-2,7136/350,22266.666666666668,32.0194725259,34.7491794344,2019
2019-12-08,2019-08-12,"דניאל 50, בת ים",דניאל 50,7136-237-10,דירה בבית קומות,2.0,שניה,31.6,1000000,,,1970.0,,4.0,5960271650,1,7136237,False,,בת ים,דניאל,,7136-237-10,7136/237,31645.56962025316,32.0216696572,34.7497455186,2019
2019-12-06,2019-06-12,"בר-אילן 1, בת ים",בר-אילן 1,7155-169-20,דירה,3.0,קומה ‎7‏,73.0,1770000,1.0,נוף השדרה,2019.0,,10.0,5956797600,1,7155169,False,4% ב 1.1 שנים,בת ים,בר אילן,3.64,7155-169-20,7155/169,24246.575342465752,32.0169306627,34.7498274656,2019
2019-12-06,2019-06-12,"בן-גוריון 99, בת ים",בן-גוריון 99,7139-225-190,דירה בבית קומות,2.0,ארבע עשרה,42.5,1450000,,,1995.0,,24.0,5956836850,1,7139225,False,11% ב 0.5 שנים,בת ים,בן גוריון,22.0,7139-225-190,7139/225,34117.64705882353,32.0166580657,34.7390774007,2019
2019-12-06,2019-06-12,"הגבעות 18, בת ים",הגבעות 18,7156-73-19,דירה בבית קומות,2.0,שניה,35.2,1060000,,,1960.0,,4.0,5956984950,1,715673,False,51% ב 3.5 שנים,בת ים,הגבעות,14.57,7156-73-19,7156/73,30113.63636363636,32.0183635292,34.7608169896,2019
2019-12-06,2019-06-12,"ז'בוטינסקי 15, בת ים",ז'בוטינסקי 15,7141-100-4,דירה בבית קומות,4.0,ראשונה,70.0,1720000,,,1970.0,,3.0,5957130100,1,7141100,False,,בת ים,ז'בוטינסקי,,7141-100-4,7141/100,24571.42857142857,32.0213584831,34.7426149543,2019
2019-12-06,2019-06-12,"מצדה 5, בת ים",מצדה 5,7128-72-48,דירה בבית קומות,4.0,שישית,71.5,1465000,,,1970.0,,6.0,5957110300,1,712872,False,,בת ים,מצדה,,7128-72-48,7128/72,20489.51048951049,32.0131003447,34.7580708841,2019
2019-12-05,2019-05-12,"דניאל 91, בת ים",דניאל 91,7155-153-11,דירה בבית קומות,2.5,שלישית,55.3,1250000,,,1970.0,,4.0,5955044950,1,7155153,False,35% ב 4.8 שנים,בת ים,דניאל,7.29,7155-153-11,7155/153,22603.978300180832,32.0171755764,34.7499925465,2019
2019-12-05,2019-05-12,"הנביאים 59, בת ים",הנביאים 59,7120-83-7,דירה בבית קומות,4.0,שניה,104.0,572000,,,1969.0,,4.0,5955457750,1,712083,False,,בת ים,הנביאים,,7120-83-7,7120/83,5500.0,32.0089713773,34.7435168052,2019
2019-12-05,2019-05-12,"הפטמן 3, בת ים",הפטמן 3,7130-242-21,דירה בבית קומות,4.0,שלישית,84.15,1610000,,,1982.0,,5.0,5955513900,1,7130242,False,,בת ים,הפטמן,,7130-242-21,7130/242,19132.50148544266,32.0174955081,34.7461346435,2019
2019-12-05,2019-05-12,"המעפילים 35, בת ים",המעפילים 35,7133-22-4,דירה בבית קומות,4.0,ראשונה,74.0,1350000,,,1960.0,,3.0,5957025350,1,713322,False,42% ב 4 שנים,בת ים,המעפילים,10.5,7133-22-4,7133/22,18243.243243243243,32.0243647232,34.756164958,2019
2019-12-04,2019-04-12,"העצמאות 74, בת ים",העצמאות 74,7153-375-11,דירה בבית קומות,2.0,שלישית,51.8,1250000,,,1970.0,,4.0,5954101100,1,7153375,False,,בת ים,העצמאות,,7153-375-11,7153/375,24131.27413127413,,,2019
2019-12-03,2019-03-12,"הרשת 17, בת ים",הרשת 17,7136-223-59,דירה בבית קומות,3.0,שישית,87.0,1550000,,,1970.0,,3.0,5953540550,1,7136223,False,,בת ים,הרשת,,7136-223-59,7136/223,17816.091954022988,32.0223586586,34.7473461366,2019
2019-12-02,2019-02-12,"ברל כצנלסון 4, בת ים",ברל כצנלסון 4,7151-254-12,דירה בבית קומות,2.0,שלישית,45.5,1080000,,,1960.0,,4.0,5951753950,1,7151254,False,,בת ים,כצנלסון ברל,,7151-254-12,7151/254,23736.263736263736,32.0249851579,34.7543194263,2019
2019-12-02,2019-02-12,"הפועל 7, בת ים",הפועל 7,7134-135-8,דירה בבית קומות,1.0,קומה ‎2‏,93.71,684000,,,2019.0,,7.0,5952172300,1,7134135,True,-27% ב 4.6 שנים,בת ים,הפועל,-5.87,7134-135-8,7134/135,7299.114288763206,32.0199912054,34.7528388029,2019
2019-12-02,2019-02-12,"משה סנה 6, בת ים",משה סנה 6,7156-21-5,דירה בבית קומות,3.0,שלישית,55.0,1275000,,,1970.0,,4.0,5951861200,1,715621,False,,בת ים,סנה משה,,7156-21-5,7156/21,23181.81818181818,32.0169659059,34.7576656389,2019
2019-11-29,2019-11-29,"החרושת 20, בת ים",החרושת 20,7129-134-120,דירה בבית קומות,3.0,ארבע עשרה,87.0,2031000,,,2020.0,,29.0,5963700450,1,7129134,False,,בת ים,החרושת,,7129-134-120,7129/134,23344.82758620689,32.0132941368,34.7519503401,2019
2019-11-29,2019-11-29,"אלי כהן 14, בת ים",אלי כהן 14,7128-46-14,דירה בבית קומות,3.0,שלישית,69.6,1355000,,,1970.0,,4.0,5963747100,1,712846,False,18% ב 6.8 שנים,בת ים,כהן אלי,2.65,7128-46-14,7128/46,19468.390804597704,32.0116677784,34.7586106009,2019
2019-11-28,2019-11-28,"ויצמן 31, בת ים",ויצמן 31,7153-273-1,דירה בבית קומות,4.0,קרקע,92.0,1650000,,,1951.0,,1.0,5963675300,1,7153273,False,222% ב 21.3 שנים,בת ים,ויצמן,10.42,7153-273-1,7153/273,17934.782608695652,32.0297229532,34.7519362755,2019
2019-11-28,2019-11-28,"אילת 19, בת ים",אילת 19,7131-173-3,דירה בבית קומות,3.0,שניה,49.4,1158000,,,1970.0,,4.0,5963783750,1,7131173,False,2% ב 0.9 שנים,בת ים,אילת,2.22,7131-173-3,7131/173,23441.295546558704,32.0189441802,34.7607437923,2019
2019-11-28,2019-11-28,"העצמאות 9, בת ים",העצמאות 9,7143-32-59,דירה,4.0,,100.0,2950000,1.0,עלמה,2016.0,,14.0,11181293016,1,714332,False,,בת ים,העצמאות,,7143-32-59,7143/32,29500.0,32.0227650945,34.7413927532,2019
2019-11-28,2019-11-28,"ניצנה 16, בת ים",ניצנה 16,7133-54-22,דירה בבית קומות,2.0,שניה,38.9,1010000,,,1970.0,,4.0,5963686900,1,713354,False,236% ב 15.5 שנים,בת ים,ניצנה,15.23,7133-54-22,7133/54,25964.01028277635,32.0241846416,34.7589490528,2019
2019-11-28,2019-11-28,"רבי בנימין 3, בת ים",רבי בנימין 3,7130-266-15,דירה בבית קומות,3.0,רביעית,65.0,1560000,,,1970.0,,6.0,5963687300,1,7130266,False,28% ב 3.8 שנים,בת ים,רבי בנימין,7.37,7130-266-15,7130/266,24000.0,32.0168935635,34.7481005593,2019
2019-11-27,2019-11-27,"תנין 8, בת ים",תנין 8,7131-33-7,דירה בבית קומות,3.0,שלישית,61.0,1305000,,,1970.0,,4.0,5964125350,1,713133,False,13% ב 4.3 שנים,בת ים,תנין,3.02,7131-33-7,7131/33,21393.44262295082,32.0227450534,34.755816024,2019
2019-11-27,2019-11-27,"טשרניחובסקי 6, בת ים",טשרניחובסקי 6,7136-265-7,דירה בבית קומות,3.0,שלישית,64.0,1570000,,,1970.0,,8.0,5963636500,1,7136265,False,209% ב 18.2 שנים,בת ים,טשרניחובסקי,11.48,7136-265-7,7136/265,24531.25,32.0214836125,34.7477284093,2019
2019-11-27,2019-11-27,"מצדה 3, בת ים",מצדה 3,7128-72-70,דירה בבית קומות,3.0,חמישית,61.1,1405000,,,1970.0,,6.0,5964196350,1,712872,False,,בת ים,מצדה,,7128-72-70,7128/72,22995.09001636661,32.0131003447,34.7580708841,2019
2019-11-26,2019-11-26,"רימון 8, בת ים",רימון 8,7151-216-5,דירה בבית קומות,2.0,ראשונה,49.45,1070000,,,1960.0,,4.0,5964463100,1,7151216,False,,בת ים,רימון,,7151-216-5,7151/216,21638.018200202223,32.0230586862,34.7535327849,2019
2019-11-26,2019-11-26,"חלמית 11, בת ים",חלמית 11,6997-270-9,דירה בבית קומות,3.0,שלישית,63.5,1275000,,,1970.0,,4.0,5964062550,1,6997270,False,,בת ים,חלמית,,6997-270-9,6997/270,20078.740157480315,32.0324445,34.7579134125,2019
2019-11-26,2019-11-26,"מוהליבר 10, בת ים",מוהליבר 10,7124-126-1,דירה בבית קומות,4.0,ראשונה,77.0,1750000,,,1990.0,,7.0,5963640250,1,7124126,False,211% ב 16 שנים,בת ים,מוהליבר,13.19,7124-126-1,7124/126,22727.272727272728,32.0061289192,34.7512898368,2019
2019-11-26,2019-11-26,"השקמה 47, בת ים",השקמה 47,7154-210-15,דירה בבית קומות,2.5,רביעית,54.77,1335000,,,1970.0,,4.0,5963894350,1,7154210,False,30% ב 3 שנים,בת ים,השקמה,10.0,7154-210-15,7154/210,24374.65765930253,32.0118528648,34.7437459308,2019
2019-11-26,2019-11-26,"רוטשילד 68, בת ים",רוטשילד 68,7152-49-16,דירה בבית קומות,3.0,שלישית,67.4,1440000,,,1960.0,,4.0,5963578750,1,715249,False,155% ב 12.3 שנים,בת ים,רוטשילד,12.6,7152-49-16,7152/49,21364.985163204747,32.0265187552,34.7535690375,2019
2019-11-26,2019-11-26,"בלפור 89, בת ים",בלפור 89,7136-278-5,דירה בבית קומות,3.0,ראשונה,60.16,1350000,,,1970.0,,4.0,5963573400,1,7136278,False,33% ב 6.5 שנים,בת ים,בלפור,5.08,7136-278-5,7136/278,22440.159574468085,32.0202525011,34.7458350458,2019
2019-11-26,2019-11-26,"העצמאות 40, בת ים",העצמאות 40,7148-189-3,דירה בבית קומות,2.5,קרקע,47.5,1260000,,,1958.0,,3.0,5964454900,1,7148189,False,48% ב 5.4 שנים,בת ים,העצמאות,8.89,7148-189-3,7148/189,26526.315789473683,32.0238009608,34.747878054,2019
2019-11-25,2019-11-25,"ארלוזורוב 67, בת ים",ארלוזורוב 67,7141-140-23,דירה בבית קומות,4.0,חמישית,112.0,1538000,,,1970.0,2019.0,3.0,5963782950,1,7141140,False,,בת ים,ארלוזורוב,,7141-140-23,7141/140,13732.142857142857,32.0209622334,34.744792161,2019
2019-11-25,2019-11-25,"דב הוז 10, בת ים",דב הוז 10,7134-38-2,דירה בבית קומות,5.0,ראשונה,154.0,2800000,,,1970.0,,1.0,5964858300,1,713438,False,,בת ים,הוז דב,,7134-38-2,7134/38,18181.81818181818,32.0203726626,34.7535959886,2019
2019-11-25,2019-11-25,"כ""ט בנובמבר 17, בת ים","כ""ט בנובמבר 17",7128-187-4,דירה בבית קומות,4.0,ראשונה,73.09,1750000,,,1970.0,,7.0,5963622050,1,7128187,False,79% ב 8.5 שנים,בת ים,"כ""ט בנובמבר",9.29,7128-187-4,7128/187,23943.083869202357,32.0103821228,34.754454388,2019
2019-11-25,2019-11-25,"קריתי 10, בת ים",קריתי 10,7155-277-10,דירה בבית קומות,3.0,שניה,60.5,1400000,,,1970.0,,5.0,5963525100,1,7155277,False,57% ב 7.3 שנים,בת ים,קריתי,7.81,7155-277-10,7155/277,23140.495867768597,32.0163878361,34.7513013744,2019
2019-11-24,2019-11-24,"כ""ט בנובמבר 3, בת ים","כ""ט בנובמבר 3",7129-66-2,תעשיה,,,1550.0,12950000,,,1950.0,,,5964462700,1,712966,False,,בת ים,"כ""ט בנובמבר",,7129-66-2,7129/66,8354.838709677419,32.0117289858,34.7512323852,2019
2019-11-24,2019-11-24,"טבנקין 25, בת ים",טבנקין 25,7140-197-10,דירה בבית קומות,4.0,שלישית,87.34,2300000,,,2006.0,,6.0,5963768900,1,7140197,False,115% ב 12.1 שנים,בת ים,טבנקין,9.5,7140-197-10,7140/197,26333.86764369132,32.0173186801,34.7436164127,2019
2019-11-24,2019-11-24,"אנה פרנק 19, בת ים",אנה פרנק 19,7124-285-16,דירה בבית קומות,4.0,רביעית,95.2,2300000,,,2007.0,,9.0,5963504000,1,7124285,False,166% ב 13.1 שנים,בת ים,פרנק אנה,12.67,7124-285-16,7124/285,24159.66386554622,32.0048825708,34.7532459707,2019
2019-11-24,2019-11-24,"ברל כצנלסון 59, בת ים",ברל כצנלסון 59,7156-4-11,דירה בבית קומות,3.0,שניה,67.7,1350000,,,1960.0,,4.0,5963762650,1,71564,False,,בת ים,כצנלסון ברל,,7156-4-11,7156/4,19940.91580502216,32.0168278578,34.755000181,2019
2019-11-24,2019-11-24,"העצמאות 9, בת ים",העצמאות 9,7143-32-58,מחסנים,,,,52000,,,2016.0,,14.0,5963832850,1,714332,False,,בת ים,העצמאות,,7143-32-58,7143/32,,32.0227650945,34.7413927532,2019
2019-11-24,2019-11-24,"השקמה 30, בת ים",השקמה 30,7137-162-23,דירה בבית קומות,3.0,חמישית,72.0,1460000,1.0,השקמה 30-32 בת ים,1970.0,2019.0,4.0,5963491750,1,7137162,False,,בת ים,השקמה,,7137-162-23,7137/162,20277.777777777777,32.0129122654,34.7435357252,2019
2019-11-24,2019-11-24,"השקמה 38, בת ים",השקמה 38,7137-155-12,דירה בבית קומות,5.0,רביעית +חמישית,100.23,1980000,,,1970.0,,6.0,5963568450,1,7137155,False,,בת ים,השקמה,,7137-155-12,7137/155,19754.56450164621,32.0122157571,34.7433800664,2019
2019-11-24,2019-11-24,"קלויזנר 2, בת ים",קלויזנר 2,7150-339-6,דירה בבית קומות,4.0,שניה,92.59,1730000,,,1960.0,,3.0,5963838200,1,7150339,False,,בת ים,קלויזנר,,7150-339-6,7150/339,18684.523166648665,32.0232878176,34.7503173336,2019
2019-11-24,2019-11-24,"רקפת 6, בת ים",רקפת 6,7138-254-6,דירה בבית קומות,2.0,שניה,47.07,1565000,,,1970.0,,12.0,5963564700,1,7138254,False,211% ב 12.7 שנים,בת ים,רקפת,16.61,7138-254-6,7138/254,33248.35351603994,32.012515481,34.7408919198,2019
2019-11-24,2019-11-24,"רימון 4, בת ים",רימון 4,7151-214-6,דירה בבית קומות,2.5,ראשונה,37.44,1230000,,,1960.0,,3.0,5963580850,1,7151214,False,5% ב 2.5 שנים,בת ים,רימון,2.0,7151-214-6,7151/214,32852.5641025641,32.02306227,34.7531494151,2019
2019-11-22,2019-11-22,"הרשת 17, בת ים",הרשת 17,7136-223-10,דירה בבית קומות,3.0,ראשונה,59.0,1525000,,,1970.0,,3.0,5963634000,1,7136223,False,,בת ים,הרשת,,7136-223-10,7136/223,25847.457627118645,32.0223586586,34.7473461366,2019
2019-11-21,2019-11-21,"ז'בוטינסקי 6, בת ים",ז'בוטינסקי 6,7142-96-95,דירה בבית קומות,2.0,שישית,52.0,1490000,,,1970.0,,8.0,5963408750,1,714296,False,75% ב 8.8 שנים,בת ים,ז'בוטינסקי,8.52,7142-96-95,7142/96,28653.846153846152,32.0208042331,34.7412931668,2019
2019-11-21,2019-11-21,"הרשת 15, בת ים",הרשת 15,7136-470-2,דירה בבית קומות,4.0,ראשונה,102.46,1825000,,,1970.0,,7.0,5963415400,1,7136470,False,,בת ים,הרשת,,7136-470-2,7136/470,17811.829006441538,32.0223681571,34.7469415742,2019
2019-11-21,2019-11-21,"מסריק 4, בת ים",מסריק 4,7143-51-3,דירה בבית קומות,3.0,ראשונה,85.5,1645000,,,1960.0,,5.0,5963403800,1,714351,False,274% ב 16.4 שנים,בת ים,מסריק,16.71,7143-51-3,7143/51,19239.766081871345,32.0240311879,34.7411112979,2019
2019-11-21,2019-11-21,"דניאל 49, בת ים",דניאל 49,7135-150-6,דירה בבית קומות,2.0,שניה,56.0,1200000,,,1960.0,,3.0,5963502450,1,7135150,False,29% ב 7.6 שנים,בת ים,דניאל,3.82,7135-150-6,7135/150,21428.571428571428,32.0208440796,34.7505127584,2019
2019-11-21,2019-11-21,"ארלוזורוב 59, בת ים",ארלוזורוב 59,7141-116-3,דירה בבית קומות,1.0,ראשונה,20.1,800000,,,1950.0,,2.0,5963467400,1,7141116,False,23% ב 2.6 שנים,בת ים,ארלוזורוב,8.85,7141-116-3,7141/116,39800.99502487562,32.0219337989,34.7448698661,2019
2019-11-20,2019-11-20,"העצמאות 48, בת ים",העצמאות 48,7149-122-8,דירה בבית קומות,2.0,ראשונה,50.6,1280000,,,1960.0,,3.0,5963346500,1,7149122,False,47% ב 6 שנים,בת ים,העצמאות,7.83,7149-122-8,7149/122,25296.44268774704,32.0250380712,34.7482285006,2019
2019-11-20,2019-11-20,"רבינוביץ 31, בת ים",רבינוביץ 31,7154-325-2,דירה בבית קומות,2.5,ראשונה,53.0,1290000,,,1970.0,,3.0,5963663700,1,7154325,False,,בת ים,רבינוביץ',,7154-325-2,7154/325,24339.622641509435,32.0111893265,34.7468362989,2019
2019-11-20,2019-11-20,"יוספטל גיורא 77, בת ים",יוספטל גיורא 77,7155-255-13,דירה בבית קומות,3.0,רביעית,61.41,1250000,,,1970.0,,4.0,5963330450,1,7155255,False,13% ב 3.3 שנים,בת ים,יוספטל גיורא,3.94,7155-255-13,7155/255,20354.99104380394,32.0157057656,34.7522222047,2019
2019-11-20,2019-11-20,"חלמית 11, בת ים",חלמית 11,6997-270-8,דירה בבית קומות,3.0,שניה,63.5,1350000,,,1970.0,,4.0,5963383600,1,6997270,False,234% ב 14.2 שנים,בת ים,חלמית,16.48,6997-270-8,6997/270,21259.84251968504,32.0324445,34.7579134125,2019
2019-11-20,2019-11-20,"החרושת 20, בת ים",החרושת 20,7129-134-22,משרד,,שתים עשרה,98.0,1184000,,,2020.0,,29.0,5963938000,1,7129134,False,,בת ים,החרושת,,7129-134-22,7129/134,12081.632653061224,32.0132941368,34.7519503401,2019
2019-11-20,2019-11-20,"תל חי 9, בת ים",תל חי 9,7128-259-9,דירה בבית קומות,2.0,שלישית,47.4,1100000,,,1970.0,,4.0,5963386500,1,7128259,False,18% ב 3 שנים,בת ים,תל חי,6.0,7128-259-9,7128/259,23206.75105485232,32.0140969873,34.7615112825,2019
2019-11-20,2019-11-20,"יוספטל גיורא 85, בת ים",יוספטל גיורא 85,7155-259-7,דירה בבית קומות,3.0,שניה,66.01,1350000,,,1970.0,,4.0,5963462450,1,7155259,False,,בת ים,יוספטל גיורא,,7155-259-7,7155/259,20451.44675049235,32.0155750076,34.7528840546,2019
2019-11-20,2019-11-20,"קיבוץ גלויות 35, בת ים",קיבוץ גלויות 35,7160-248-3,דירה בבית קומות,3.0,שניה,66.5,1300000,,,1960.0,,2.0,5964412800,1,7160248,False,30% ב 4.5 שנים,בת ים,קבוץ גלויות,6.67,7160-248-3,7160/248,19548.87218045113,32.0277281358,34.7597134634,2019
2019-11-20,2019-11-20,"בר-אילן 31, בת ים",בר-אילן 31,7154-218-15,דירה בבית קומות,2.0,שלישית,56.0,1270000,,,1960.0,,4.0,5963348550,1,7154218,False,43% ב 7.3 שנים,בת ים,בר אילן,5.89,7154-218-15,7154/218,22678.571428571428,32.014346043,34.7478659012,2019
2019-11-20,2019-11-20,"החשמונאים 16, בת ים",החשמונאים 16,7135-151-10,דירה בבית קומות,3.0,שניה,60.78,1280000,,,1960.0,,4.0,5963336600,1,7135151,False,172% ב 12.7 שנים,בת ים,החשמונאים,13.54,7135-151-10,7135/151,21059.559065482063,32.0208322206,34.7508842196,2019
2019-11-19,2019-11-19,"הגיבורים 14, בת ים",הגיבורים 14,7152-389-4,דירה בבית קומות,2.0,ראשונה,35.7,1350000,,,1954.0,,1.0,5963276400,1,7152389,False,22% ב 3.5 שנים,בת ים,הגבורים,6.29,7152-389-4,7152/389,37815.12605042016,32.0297338747,34.7536188536,2019
2019-11-19,2019-11-19,"החרושת 20, בת ים",החרושת 20,7129-134-21,משרד,,שתים עשרה,111.0,1347000,,,2020.0,,29.0,5963646900,1,7129134,False,,בת ים,החרושת,,7129-134-21,7129/134,12135.135135135137,32.0132941368,34.7519503401,2019
2019-11-19,2019-11-19,"החשמונאים 8, בת ים",החשמונאים 8,7135-143-16,דירה בבית קומות,3.0,רביעית,58.19,1345000,,,1970.0,,4.0,5963351850,1,7135143,False,70% ב 10.6 שנים,בת ים,החשמונאים,6.6,7135-143-16,7135/143,23113.937102594948,32.021476539,34.7508689735,2019
2019-11-19,2019-11-19,"הרשת 10, בת ים",הרשת 10,7136-253-5,דירה בבית קומות,4.0,שניה,76.4,1640000,,,1970.0,,3.0,5963352250,1,7136253,False,6% ב 3.3 שנים,בת ים,הרשת,1.82,7136-253-5,7136/253,21465.968586387437,32.0219347256,34.7469130695,2019
2019-11-19,2019-11-19,"אילת 15, בת ים",אילת 15,7131-171-28,דירה בבית קומות,2.0,שניה,35.2,1150000,,,1960.0,,4.0,5963275500,1,7131171,False,27% ב 3.9 שנים,בת ים,אילת,6.92,7131-171-28,7131/171,32670.454545454544,32.0195642442,34.7608614198,2019
2019-11-18,2019-11-18,"המשוררת רחל 9, בת ים",המשוררת רחל 9,7140-189-4,דירה בבית קומות,2.0,שניה,53.6,1485000,,,1970.0,,4.0,5963229400,1,7140189,False,65% ב 6.8 שנים,בת ים,המשוררת רחל,9.56,7140-189-4,7140/189,27705.223880597016,32.0171968812,34.7445354547,2019
2019-11-18,2019-11-18,"בן-גוריון 65, בת ים",בן-גוריון 65,7143-70-24,דירה בבית קומות,4.0,שתים עשרה,94.41,3373000,,,2003.0,,19.0,5963775950,1,714370,False,149% ב 15.5 שנים,בת ים,בן גוריון,9.61,7143-70-24,7143/70,35727.14754792925,32.022945662,34.7399968763,2019
2019-11-18,2019-11-18,"החרושת 20, בת ים",החרושת 20,7129-134-20,משרד,,שתים עשרה,110.0,1240000,,,2020.0,,29.0,5963648050,1,7129134,False,,בת ים,החרושת,,7129-134-20,7129/134,11272.727272727272,32.0132941368,34.7519503401,2019
2019-11-18,2019-11-18,"השר פנקס 10, בת ים",השר פנקס 10,7136-390-7,דירה בבית קומות,4.0,רביעית,86.31,1950000,,,2005.0,,5.0,5963559750,1,7136390,False,160% ב 13.1 שנים,בת ים,השר פנקס,12.21,7136-390-7,7136/390,22592.97879735836,32.0181615259,34.7482446531,2019
2019-11-17,2019-11-17,"הרב לוזון 10, בת ים",הרב לוזון 10,7128-175-8,דירה בבית קומות,2.0,שניה,40.51,1100000,,,1970.0,,4.0,5964069200,1,7128175,False,122% ב 10.4 שנים,בת ים,הרב לוזון,11.73,7128-175-8,7128/175,27153.78918785485,32.011846414,34.7524035919,2019
2019-11-17,2019-11-17,"אורט ישראל 12, בת ים",אורט ישראל 12,7154-368-3,דירה בבית קומות,3.0,ראשונה,57.0,1320000,,,1970.0,,4.0,5963394800,1,7154368,False,,בת ים,אורט ישראל,,7154-368-3,7154/368,23157.894736842107,32.0134400064,34.7491990154,2019
2019-11-17,2019-11-17,"הלפר 14, בת ים",הלפר 14,7145-53-1,קומבינציה,,,100.0,135000,,,2021.0,,9.0,5964367850,1,714553,False,,בת ים,הלפר,,7145-53-1,7145/53,1350.0,32.0278279726,34.743872347,2019
2019-11-17,2019-11-17,"החרושת 20, בת ים",החרושת 20,7129-134-19,משרד,,שלוש עשרה,111.0,1325000,,,2020.0,,29.0,5963645200,1,7129134,False,,בת ים,החרושת,,7129-134-19,7129/134,11936.936936936936,32.0132941368,34.7519503401,2019
2019-11-17,2019-11-17,"השר שפירא 15, בת ים",השר שפירא 15,7140-244-3,דירה בבית קומות,3.0,ראשונה,53.8,1630000,,,1970.0,,5.0,5964281250,1,7140244,False,202% ב 18.5 שנים,בת ים,השר שפירא,10.92,7140-244-3,7140/244,30297.39776951673,32.015206094,34.7425051434,2019
2019-11-17,2019-11-17,"הנרייטה סאלד 13, בת ים",הנרייטה סאלד 13,7156-59-25,דירה בבית קומות,3.0,ראשונה,57.85,1450000,,,1970.0,,4.0,5963218600,1,715659,False,73% ב 7.9 שנים,בת ים,סולד הנרייטה,9.24,7156-59-25,7156/59,25064.822817631804,32.016798548,34.7612305036,2019
2019-11-17,2019-11-17,"חלמית 11, בת ים",חלמית 11,6997-270-11,דירה בבית קומות,3.0,שלישית,63.5,1430000,,,1970.0,,4.0,5963215350,1,6997270,False,64% ב 4.5 שנים,בת ים,חלמית,14.22,6997-270-11,6997/270,22519.68503937008,32.0324445,34.7579134125,2019
2019-11-17,2019-11-17,"זמנהוף 12, בת ים",זמנהוף 12,7136-342-15,דירה בבית קומות,2.0,ראשונה,44.24,1015000,,,1970.0,,4.0,5964888900,1,7136342,False,,בת ים,זמנהוף,,7136-342-15,7136/342,22943.037974683542,32.0198603515,34.7494398487,2019
2019-11-17,2019-11-17,"דניאל 57, בת ים",דניאל 57,7135-158-8,דירה בבית קומות,2.0,ראשונה,42.0,1130000,,,1970.0,,4.0,5963221100,1,7135158,False,,בת ים,דניאל,,7135-158-8,7135/158,26904.761904761905,32.0203034598,34.7504883085,2019
2019-11-15,2019-11-15,"הלפר 27, בת ים",הלפר 27,7147-72-1,דירה בבית קומות,3.0,ראשונה,67.0,1569000,,,1970.0,,4.0,5963223150,1,714772,False,37% ב 8.3 שנים,בת ים,הלפר,4.46,7147-72-1,7147/72,23417.910447761195,32.0286559471,34.7468644225,2019
2019-11-15,2019-11-15,"רוטשילד 27, בת ים",רוטשילד 27,7148-223-8,חנות,,קרקע וביניים,96.2,2435000,,,1970.0,,15.0,5964440050,1,7148223,False,,בת ים,רוטשילד,,7148-223-8,7148/223,25311.85031185031,32.027141677,34.7459488697,2019
2019-11-15,2019-11-15,"הרב קוקיס 4, בת ים",הרב קוקיס 4,7142-147-3,דירה בבית קומות,4.0,ראשונה,71.38,1590000,,,1970.0,,4.0,5963485100,1,7142147,False,,בת ים,הרב קוקיס,,7142-147-3,7142/147,22275.14710002802,32.021676115,34.7421117218,2019
2019-11-14,2019-11-14,"החשמונאים 44, בת ים",החשמונאים 44,7135-178-13,דירה בבית קומות,2.0,שלישית,53.5,1200000,,,1970.0,,4.0,5964416500,1,7135178,False,,בת ים,החשמונאים,,7135-178-13,7135/178,22429.90654205608,32.018831521,34.7507940043,2019
2019-11-14,2019-11-14,"הרב קוק 5, בת ים",הרב קוק 5,7144-61-25,חנות,,,150.0,2051000,,,1960.0,,8.0,5963267650,1,714461,False,,בת ים,הרב קוק,,7144-61-25,7144/61,13673.333333333334,32.0238169857,34.7428963609,2019
2019-11-14,2019-11-14,"בלפור 75, בת ים",בלפור 75,7148-108-8,דירה בבית קומות,3.0,ראשונה,65.0,1733000,,,1970.0,,2.0,5963125850,1,7148108,False,33% ב 8.5 שנים,בת ים,בלפור,3.88,7148-108-8,7148/108,26661.53846153846,32.02294933,34.7455709752,2019
2019-11-14,2019-11-14,"השר פנקס 22, בת ים",השר פנקס 22,7136-407-5,דירה בבית קומות,2.5,שניה,51.75,1400000,,,1970.0,,4.0,5963258150,1,7136407,False,53% ב 6.5 שנים,בת ים,השר פנקס,8.15,7136-407-5,7136/407,27053.14009661836,32.0178475724,34.7491281343,2019
2019-11-13,2019-11-13,"דוד רזיאל 13, בת ים",דוד רזיאל 13,7128-67-88,דירה בבית קומות,3.0,רביעית,57.4,1060000,,,1970.0,,6.0,5963408350,1,712867,False,17% ב 5.5 שנים,בת ים,רזיאל דוד,3.09,7128-67-88,7128/67,18466.898954703836,32.014344651,34.7585947463,2019
2019-11-13,2019-11-13,"מתתיהו גנם 4, בת ים",מתתיהו גנם 4,7133-50-11,דירה בבית קומות,2.0,שניה,49.0,1200000,,,1960.0,,4.0,5963061900,1,713350,False,,בת ים,גנם מתתיהו,,7133-50-11,7133/50,24489.79591836735,32.0240213933,34.7583829658,2019
2019-11-13,2019-11-13,"יצחק שדה 8, בת ים",יצחק שדה 8,7120-154-111,דירה בבית קומות,4.0,קומה ‎5‏,106.9,2800000,,,2008.0,,24.0,5963133650,1,7120154,False,142% ב 10.5 שנים,בת ים,יצחק שדה,13.52,7120-154-111,7120/154,26192.70346117867,32.0100179071,34.7428555429,2019
2019-11-12,2019-12-11,"רימון 7, בת ים",רימון 7,7151-212-12,דירה בבית קומות,2.5,שלישית,57.2,1350000,,,1960.0,,3.0,5964324100,1,7151212,False,134% ב 11.6 שנים,בת ים,רימון,11.55,7151-212-12,7151/212,23601.3986013986,32.0234024135,34.7536944936,2019
2019-11-12,2019-12-11,"התחייה 4, בת ים",התחייה 4,7131-100-15,דירה בבית קומות,2.0,שניה,50.5,1680000,,,1960.0,,3.0,5964329950,1,7131100,False,12% ב 2.1 שנים,בת ים,התחיה,5.71,7131-100-15,7131/100,33267.32673267327,32.022350782,34.7568156063,2019
2019-11-12,2019-12-11,"בלפור 140, בת ים",בלפור 140,7138-286-11,חנות,,קרקע,25.0,650000,,,1970.0,,5.0,5964716000,1,7138286,False,,בת ים,בלפור,,7138-286-11,7138/286,26000.0,32.012755911,34.7419303672,2019
2019-11-12,2019-12-11,"צה""ל 3, בת ים","צה""ל 3",7148-227-11,דירה בבית קומות,4.0,רביעית,91.35,1780000,,,1997.0,,6.0,5964768400,1,7148227,False,109% ב 13.5 שנים,בת ים,"צה""ל",8.07,7148-227-11,7148/227,19485.49534756432,32.0244566341,34.7483349789,2019
2019-11-12,2019-12-11,"ניצנה 7, בת ים",ניצנה 7,7160-315-2,דירה בבית קומות,3.0,שניה,44.0,1070000,,,1960.0,,3.0,6000449500,1,7160315,False,,בת ים,ניצנה,,7160-315-2,7160/315,24318.18181818182,32.0263155637,34.7597089381,2019
2019-11-12,2019-12-11,"ברל כצנלסון 70, בת ים",ברל כצנלסון 70,7155-242-6,דירה בבית קומות,3.0,שניה,65.32,1380000,,,1969.0,,5.0,5965169700,1,7155242,False,,בת ים,כצנלסון ברל,,7155-242-6,7155/242,21126.760563380285,32.0174903281,34.7541826193,2019
2019-11-12,2019-12-11,"רוטשילד 56, בת ים",רוטשילד 56,7149-207-12,דירה בבית קומות,4.0,שלישית,83.0,1650000,,,1960.0,,8.0,5964444600,1,7149207,False,,בת ים,רוטשילד,,7149-207-12,7149/207,19879.51807228916,32.0266698701,34.7520061166,2019
2019-11-12,2019-12-11,"אהוד קינמון 13, בת ים",אהוד קינמון 13,7129-131-7,משרד,,שלישית,339.0,2542500,,,1990.0,,4.0,6000177300,1,7129131,False,,בת ים,קנמון אהוד,,7129-131-7,7129/131,7500.0,32.012742677,34.7516659953,2019
2019-11-12,2019-12-11,"בר-יהודה 42, בת ים",בר-יהודה 42,7137-131-5,דירה בבית קומות,2.5,שניה,51.2,1260000,,,1970.0,,4.0,5964325800,1,7137131,False,127% ב 11.5 שנים,בת ים,בר יהודה,11.04,7137-131-5,7137/131,24609.375,32.0127760823,34.7427790272,2019
2019-11-12,2019-12-11,"הנביאים 54, בת ים",הנביאים 54,7120-154-55,דירה בבית קומות,4.5,קומה ‎14‏,107.5,2800000,,,2007.0,,34.0,5964283700,1,7120154,False,20% ב 4.7 שנים,בת ים,יצחק שדה,4.26,7120-154-55,7120/154,26046.511627906977,32.0100179071,34.7428555429,2019
2019-11-12,2019-12-11,"הרצל 81, בת ים",הרצל 81,7136-286-30,דירה בבית קומות,3.0,שלישית,62.82,1320000,,,1960.0,,3.0,5964451550,1,7136286,False,,בת ים,הרצל,,7136-286-30,7136/286,21012.41642788921,32.0193976501,34.7462851024,2019
2019-11-11,2019-11-11,"ז'בוטינסקי 6, בת ים",ז'בוטינסקי 6,7142-96-92,דירה בבית קומות,2.0,שישית,51.0,1380000,,,1970.0,,8.0,5962967800,1,714296,False,,בת ים,ז'בוטינסקי,,7142-96-92,7142/96,27058.82352941177,32.0208042331,34.7412931668,2019
2019-11-11,2019-11-11,"בלפור 109, בת ים",בלפור 109,7140-105-13,דירה בבית קומות,3.0,שלישית,54.43,1350000,,,1970.0,,5.0,5963011100,1,7140105,False,50% ב 8.6 שנים,בת ים,בלפור,5.81,7140-105-13,7140/105,24802.49862208341,32.0164659354,34.7449947814,2019
2019-11-11,2019-11-11,"קדושי קהיר 3, בת ים",קדושי קהיר 3,7148-122-2,דירה בבית קומות,4.0,ראשונה,80.0,1720000,,,1970.0,,4.0,5963124150,1,7148122,False,16% ב 2.5 שנים,בת ים,קדושי קהיר,6.4,7148-122-2,7148/122,21500.0,32.0238385475,34.7466587043,2019
2019-11-11,2019-11-11,"ליבורנו 7, בת ים",ליבורנו 7,7128-40-17,דירה בבית קומות,4.0,שלישית,79.0,1445000,,,1970.0,,5.0,5963004050,1,712840,False,,בת ים,ליבורנו,,7128-40-17,7128/40,18291.13924050633,32.0114565939,34.7597356373,2019
2019-11-11,2019-11-11,"ויצמן 5, בת ים",ויצמן 5,7153-249-2,דירה בבית קומות,4.0,ראשונה,117.0,2400000,,,1960.0,,2.0,5963331250,1,7153249,False,47% ב 2 שנים,בת ים,ויצמן,23.5,7153-249-2,7153/249,20512.82051282051,32.0278419212,34.7500511563,2019
2019-11-11,2019-11-11,"ליבורנו 1, בת ים",ליבורנו 1,7128-37-39,דירה בבית קומות,3.0,שלישית,55.0,1210000,,,1970.0,,4.0,5962949700,1,712837,False,,בת ים,ליבורנו,,7128-37-39,7128/37,22000.0,32.0094171243,34.7591774731,2019
2019-11-11,2019-11-11,"הגדוד העברי 14, בת ים",הגדוד העברי 14,7150-269-6,דירה בבית קומות,2.0,קרקע,37.29,1170000,,,1960.0,,2.0,5962976050,1,7150269,False,,בת ים,הגדוד העברי,,7150-269-6,7150/269,31375.703942075623,32.0250382564,34.7525109749,2019
2019-11-10,2019-10-11,"החשמונאים 62, בת ים",החשמונאים 62,7155-154-11,דירה בבית קומות,2.5,שלישית,57.0,1200000,,,1970.0,,4.0,5962115550,1,7155154,False,156% ב 21.5 שנים,בת ים,החשמונאים,7.26,7155-154-11,7155/154,21052.63157894737,32.0170456999,34.7503436521,2019
2019-11-07,2019-07-11,"בלפור 10, בת ים",בלפור 10,7146-300-162,דירה בבית קומות,4.0,שביעית,79.4,1700000,,,1980.0,,10.0,5959159600,1,7146300,False,36% ב 9.2 שנים,בת ים,בלפור,3.91,7146-300-162,7146/300,21410.57934508816,32.0313702325,34.7437208671,2019
2019-11-07,2019-07-11,"ששת הימים 10, בת ים",ששת הימים 10,7155-292-10,דירה בבית קומות,2.5,שלישית,55.63,1080000,,,1970.0,,4.0,5958009100,1,7155292,False,,בת ים,ששת הימים,,7155-292-10,7155/292,19413.98525975193,32.0171533847,34.7518422746,2019
2019-11-07,2019-07-11,"תנין 9, בת ים",תנין 9,7131-36-6,דירה בבית קומות,1.5,שניה,41.3,950000,,,1970.0,,4.0,5958117600,1,713136,False,,בת ים,תנין,,7131-36-6,7131/36,23002.42130750605,32.0230406206,34.7560012227,2019
2019-11-07,2019-07-11,"יוספטל גיורא 69, בת ים",יוספטל גיורא 69,7155-266-5,דירה בבית קומות,2.0,שניה,51.0,1200000,,,1970.0,,5.0,5958773950,1,7155266,False,,בת ים,יוספטל גיורא,,7155-266-5,7155/266,23529.41176470588,32.016005779,34.7514226399,2019
2019-11-07,2019-07-11,"הגיבורים 16, בת ים",הגיבורים 16,7152-388-6,דירה בבית קומות,3.0,קרקע,100.7,2000000,,,1950.0,,1.0,5958640750,1,7152388,False,,בת ים,הגבורים,,7152-388-6,7152/388,19860.973187686195,32.029566097,34.7538501481,2019
2019-11-07,2019-07-11,"נורדאו מקס 25, בת ים",נורדאו מקס 25,7140-217-14,דירה בבית קומות,2.0,רביעית,54.76,1500000,,,1970.0,,4.0,5958327200,1,7140217,False,,בת ים,נורדאו מקס,,7140-217-14,7140/217,27392.25712198685,32.0150580205,34.7417038936,2019
2019-11-06,2019-06-11,"הרשת 17, בת ים",הרשת 17,7136-223-56,דירה בבית קומות,4.0,חמישית,103.0,1800000,,,1970.0,,3.0,5957309050,1,7136223,False,,בת ים,הרשת,,7136-223-56,7136/223,17475.728155339806,32.0223586586,34.7473461366,2019
2019-11-06,2019-06-11,"הרצל 54, בת ים",הרצל 54,7144-60-8,דירה בבית קומות,3.0,שניה,65.0,1510000,,,2017.0,,8.0,5956537400,1,714460,True,-5% ב 1.4 שנים,בת ים,הרצל,-3.57,7144-60-8,7144/60,23230.76923076923,32.0240179417,34.7429000133,2019
2019-11-06,2019-06-11,"לווייתן 1, בת ים",לווייתן 1,7131-126-3,דירה בבית קומות,6.0,קרקע וראשונה,98.4,2430000,,,1960.0,,,5957807800,1,7131126,False,,בת ים,לויתן,,7131-126-3,7131/126,24695.12195121951,32.0195875794,34.7555527592,2019
2019-11-06,2019-06-11,"אנה פרנק 12, בת ים",אנה פרנק 12,7124-147-12,דירה בבית קומות,4.5,שלישית,110.64,1650000,,,1970.0,,4.0,5956568650,1,7124147,False,3% ב 3.3 שנים,בת ים,פרנק אנה,0.91,7124-147-12,7124/147,14913.232104121476,32.0040132471,34.7539834115,2019
2019-11-06,2019-06-11,"הרב עוזיאל 18, בת ים",הרב עוזיאל 18,7136-206-5,דירה בבית קומות,2.0,מרתף,40.0,945000,,,1960.0,,3.0,5956541950,1,7136206,True,-2% ב 1 שנים,בת ים,הרב עוזיאל,-2.0,7136-206-5,7136/206,23625.0,32.0220244024,34.7485035116,2019
2019-11-06,2019-06-11,"חצור 5, בת ים",חצור 5,7128-92-16,דירה בבית קומות,4.0,רביעית,73.7,1585000,,,1970.0,,6.0,5956569950,1,712892,False,,בת ים,חצור,,7128-92-16,7128/92,21506.105834464044,32.0110487758,34.757504464,2019
2019-11-06,2019-06-11,"יוספטל גיורא 65, בת ים",יוספטל גיורא 65,7155-268-9,דירה בבית קומות,6.0,חמישית+שישית,124.0,2250000,,,2004.0,,6.0,5957880000,1,7155268,False,46% ב 10.6 שנים,בת ים,יוספטל גיורא,4.34,7155-268-9,7155/268,18145.16129032258,32.0161239174,34.7511041578,2019
2019-11-04,2019-04-11,"החרושת 20, בת ים",החרושת 20,7129-134-14,דירה בבית קומות,3.0,שלוש עשרה,85.0,1800000,,,2020.0,,29.0,5954404700,1,7129134,False,,בת ים,החרושת,,7129-134-14,7129/134,21176.470588235294,32.0132941368,34.7519503401,2019
2019-11-04,2019-04-11,"המעפילים 35, בת ים",המעפילים 35,7133-22-11,דירה בבית קומות,2.0,שניה,53.0,1000000,,,1960.0,,3.0,5954097900,1,713322,False,,בת ים,המעפילים,,7133-22-11,7133/22,18867.924528301886,32.0243647232,34.756164958,2019
2019-11-04,2019-04-11,"ליבורנו 7, בת ים",ליבורנו 7,7128-40-34,דירה בבית קומות,4.0,רביעית,79.0,1280000,,,1970.0,,5.0,5954144050,1,712840,False,,בת ים,ליבורנו,,7128-40-34,7128/40,16202.53164556962,32.0114565939,34.7597356373,2019
2019-11-04,2019-04-11,"אסירי ציון 1, בת ים",אסירי ציון 1,7178-4-16,דירה בבית קומות,3.0,רביעית,66.9,1200000,,,1970.0,,4.0,5954217900,1,71784,False,203% ב 16 שנים,בת ים,אסירי ציון,12.69,7178-4-16,7178/4,17937.219730941702,32.0083790009,34.7584568981,2019
2019-11-04,2019-04-11,"ליבורנו 15, בת ים",ליבורנו 15,7128-63-28,דירה בבית קומות,3.0,רביעית,48.0,1010000,,,1970.0,,4.0,5954212100,1,712863,False,34% ב 3.5 שנים,בת ים,ליבורנו,9.71,7128-63-28,7128/63,21041.666666666668,32.0137361945,34.7601662149,2019
2019-11-04,2019-04-11,"סוקולוב 8, בת ים",סוקולוב 8,7145-13-24,דירה בבית קומות,3.0,שניה,53.0,1530000,,,1960.0,,3.0,5954623400,1,714513,False,191% ב 17.7 שנים,בת ים,סוקולוב,10.79,7145-13-24,7145/13,28867.924528301886,32.0255312975,34.7416756636,2019
2019-11-03,2019-03-11,"ליבורנו 30, בת ים",ליבורנו 30,7128-262-19,דירה בבית קומות,3.0,חמישית,62.7,1450000,,,1970.0,,8.0,5953728650,1,7128262,False,11% ב 1.7 שנים,בת ים,ליבורנו,6.47,7128-262-19,7128/262,23125.996810207336,32.0136483582,34.7608235618,2019
2019-11-03,2019-03-11,"סוקולוב 12, בת ים",סוקולוב 12,7145-11-2,דירה,5.0,קרקע,116.0,2606000,1.0,מנרב ים,2018.0,,4.0,5953792200,1,714511,False,48% ב 0.4 שנים,בת ים,סוקולוב,120.0,7145-11-2,7145/11,22465.51724137931,,,2019
2019-11-03,2019-03-11,"מבצע סיני 35, בת ים",מבצע סיני 35,7156-77-14,דירה בבית קומות,3.0,שלישית,49.4,1190000,,,1970.0,,4.0,5953034850,1,715677,False,152% ב 20.9 שנים,בת ים,מבצע סיני,7.27,7156-77-14,7156/77,24089.06882591093,32.0180730692,34.7595410712,2019
2019-11-03,2019-03-11,"אורט ישראל 8, בת ים",אורט ישראל 8,7154-366-4,דירה בבית קומות,2.0,ראשונה,49.8,1200000,,,1970.0,,4.0,5953093450,1,7154366,False,50% ב 1.3 שנים,בת ים,אורט ישראל,38.46,7154-366-4,7154/366,24096.385542168675,32.0143691061,34.7495263314,2019
2019-11-03,2019-03-11,"ביל""ו 6, בת ים","ביל""ו 6",7146-202-15,דירה בבית קומות,2.5,ראשונה,43.4,1618000,,,1960.0,,2.0,5952874750,1,7146202,False,,בת ים,"ביל""ו",,7146-202-15,7146/202,37281.10599078341,32.0312892772,34.7448020146,2019
2019-11-03,2019-03-11,"העצמאות 9, בת ים",העצמאות 9,7143-32-49,דירה בבית קומות,3.0,עשירית,74.0,2164000,,,2016.0,,14.0,5953062850,1,714332,False,,בת ים,העצמאות,,7143-32-49,7143/32,29243.243243243243,32.0227650945,34.7413927532,2019
2019-11-03,2019-03-11,"העצמאות 9, בת ים",העצמאות 9,7143-32-50,דירה,3.0,,74.0,2150000,1.0,עלמה,2016.0,,14.0,11181293009,1,714332,False,,בת ים,העצמאות,,7143-32-50,7143/32,29054.054054054053,32.0227650945,34.7413927532,2019
2019-11-02,2019-02-11,"הרצל 71, בת ים",הרצל 71,7141-219-12,דירה בבית קומות,3.0,ראשונה,59.2,1140000,,,1970.0,,5.0,5951740450,1,7141219,False,,בת ים,הרצל,,7141-219-12,7141/219,19256.75675675676,32.0196884255,34.7440229182,2019
2019-11-02,2019-02-11,"אחד העם 11, בת ים",אחד העם 11,7139-185-10,דירה בבית קומות,4.0,רביעית,63.5,1575000,,,1970.0,,5.0,5951886450,1,7139185,False,179% ב 18.8 שנים,בת ים,אחד העם,9.52,7139-185-10,7139/185,24803.14960629921,32.0167625397,34.7403031994,2019
2019-11-01,2019-01-11,"דניאל 69, בת ים",דניאל 69,7135-194-40,דירה בבית קומות,2.0,שביעית,42.0,999000,,,1960.0,,7.0,5950393100,1,7135194,False,,בת ים,דניאל,,7135-194-40,7135/194,23785.714285714286,32.0192505886,34.7504419037,2019
2019-10-31,2019-10-31,"קדושי קהיר 17, בת ים",קדושי קהיר 17,7148-130-27,דירה בבית קומות,2.0,ראשונה,48.88,1450000,,,1950.0,,2.0,5962594100,1,7148130,False,46% ב 1.5 שנים,בת ים,קדושי קהיר,30.67,7148-130-27,7148/130,29664.484451718494,32.0254964726,34.7464104972,2019
2019-10-31,2019-10-31,"האורגים 8, בת ים",האורגים 8,7120-67-8,דירה בבית קומות,3.0,שלישית,52.0,1330000,,,1967.0,,4.0,5963451650,1,712067,False,,בת ים,האורגים,,7120-67-8,7120/67,25576.92307692308,32.0100307885,34.7451266862,2019
2019-10-31,2019-10-31,"יצחק שדה 7, בת ים",יצחק שדה 7,7138-262-1,דירה בבית קומות,2.5,ראשונה,51.53,1200000,,,1970.0,,7.0,5963610050,1,7138262,False,75% ב 11.1 שנים,בת ים,יצחק שדה,6.76,7138-262-1,7138/262,23287.405394915582,32.0115894176,34.7403257602,2019
2019-10-31,2019-10-31,"החרושת 20, בת ים",החרושת 20,7129-134-121,דירה בבית קומות,4.0,שלושים וחמש,105.0,2580000,,,2020.0,,29.0,5963563000,1,7129134,False,,בת ים,החרושת,,7129-134-121,7129/134,24571.42857142857,32.0132941368,34.7519503401,2019
2019-10-31,2019-10-31,"שלום עליכם 22, בת ים",שלום עליכם 22,7136-341-9,דירה בבית קומות,4.0,שלישית,92.0,1650000,,,1970.0,,4.0,5962604400,1,7136341,False,160% ב 16.7 שנים,בת ים,שלום עליכם,9.58,7136-341-9,7136/341,17934.782608695652,32.0195089598,34.7497467358,2019
2019-10-31,2019-10-31,"הנביאים 60, בת ים",הנביאים 60,7120-155-75,דירה בבית קומות,5.0,שש עשרה,121.0,2910000,,,2008.0,,22.0,5962555300,1,7120155,False,,בת ים,הנביאים,,7120-155-75,7120/155,24049.586776859505,32.0083857463,34.741056725,2019
2019-10-31,2019-10-31,"מבצע סיני 12, בת ים",מבצע סיני 12,7131-109-14,דירה בבית קומות,3.0,רביעית,53.7,1260000,,,1960.0,,4.0,5962847450,1,7131109,False,63% ב 7.3 שנים,בת ים,מבצע סיני,8.63,7131-109-14,7131/109,23463.687150837988,32.0213741266,34.7564719845,2019
2019-10-31,2019-10-31,"הכרמל 17, בת ים",הכרמל 17,7128-282-22,דירה בבית קומות,3.0,שניה,63.0,1177000,,,1970.0,,4.0,5962646500,1,7128282,False,114% ב 10.8 שנים,בת ים,הכרמל,10.56,7128-282-22,7128/282,18682.53968253968,32.0112107389,34.7612788321,2019
2019-10-30,2019-10-30,"אל-מליח 3, בת ים",אל-מליח 3,7140-282-10,דירה בבית קומות,4.0,שלישית,92.0,1870000,1.0,הבית ברחוב אלמליח בת ים,1970.0,,5.0,5962543800,1,7140282,False,248% ב 17.8 שנים,בת ים,אלמליח,13.93,7140-282-10,7140/282,20326.08695652174,32.0181671675,34.7446083008,2019
2019-10-30,2019-10-30,"כובשי החרמון 19, בת ים",כובשי החרמון 19,7128-29-5,דירה בבית קומות,3.0,ראשונה,52.0,1140000,,,1970.0,,4.0,5964082000,1,712829,False,,בת ים,כובשי החרמון,,7128-29-5,7128/29,21923.07692307692,32.0096036504,34.7610576302,2019
2019-10-30,2019-10-30,"כובשי החרמון 3, בת ים",כובשי החרמון 3,7128-225-41,דירה בבית קומות,3.0,שלישית,73.93,1445000,,,1970.0,,9.0,5962803550,1,7128225,True,-5% ב 0.9 שנים,בת ים,כובשי החרמון,-5.56,7128-225-41,7128/225,19545.51602867577,32.010329991,34.7601239362,2019
2019-10-30,2019-10-30,"הכרמל 15, בת ים",הכרמל 15,7128-281-29,דירה בבית קומות,3.0,רביעית,59.0,1050000,,,1970.0,,4.0,5962581750,1,7128281,False,23% ב 4 שנים,בת ים,הכרמל,5.75,7128-281-29,7128/281,17796.610169491527,32.0115702644,34.761343092,2019
2019-10-30,2019-10-30,"בלפור 1, בת ים",בלפור 1,7146-190-27,דירה בבית קומות,3.0,שלישית,64.0,2200000,,,1960.0,,3.0,5962750800,1,7146190,False,163% ב 9.5 שנים,בת ים,בלפור,17.16,7146-190-27,7146/190,34375.0,32.0322826649,34.7441420404,2019
2019-10-30,2019-10-30,"המייסדים 6, בת ים",המייסדים 6,7139-190-10,דירה בבית קומות,5.0,שלישית,97.78,2340000,,,1994.0,,6.0,5962536800,1,7139190,False,,בת ים,המיסדים,,7139-190-10,7139/190,23931.2742892207,32.0172321351,34.7410476866,2019
2019-10-28,2019-10-28,"ניל""י 4, בת ים","ניל""י 4",7156-6-20,דירה בבית קומות,2.0,שניה,44.0,1126000,,,1970.0,,4.0,5962437400,1,71566,False,108% ב 11 שנים,בת ים,"ניל""י",9.82,7156-6-20,7156/6,25590.90909090909,32.0168832741,34.7555228958,2019
2019-10-28,2019-10-28,"מ""ג 4, בת ים","מ""ג 4",7150-241-6,חנות,1.0,קרקע,23.5,540000,,,1970.0,,4.0,5962434000,1,7150241,False,,בת ים,"מ""ג",,7150-241-6,7150/241,22978.72340425532,32.0245422641,34.7492242919,2019
2019-10-28,2019-10-28,"הלפר 24, בת ים",הלפר 24,7148-105-5,דירה בבית קומות,2.5,ראשונה,52.63,1100000,,,1983.0,,5.0,5962648550,1,7148105,False,115% ב 17.5 שנים,בת ים,הלפר,6.57,7148-105-5,7148/105,20900.627018810563,32.0279177484,34.7457464089,2019
2019-10-28,2019-10-28,"בלפור 138, בת ים",בלפור 138,7138-287-33,דירה בבית קומות,3.0,חמישית,76.5,1340000,,,1970.0,,5.0,5962886550,1,7138287,False,,בת ים,בלפור,,7138-287-33,7138/287,17516.339869281044,32.0131081878,34.7419878411,2019
2019-10-28,2019-10-28,"יוספטל גיורא 45, בת ים",יוספטל גיורא 45,7130-263-13,דירה בבית קומות,4.0,חמישית,91.7,1610000,,,1970.0,,8.0,5962409650,1,7130263,False,,בת ים,יוספטל גיורא,,7130-263-13,7130/263,17557.251908396946,32.01671549,34.7476503564,2019
2019-10-28,2019-10-28,"השקמה 8, בת ים",השקמה 8,7140-160-11,דירה בבית קומות,3.0,שניה,61.96,1200000,,,1970.0,,4.0,5962495100,1,7140160,True,-12% ב 2.1 שנים,בת ים,השקמה,-5.71,7140-160-11,7140/160,19367.33376371853,32.0152966004,34.7454940572,2019
2019-10-28,2019-10-28,"בן-גוריון 47, בת ים",בן-גוריון 47,7145-154-52,דירה בבית קומות,3.0,אחת עשרה,71.47,1620000,,,1960.0,,11.0,5963627850,1,7145154,False,,בת ים,בן גוריון,,7145-154-52,7145/154,22666.853225129424,32.0261315636,34.741398624,2019
2019-10-27,2019-10-27,"כובשי החרמון 3, בת ים",כובשי החרמון 3,7128-225-60,דירה בבית קומות,3.5,שלישית,73.93,1585000,,,1970.0,,9.0,5962622500,1,7128225,False,,בת ים,כובשי החרמון,,7128-225-60,7128/225,21439.199242526716,32.010329991,34.7601239362,2019
2019-10-27,2019-10-27,"יצחק שדה 9, בת ים",יצחק שדה 9,7138-263-1,דירה בבית קומות,3.0,ראשונה,53.7,200000,,,1980.0,,7.0,5963556900,1,7138263,False,,בת ים,יצחק שדה,,7138-263-1,7138/263,3724.3947858473,32.0115586802,34.7405251558,2019
2019-10-27,2019-10-27,"אנילביץ 3, בת ים",אנילביץ 3,7150-370-9,דירה בבית קומות,3.0,שניה,63.5,1400000,,,1970.0,,4.0,5962391150,1,7150370,False,116% ב 19.5 שנים,בת ים,אנילביץ,5.95,7150-370-9,7150/370,22047.24409448819,32.0222405144,34.7505570568,2019
2019-10-27,2019-10-27,"הכרמל 21, בת ים",הכרמל 21,7128-283-30,דירה בבית קומות,3.0,רביעית,59.0,1045000,,,1970.0,,4.0,5962392800,1,7128283,False,160% ב 21.2 שנים,בת ים,הכרמל,7.55,7128-283-30,7128/283,17711.86440677966,32.0108707212,34.7612107099,2019
2019-10-27,2019-10-27,"התבור 14, בת ים",התבור 14,7128-99-46,דירה בבית קומות,2.5,חמישית,45.8,1150000,,,1970.0,,4.0,5962906350,1,712899,False,43% ב 4.5 שנים,בת ים,התבור,9.56,7128-99-46,7128/99,25109.170305676857,32.0121606267,34.7569309638,2019
2019-10-25,2019-10-25,"משה שרת 18, בת ים",משה שרת 18,7155-200-27,דירה בבית קומות,3.0,שביעית,80.0,1580000,1.0,משה שרת 18-20 בת ים,1970.0,,3.0,5962582500,1,7155200,False,,בת ים,שרת משה,,7155-200-27,7155/200,19750.0,32.0185755291,34.7529132671,2019
2019-10-24,2019-10-24,"קלויזנר 6, בת ים",קלויזנר 6,7150-346-22,דירה בבית קומות,4.0,קומה ‎8‏,91.25,1900000,,,2016.0,,10.0,5962428650,1,7150346,False,,בת ים,קלויזנר,,7150-346-22,7150/346,20821.91780821918,32.0232911691,34.7509099643,2019
2019-10-24,2019-10-24,"ניצנה 21, בת ים",ניצנה 21,7133-43-18,דירה בבית קומות,3.0,שניה,50.5,1100000,,,1970.0,,4.0,5962494700,1,713343,True,-3% ב 2.3 שנים,בת ים,ניצנה,-1.3,7133-43-18,7133/43,21782.178217821784,32.0241657124,34.7593184222,2019
2019-10-24,2019-10-24,"החשמונאים 84, בת ים",החשמונאים 84,7130-203-4,דירה בבית קומות,2.5,ראשונה,41.61,1489000,,,1970.0,,2.0,5962454600,1,7130203,False,,בת ים,החשמונאים,,7130-203-4,7130/203,35784.66714732035,32.0153018616,34.7492370043,2019
2019-10-24,2019-10-24,"החשמונאים 10, בת ים",החשמונאים 10,7135-145-3,דירה בבית קומות,4.0,שניה,101.69,1940000,,,1999.0,,4.0,5962563100,1,7135145,False,,בת ים,החשמונאים,,7135-145-3,7135/145,19077.588750122923,32.0213377926,34.7508634638,2019
2019-10-24,2019-10-24,"החשמונאים 6, בת ים",החשמונאים 6,7135-141-13,דירה בבית קומות,2.0,שלישית,45.5,1100000,,,1970.0,,4.0,5963233950,1,7135141,False,,בת ים,החשמונאים,,7135-141-13,7135/141,24175.82417582417,32.0216158347,34.7508746494,2019
2019-10-24,2019-10-24,"רמז 16, בת ים",רמז 16,7134-106-2,דירה בבית קומות,3.0,ראשונה,63.5,1420000,,,1970.0,,5.0,5962375000,1,7134106,False,64% ב 8 שנים,בת ים,רמז,8.0,7134-106-2,7134/106,22362.20472440945,32.0193443789,34.7523519594,2019
2019-10-24,2019-10-24,"החשמונאים 16, בת ים",החשמונאים 16,7135-151-8,דירה בבית קומות,4.0,שניה,103.08,1550000,,,1960.0,,4.0,5962565200,1,7135151,False,,בת ים,החשמונאים,,7135-151-8,7135/151,15036.86457120683,32.0208322206,34.7508842196,2019
2019-10-23,2019-10-23,"ניל""י 1, בת ים","ניל""י 1",7156-108-28,דירה בבית קומות,2.0,שניה,44.0,1370000,,,1970.0,,4.0,5962620950,1,7156108,False,,בת ים,"ניל""י",,7156-108-28,7156/108,31136.36363636364,32.0177099232,34.7546920862,2019
2019-10-23,2019-10-23,"השקמה 4, בת ים",השקמה 4,7140-156-34,דירה בבית קומות,2.5,רביעית,57.0,1250000,,,1970.0,,4.0,5962597850,1,7140156,True,-3% ב 2.5 שנים,בת ים,השקמה,-1.2,7140-156-34,7140/156,21929.824561403508,32.0157075738,34.7458047445,2019
2019-10-23,2019-10-23,"הפטמן 1, בת ים",הפטמן 1,7130-243-29,דירה בבית קומות,4.0,שישית,79.51,1540000,,,1970.0,,7.0,5962430750,1,7130243,False,,בת ים,הפטמן,,7130-243-29,7130/243,19368.632876367752,32.0171759211,34.7460416067,2019
2019-10-23,2019-10-23,"מבצע סיני 33, בת ים",מבצע סיני 33,7131-156-9,דירה בבית קומות,3.0,ראשונה,41.8,1175000,,,1960.0,,4.0,5962551550,1,7131156,True,-6% ב 0.4 שנים,בת ים,מבצע סיני,-15.0,7131-156-9,7131/156,28110.047846889956,32.0190564895,34.7594751205,2019
2019-10-23,2019-10-23,"ארלוזורוב 16, בת ים",ארלוזורוב 16,7146-313-14,דירה בבית קומות,2.0,שניה,38.29,1350000,,,2024.0,,2.0,5962317650,1,7146313,False,,בת ים,ארלוזורוב,,7146-313-14,7146/313,35257.24732306085,32.0285164341,34.7437452941,2019
2019-10-23,2019-10-23,"רימון 6, בת ים",רימון 6,7151-215-5,דירה בבית קומות,3.0,ראשונה,55.0,1275000,,,1970.0,,3.0,5962577550,1,7151215,False,187% ב 12.9 שנים,בת ים,רימון,14.5,7151-215-5,7151/215,23181.81818181818,32.0230624586,34.7533413648,2019
2019-10-23,2019-10-23,"בלפור 13, בת ים",בלפור 13,7146-233-7,דירה בבית קומות,3.0,ראשונה,65.0,1460000,,,1970.0,,9.0,5962352700,1,7146233,False,,בת ים,בלפור,,7146-233-7,7146/233,22461.53846153846,32.0304035899,34.744813065,2019
2019-10-22,2019-10-22,"בר-יהודה 7, בת ים",בר-יהודה 7,7140-162-7,דירה בבית קומות,3.0,ראשונה,67.0,1535000,,,1970.0,,4.0,5962182850,1,7140162,False,49% ב 4.5 שנים,בת ים,בר יהודה,10.89,7140-162-7,7140/162,22910.44776119403,32.015298202,34.7449492125,2019
2019-10-20,2019-10-20,"יוספטל גיורא 60, בת ים",יוספטל גיורא 60,7130-292-6,דירה בבית קומות,2.0,שניה,42.81,1100000,,,1970.0,,8.0,5962715400,1,7130292,False,,בת ים,יוספטל גיורא,,7130-292-6,7130/292,25694.93109086662,32.016449152,34.7464296019,2019
2019-10-15,2019-10-15,"בן-גוריון 138, בת ים",בן-גוריון 138,7120-135-145,דירה בבית קומות,2.0,עשירית,45.0,1250000,,,1970.0,,17.0,5962055350,1,7120135,False,,בת ים,בן גוריון,,7120-135-145,7120/135,27777.777777777777,32.0108606487,34.7374825488,2019
2019-10-15,2019-10-15,"ביאליק 27, בת ים",ביאליק 27,7136-313-20,דירה בבית קומות,2.5,שלישית,45.1,1240000,,,1970.0,,8.0,5962102750,1,7136313,False,215% ב 12.4 שנים,בת ים,ביאליק,17.34,7136-313-20,7136/313,27494.456762749443,32.0195552539,34.7469769672,2019
2019-10-13,2019-10-13,"ליבורנו 7, בת ים",ליבורנו 7,7128-40-29,דירה בבית קומות,3.0,רביעית,69.1,1450000,,,1970.0,,5.0,5962376700,1,712840,False,61% ב 8.9 שנים,בת ים,ליבורנו,6.85,7128-40-29,7128/40,20984.08104196816,32.0114565939,34.7597356373,2019
2019-10-12,2019-12-10,"האורגים 12, בת ים",האורגים 12,7120-69-20,דירה בבית קומות,3.0,שניה,49.0,994000,,,1960.0,,5.0,5964611250,1,712069,False,,בת ים,האורגים,,7120-69-20,7120/69,20285.714285714286,32.0097242868,34.7446017119,2019
2019-10-12,2019-12-10,"אלי כהן 14, בת ים",אלי כהן 14,7128-46-30,דירה בבית קומות,3.0,רביעית,69.1,1335000,,,1970.0,,4.0,5965197450,1,712846,False,70% ב 8 שנים,בת ים,כהן אלי,8.75,7128-46-30,7128/46,19319.82633863965,32.0116677784,34.7586106009,2019
2019-10-12,2019-12-10,"שלמה המלך 5, בת ים",שלמה המלך 5,7138-358-4,דירה בבית קומות,6.0,"קרקע,א',ב',ג'",137.88,2800000,,,1970.0,,,5964596900,1,7138358,False,,בת ים,שלמה המלך,,7138-358-4,7138/358,20307.51378009864,32.0144512138,34.7404109024,2019
2019-10-12,2019-12-10,"סוקולוב 10, בת ים",סוקולוב 10,7145-12-30,דירה בבית קומות,3.5,שלישית,69.69,1750000,,,1970.0,,3.0,5965170500,1,714512,False,,בת ים,סוקולוב,,7145-12-30,7145/12,25111.2067728512,32.0252700758,34.741660203,2019
2019-10-12,2019-12-10,"הנביאים 54, בת ים",הנביאים 54,7120-154-22,דירה בבית קומות,4.5,קומה ‎6‏,107.5,2690000,,,2007.0,,34.0,5964233850,1,7120154,False,126% ב 12.2 שנים,בת ים,יצחק שדה,10.33,7120-154-22,7120/154,25023.25581395349,32.0100179071,34.7428555429,2019
2019-10-12,2019-12-10,"סוקולוב 22, בת ים",סוקולוב 22,7143-26-35,דירה בבית קומות,3.0,רביעית,75.0,1720000,1.0,סוקולוב 22 בת ים,1970.0,2017.0,2.0,5964413200,1,714326,False,,בת ים,סוקולוב,,7143-26-35,7143/26,22933.33333333333,32.0232434129,34.7419246978,2019
2019-10-12,2019-12-10,"דוגית 4, בת ים",דוגית 4,7138-188-5,דירה בבית קומות,4.0,שלישית,79.59,1865000,,,1980.0,,4.0,5964486700,1,7138188,False,,בת ים,דוגית,,7138-188-5,7138/188,23432.592034175148,32.0132958631,34.7394399517,2019
2019-10-11,2019-11-10,"מוהליבר 10, בת ים",מוהליבר 10,7124-126-11,דירה בבית קומות,3.0,שלישית,70.1,1650000,,,1990.0,,7.0,5962979400,1,7124126,False,58% ב 7.5 שנים,בת ים,מוהליבר,7.73,7124-126-11,7124/126,23537.803138373754,32.0061289192,34.7512898368,2019
2019-10-11,2019-11-10,"הרצל 28, בת ים",הרצל 28,7145-127-9,דירה בבית קומות,2.0,שניה,40.0,1000000,,,1970.0,,3.0,5962896050,1,7145127,False,148% ב 18.2 שנים,בת ים,הרצל,8.13,7145-127-9,7145/127,25000.0,32.0276224849,34.7427595265,2019
2019-10-10,2019-10-10,,,7136-218-20,דירה בבית קומות,3.0,רביעית,60.0,1350000,,,1960.0,,,5962028500,2,7136218,False,,בת ים,העצמאות,,7136-218-20,7136/218,22500.0,32.0226402013,34.7466153483,2019
2019-10-10,2019-10-10,"בר-יהודה 41, בת ים",בר-יהודה 41,7137-149-21,דירה בבית קומות,3.0,רביעית,58.0,1450000,,,1970.0,,4.0,5962775150,1,7137149,False,,בת ים,בר יהודה,,7137-149-21,7137/149,25000.0,32.0117804109,34.7429989634,2019
2019-10-10,2019-10-10,"טרומפלדור 6, בת ים",טרומפלדור 6,7149-155-4,דירה בבית קומות,2.0,ראשונה,56.14,1200000,,,1960.0,,3.0,5962429050,1,7149155,False,,בת ים,טרומפלדור,,7149-155-4,7149/155,21375.133594584964,32.024689327,34.7506691488,2019
2019-10-10,2019-10-10,"ארזים 5, בת ים",ארזים 5,7156-91-5,דירה בבית קומות,2.5,שלישית,35.2,1030000,,,1960.0,,3.0,5962045950,1,715691,False,,בת ים,ארזים,,7156-91-5,7156/91,29261.363636363632,32.0183785323,34.7582385797,2019
2019-10-09,2019-09-10,"הגבעות 18, בת ים",הגבעות 18,7156-73-5,דירה בבית קומות,2.0,שלישית,35.2,1050000,,,1960.0,,4.0,5960753450,1,715673,False,56% ב 8.6 שנים,בת ים,הגבעות,6.51,7156-73-5,7156/73,29829.54545454545,32.0183635292,34.7608169896,2019
2019-10-09,2019-09-10,"אלי כהן 8, בת ים",אלי כהן 8,7128-55-71,דירה בבית קומות,3.0,תשיעית,63.9,1420000,,,1970.0,,9.0,5960889600,1,712855,False,190% ב 15.7 שנים,בת ים,כהן אלי,12.1,7128-55-71,7128/55,22222.222222222223,32.0105396588,34.7588914564,2019
2019-10-09,2019-09-10,"מבצע סיני 35, בת ים",מבצע סיני 35,7156-77-24,דירה בבית קומות,3.0,רביעית,49.4,850000,,,1970.0,,4.0,5960826050,1,715677,True,-1% ב 3.9 שנים,בת ים,מבצע סיני,-0.26,7156-77-24,7156/77,17206.477732793523,32.0180730692,34.7595410712,2019
2019-10-09,2019-09-10,"רמב""ם 3, בת ים","רמב""ם 3",7146-232-43,דירה בבית קומות,2.0,שישית,50.2,1315000,,,1970.0,,9.0,5961008400,1,7146232,False,,בת ים,"רמב""ם",,7146-232-43,7146/232,26195.219123505976,32.0303412002,34.7451422638,2019
2019-10-09,2019-09-10,"חלמית 24, בת ים",חלמית 24,6997-264-3,דירה בבית קומות,4.0,שניה,79.0,1580000,,,1970.0,,4.0,5960778200,1,6997264,False,104% ב 9.9 שנים,בת ים,חלמית,10.51,6997-264-3,6997/264,20000.0,32.0319293776,34.7583738467,2019
2019-10-07,2019-07-10,"הרצל 30, בת ים",הרצל 30,7145-41-6,דירה בבית קומות,3.0,שניה,60.0,1340000,,,1970.0,,5.0,5958252050,1,714541,False,,בת ים,הרצל,,7145-41-6,7145/41,22333.33333333333,32.0274589528,34.7426283493,2019
2019-10-07,2019-07-10,"קדושי קהיר 14, בת ים",קדושי קהיר 14,7148-46-68,דירה בבית קומות,4.5,שניה,111.0,1860000,,,2020.0,,10.0,5958081800,1,714846,False,,בת ים,קדושי קהיר,,7148-46-68,7148/46,16756.756756756757,32.025030398,34.7469953886,2019
2019-10-07,2019-07-10,"אל-מליח 3, בת ים",אל-מליח 3,7140-282-9,דירה בבית קומות,3.0,חמישית,63.0,1550000,1.0,הבית ברחוב אלמליח בת ים,1970.0,2018.0,5.0,5957994350,1,7140282,False,,בת ים,אלמליח,,7140-282-9,7140/282,24603.174603174604,32.0181671675,34.7446083008,2019
2019-10-07,2019-07-10,"סנה משה 3, בת ים",סנה משה 3,7156-100-1,דירה בבית קומות,3.0,ראשונה,56.2,1230000,,,1960.0,,4.0,5958125950,1,7156100,False,,בת ים,סנה משה,,7156-100-1,7156/100,21886.12099644128,32.0175747504,34.7574435316,2019
2019-10-07,2019-07-10,"בן-גוריון 73, בת ים",בן-גוריון 73,7142-175-25,דירה בבית קומות,4.0,שלישית,78.0,2189000,,,1991.0,,7.0,5958003750,1,7142175,False,,בת ים,בן גוריון,,7142-175-25,7142/175,28064.102564102563,32.0205261283,34.7395761406,2019
2019-10-06,2019-06-10,"העצמאות 9, בת ים",העצמאות 9,7143-32-53,דירה בבית קומות,3.0,אחת עשרה,74.0,2194000,,,2016.0,,14.0,5956767050,1,714332,False,,בת ים,העצמאות,,7143-32-53,7143/32,29648.64864864865,32.0227650945,34.7413927532,2019
2019-10-06,2019-06-10,"ישראל בן-ציון 19, בת ים",ישראל בן-ציון 19,7130-177-30,דירה בבית קומות,2.0,שלישית,53.15,1300000,,,1960.0,,4.0,5956511350,1,7130177,False,134% ב 18.9 שנים,בת ים,ישראל בן ציון,7.09,7130-177-30,7130/177,24459.078080903106,32.0159367473,34.7475925081,2019
2019-10-04,2019-04-10,"יחזקאל דנין 5, בת ים",יחזקאל דנין 5,7136-385-29,דירה בבית קומות,2.0,שלישית,30.0,860000,,,1970.0,,4.0,5953994350,1,7136385,False,91% ב 9.2 שנים,בת ים,דנין יחזקאל,9.89,7136-385-29,7136/385,28666.666666666668,32.0182999254,34.7467152556,2019
2019-10-04,2019-04-10,"הרב לוי 8, בת ים",הרב לוי 8,7128-181-7,דירה בבית קומות,4.0,שניה,73.25,1500000,,,1970.0,,8.0,5954657200,1,7128181,False,,בת ים,הרב לוי,,7128-181-7,7128/181,20477.815699658702,32.0127209045,34.7541945273,2019
2019-10-04,2019-04-10,"בלפור 111, בת ים",בלפור 111,7140-107-9,דירה בבית קומות,3.0,ראשונה,62.78,1199000,,,1960.0,,5.0,5954157600,1,7140107,False,,בת ים,בלפור,,7140-107-9,7140/107,19098.43899330997,32.0162511571,34.7447957085,2019
2019-10-04,2019-04-10,"הרב קוק 5, בת ים",הרב קוק 5,7144-61-39,דירה בבית קומות,4.0,רביעית,101.0,1975000,1.0,ו.מ.ל הרצל 56 בת ים,2017.0,,8.0,5954503700,1,714461,False,,בת ים,הרב קוק,,7144-61-39,7144/61,19554.455445544558,32.0238169857,34.7428963609,2019
2019-10-04,2019-04-10,"ירושלים 5, בת ים",ירושלים 5,7145-149-22,דירה בבית קומות,5.0,חמישית,124.0,2702000,,,2018.0,,4.0,5954944750,1,7145149,False,,בת ים,ירושלים,,7145-149-22,7145/149,21790.322580645163,,,2019
2019-10-04,2019-04-10,"הפטמן 2, בת ים",הפטמן 2,7130-255-18,דירה בבית קומות,3.0,שלישית,58.8,1450000,,,1970.0,,7.0,5954044250,1,7130255,False,38% ב 4.3 שנים,בת ים,הפטמן,8.84,7130-255-18,7130/255,24659.863945578232,32.0170504481,34.7464749212,2019
2019-10-04,2019-04-10,"הרצל 69, בת ים",הרצל 69,7141-218-17,דירה בבית קומות,2.5,שלישית,56.0,1370000,,,1970.0,,4.0,5954080500,1,7141218,False,37% ב 3.1 שנים,בת ים,הרצל,11.94,7141-218-17,7141/218,24464.285714285717,32.0199002463,34.74394563,2019
2019-10-04,2019-04-10,"הגפן 8, בת ים",הגפן 8,7151-311-1,משרד,,קרקע,62.5,750000,,,1994.0,,3.0,5954116450,1,7151311,False,220% ב 15 שנים,בת ים,הגפן,14.67,7151-311-1,7151/311,12000.0,32.0249219008,34.7550938965,2019
2019-10-04,2019-04-10,"הנביאים 5, בת ים",הנביאים 5,7154-252-14,דירה בבית קומות,3.0,שביעית,60.0,1480000,,,1970.0,,5.0,5954301550,1,7154252,False,,בת ים,הנביאים,,7154-252-14,7154/252,24666.666666666668,32.0137473672,34.7482850708,2019
2019-10-04,2019-04-10,"אנה פרנק 29, בת ים",אנה פרנק 29,7124-250-12,דירה בבית קומות,5.0,קומה ‎3‏,88.2,1910000,,,2007.0,,16.0,5954053250,1,7124250,False,57% ב 9.8 שנים,בת ים,פרנק אנה,5.82,7124-250-12,7124/250,21655.32879818594,32.0068162329,34.7538850585,2019
2019-10-03,2019-03-10,"הרשת 37, בת ים",הרשת 37,7136-234-3,דירה בבית קומות,2.0,ראשונה,41.0,1115000,,,1960.0,,3.0,5952843450,1,7136234,False,,בת ים,הרשת,,7136-234-3,7136/234,27195.121951219517,32.0215212538,34.7494079481,2019
2019-10-03,2019-03-10,"בלפור 99, בת ים",בלפור 99,7130-237-2,חנות,,קרקע,47.95,1780000,,,1970.0,,6.0,5953033150,1,7130237,False,16% ב 0.8 שנים,בת ים,בלפור,20.0,7130-237-2,7130/237,37122.00208550573,32.0177940026,34.7458788535,2019
2019-10-03,2019-03-10,"מחרוזת 40, בת ים",מחרוזת 40,6997-259-14,דירה בבית קומות,3.5,רביעית,68.6,1235000,,,1970.0,,4.0,5953011300,1,6997259,False,,בת ים,מחרוזת,,6997-259-14,6997/259,18002.915451895045,32.0329601044,34.7575438759,2019
2019-10-03,2019-03-10,"הגבעות 14, בת ים",הגבעות 14,7156-71-8,דירה בבית קומות,2.0,שניה,35.9,1100000,,,1970.0,,4.0,5952895850,1,715671,False,,בת ים,הגבעות,,7156-71-8,7156/71,30640.668523676883,32.018045238,34.7613522013,2019
2019-10-03,2019-03-10,"בלפור 99, בת ים",בלפור 99,7130-237-3,חנות,,קרקע,90.77,3370000,,,1970.0,,6.0,5953127600,1,7130237,False,9% ב 0.8 שנים,בת ים,בלפור,11.25,7130-237-3,7130/237,37126.80401013551,32.0177940026,34.7458788535,2019
2019-10-03,2019-03-10,"בלפור 37, בת ים",בלפור 37,7148-9-9,משרד,,חנויות,26.0,850000,,,1960.0,,4.0,5952916850,1,71489,False,,בת ים,בלפור,,7148-9-9,7148/9,32692.30769230769,32.0276458402,34.7456407042,2019
2019-10-02,2019-02-10,"ז'בוטינסקי 21, בת ים",ז'בוטינסקי 21,7141-119-3,דירה בבית קומות,2.0,ראשונה,58.6,1345000,,,1960.0,,4.0,5951676900,1,7141119,False,92% ב 8 שנים,בת ים,ז'בוטינסקי,11.5,7141-119-3,7141/119,22952.21843003413,32.0214559101,34.7440302531,2019
2019-10-02,2019-02-10,"בלפור 106, בת ים",בלפור 106,7140-232-34,דירה בבית קומות,3.0,רביעית,66.0,1450000,,,1970.0,,5.0,5951685500,1,7140232,False,,בת ים,בלפור,,7140-232-34,7140/232,21969.696969696968,32.0156445179,34.7434899113,2019
2019-10-02,2019-02-10,"הרצל 41, בת ים",הרצל 41,7144-89-17,דירה בבית קומות,3.0,שלישית,62.0,1300000,,,1960.0,,4.0,5951680550,1,714489,False,,בת ים,הרצל,,7144-89-17,7144/89,20967.74193548387,32.0244350881,34.7434634355,2019
2019-10-02,2019-02-10,"הנביאים 54, בת ים",הנביאים 54,7120-154-33,דירה בבית קומות,4.0,קומה ‎8‏,82.2,1825000,,,2007.0,,34.0,5952690450,1,7120154,False,,בת ים,יצחק שדה,,7120-154-33,7120/154,22201.946472019463,32.0100179071,34.7428555429,2019
2019-10-02,2019-02-10,"בלפור 21, בת ים",בלפור 21,7146-97-9,דירה בבית קומות,2.5,ראשונה,56.6,1300000,,,1960.0,,3.0,5951681450,1,714697,False,52% ב 4.8 שנים,בת ים,בלפור,10.83,7146-97-9,7146/97,22968.197879858657,32.0293558786,34.7452744008,2019
2019-10-02,2019-02-10,"הרב מימון 32, בת ים",הרב מימון 32,7178-9-3,דירה בבית קומות,3.0,שניה,66.9,1325000,,,1970.0,,4.0,5951698350,1,71789,False,135% ב 11.2 שנים,בת ים,הרב מימון,12.05,7178-9-3,7178/9,19805.680119581462,32.0065573586,34.7561047952,2019
2019-10-02,2019-02-10,"ויצמן 45, בת ים",ויצמן 45,7152-120-3,דירה בבית קומות,2.0,שניה,36.0,1600000,,,1960.0,,2.0,5951968900,1,7152120,False,,בת ים,ויצמן,,7152-120-3,7152/120,44444.444444444445,32.0291282683,34.7534614733,2019
2019-10-02,2019-02-10,"הרב הרצוג 32, בת ים",הרב הרצוג 32,7150-321-34,דירה בבית קומות,4.0,רביעית,75.0,1630000,1.0,הרצוג בת ים,1960.0,,2.0,5951683900,1,7150321,False,,בת ים,הרב הרצוג,,7150-321-34,7150/321,21733.33333333333,32.0225901019,34.7489505884,2019
2019-10-01,2019-01-10,"ויצמן 31, בת ים",ויצמן 31,7153-267-1,דירה בבית קומות,2.0,ראשונה,40.4,1350000,,,1950.0,,2.0,5950508150,1,7153267,False,98% ב 8.3 שנים,בת ים,ויצמן,11.81,7153-267-1,7153/267,33415.841584158414,32.0299666437,34.7519184885,2019
2019-10-01,2019-01-10,"השקמה 17, בת ים",השקמה 17,7154-165-31,דירה בבית קומות,2.5,רביעית,67.57,1180000,,,1970.0,,4.0,5951650850,1,7154165,False,87% ב 8.5 שנים,בת ים,השקמה,10.24,7154-165-31,7154/165,17463.37131863253,32.0143212293,34.745265015,2019
2019-09-27,2019-09-27,"הלפר 31, בת ים",הלפר 31,7147-74-5,דירה בבית קומות,2.0,שניה,41.0,1140000,,,1960.0,,5.0,5961770700,1,714774,False,,בת ים,הלפר,,7147-74-5,7147/74,27804.878048780487,32.0289060829,34.7473356797,2019
2019-09-26,2019-09-26,"כצנלסון ברל 22, בת ים",כצנלסון ברל 22,7151-229-9,דירה בבית קומות,3.0,ראשונה,65.0,1250000,,,1960.0,,3.0,5961565700,1,7151229,False,,בת ים,כצנלסון ברל,,7151-229-9,7151/229,19230.76923076923,32.022794117,34.7543333657,2019
2019-09-26,2019-09-26,"העצמאות 9, בת ים",העצמאות 9,7143-32-97,דירה בבית קומות,4.0,שביעית,118.0,2870000,,,2016.0,,14.0,5962103150,1,714332,False,,בת ים,העצמאות,,7143-32-97,7143/32,24322.03389830509,32.0227650945,34.7413927532,2019
2019-09-26,2019-09-26,"הרצל 16, בת ים",הרצל 16,7146-30-13,דירה בבית קומות,2.5,שלישית,53.2,1600000,,,1960.0,,4.0,5961810700,1,714630,False,247% ב 17.1 שנים,בת ים,הרצל,14.44,7146-30-13,7146/30,30075.18796992481,32.0290848968,34.7429306206,2019
2019-09-26,2019-09-26,"הרב עוזיאל 1, בת ים",הרב עוזיאל 1,7148-195-5,דירה בבית קומות,2.0,קרקע,42.0,1150000,,,1970.0,,2.0,5961771500,1,7148195,False,66% ב 9.3 שנים,בת ים,הרב עוזיאל,7.1,7148-195-5,7148/195,27380.95238095238,32.0232168218,34.7474749636,2019
2019-09-26,2019-09-26,"קרן היסוד 21, בת ים",קרן היסוד 21,7124-229-1,דירה בבית קומות,3.0,ראשונה,63.5,1400000,,,1983.0,,7.0,5962327550,1,7124229,False,,בת ים,קרן היסוד,,7124-229-1,7124/229,22047.24409448819,32.004938504,34.7521746477,2019
2019-09-26,2019-09-26,"בלפור 84, בת ים",בלפור 84,7141-224-48,דירה בבית קומות,3.0,ראשונה,69.0,1295000,,,1970.0,,8.0,5961650650,1,7141224,False,156% ב 12.7 שנים,בת ים,בלפור,12.28,7141-224-48,7141/224,18768.115942028984,32.0192579347,34.7451873976,2019
2019-09-26,2019-09-26,"הרב לוזון 14, בת ים",הרב לוזון 14,7128-173-3,דירה בבית קומות,2.0,ראשונה,40.31,1000000,,,1970.0,,4.0,5961668450,1,7128173,False,,בת ים,הרב לוזון,,7128-173-3,7128/173,24807.740014884643,32.011397775,34.7522800967,2019
2019-09-26,2019-09-26,"משה שרת 18, בת ים",משה שרת 18,7155-200-26,דירה בבית קומות,3.0,שביעית,78.0,1580000,1.0,משה שרת 18-20 בת ים,1970.0,,3.0,5962580950,1,7155200,False,,בת ים,שרת משה,,7155-200-26,7155/200,20256.410256410258,32.0185755291,34.7529132671,2019
2019-09-26,2019-09-26,"סוקולוב 26, בת ים",סוקולוב 26,7143-35-20,דירה בבית קומות,4.0,ראשונה ושניה,95.45,2220000,,,1965.0,,7.0,5961906450,1,714335,False,68% ב 9 שנים,בת ים,סוקולוב,7.56,7143-35-20,7143/35,23258.25039287585,32.0228006881,34.7421069225,2019
2019-09-25,2019-09-25,"העצמאות 9, בת ים",העצמאות 9,7143-32-56,דירה,4.0,,118.0,2870000,1.0,עלמה,2016.0,,14.0,11181293014,1,714332,False,,בת ים,העצמאות,,7143-32-56,7143/32,24322.03389830509,32.0227650945,34.7413927532,2019
2019-09-25,2019-09-25,"קלויזנר 6, בת ים",קלויזנר 6,7150-346-19,דירה בבית קומות,4.0,קומה ‎7‏,91.25,1950000,,,2016.0,,10.0,5961746900,1,7150346,False,,בת ים,קלויזנר,,7150-346-19,7150/346,21369.86301369863,32.0232911691,34.7509099643,2019
2019-09-25,2019-09-25,"השקמה 32, בת ים",השקמה 32,7137-160-40,דירה בבית קומות,3.0,שישית,68.0,1350000,,,1970.0,2019.0,4.0,5962185350,1,7137160,False,,בת ים,השקמה,,7137-160-40,7137/160,19852.941176470587,32.012745517,34.7434930119,2019
2019-09-25,2019-09-25,"כהן אלי 26, בת ים",כהן אלי 26,7128-64-12,דירה בבית קומות,3.0,שניה,48.0,1300000,,,1970.0,,4.0,5961593400,1,712864,False,,בת ים,כהן אלי,,7128-64-12,7128/64,27083.33333333333,32.013876492,34.759478079,2019
2019-09-25,2019-09-25,"פרלשטיין 2, בת ים",פרלשטיין 2,7136-279-16,דירה בבית קומות,4.0,שניה,83.0,1600000,,,1970.0,,8.0,5961516200,1,7136279,False,,בת ים,פרלשטיין,,7136-279-16,7136/279,19277.10843373494,32.0208465365,34.7458151531,2019
2019-09-25,2019-09-25,"העצמאות 77, בת ים",העצמאות 77,7147-117-144,משרד,,קרקע,21.9,435000,,,1960.0,,11.0,5961579750,1,7147117,False,8% ב 7.9 שנים,בת ים,העצמאות,1.01,7147-117-144,7147/117,19863.013698630137,32.0289194917,34.7491153001,2019
2019-09-25,2019-09-25,"מבצע סיני 36, בת ים",מבצע סיני 36,7156-86-2,דירה בבית קומות,2.0,ראשונה,44.9,1125000,,,1960.0,,4.0,5961885450,1,715686,False,,בת ים,מבצע סיני,,7156-86-2,7156/86,25055.679287305124,32.0178732085,34.7588480876,2019
2019-09-25,2019-09-25,"הראשונים 3, בת ים",הראשונים 3,7147-89-59,דירה בבית קומות,5.0,שמינית,112.23,2500000,,,2000.0,,9.0,5961735300,1,714789,False,,בת ים,הראשונים,,7147-89-59,7147/89,22275.683863494607,32.0303699247,34.7471914382,2019
2019-09-25,2019-09-25,"בן-גוריון 99, בת ים",בן-גוריון 99,7139-225-192,דירה בבית קומות,2.0,חמש עשרה,36.1,1570000,,,1995.0,,24.0,5961737750,1,7139225,False,88% ב 8.5 שנים,בת ים,בן גוריון,10.35,7139-225-192,7139/225,43490.30470914127,32.0166580657,34.7390774007,2019
2019-09-25,2019-09-25,"רוטשילד 61, בת ים",רוטשילד 61,7152-91-13,דירה בבית קומות,3.0,שניה,57.8,1220000,,,1960.0,,4.0,5962432800,1,715291,False,,בת ים,רוטשילד,,7152-91-13,7152/91,21107.26643598616,32.0269072486,34.7534196097,2019
2019-09-25,2019-09-25,"רוטשילד 7, בת ים",רוטשילד 7,7145-31-17,דירה בבית קומות,2.0,ראשונה,36.94,1420000,,,1960.0,,4.0,5961530650,1,714531,False,,בת ים,רוטשילד,,7145-31-17,7145/31,38440.7146724418,32.0269833614,34.7426129404,2019
2019-09-24,2019-09-24,"החרושת 20, בת ים",החרושת 20,7129-134-122,משרד,,שלוש עשרה,98.0,1196122,,,2020.0,,29.0,5962015750,1,7129134,False,,בת ים,החרושת,,7129-134-122,7129/134,12205.326530612245,32.0132941368,34.7519503401,2019
2019-09-24,2019-09-24,"אל-מליח 1, בת ים",אל-מליח 1,7140-281-8,דירה בבית קומות,3.5,ראשונה,80.4,1680000,,,1992.0,,6.0,5961412600,1,7140281,False,84% ב 10.7 שנים,בת ים,אלמליח,7.85,7140-281-8,7140/281,20895.5223880597,32.0179734901,34.7444320501,2019
2019-09-24,2019-09-24,"קרן היסוד 20, בת ים",קרן היסוד 20,7124-130-6,חנות,,קרקע,41.01,980000,,,1999.0,,,5962226550,1,7124130,False,136% ב 20.6 שנים,בת ים,קרן היסוד,6.6,7124-130-6,7124/130,23896.610582784688,32.0042403884,34.7530501182,2019
2019-09-24,2019-09-24,"מתתיהו גנם 3, בת ים",מתתיהו גנם 3,7133-38-14,דירה בבית קומות,3.0,רביעית,64.21,1160000,,,1960.0,,4.0,5961716700,1,713338,False,65% ב 7.7 שנים,בת ים,גנם מתתיהו,8.44,7133-38-14,7133/38,18065.721850179103,32.0235934738,34.7585036253,2019
2019-09-24,2019-09-24,"ששת הימים 6, בת ים",ששת הימים 6,7155-294-7,דירה בבית קומות,2.5,שניה,54.44,1310000,,,1970.0,,4.0,5961626400,1,7155294,False,38% ב 4.3 שנים,בת ים,ששת הימים,8.84,7155-294-7,7155/294,24063.18883174137,32.0168878146,34.7517175437,2019
2019-09-24,2019-09-24,"דניאל 69, בת ים",דניאל 69,7135-194-38,דירה בבית קומות,2.5,שביעית,42.0,1190000,,,1960.0,,7.0,5961436600,1,7135194,False,46% ב 6.8 שנים,בת ים,דניאל,6.76,7135-194-38,7135/194,28333.33333333333,32.0192505886,34.7504419037,2019
2019-09-24,2019-09-24,"המשוררת רחל 3, בת ים",המשוררת רחל 3,7140-186-12,דירה בבית קומות,4.0,שלישית,84.0,1550000,,,1970.0,,6.0,5961628850,1,7140186,False,,בת ים,המשוררת רחל,,7140-186-12,7140/186,18452.380952380958,32.0176394741,34.7438912594,2019
2019-09-23,2019-09-23,"התבור 5, בת ים",התבור 5,7128-86-23,דירה בבית קומות,4.0,שביעית,73.8,1525000,,,1970.0,,6.0,5961317750,1,712886,False,,בת ים,התבור,,7128-86-23,7128/86,20663.9566395664,32.0120834539,34.7578168003,2019
2019-09-23,2019-09-23,"אוסקר שינדלר 8, בת ים",אוסקר שינדלר 8,7146-260-19,דירה בבית קומות,4.0,שישית,79.72,1700000,,,1996.0,,9.0,5962069400,1,7146260,False,,בת ים,שינדלר אוסקר,,7146-260-19,7146/260,21324.63622679378,32.031335188,34.7427493933,2019
2019-09-23,2019-09-23,"חלמית 14, בת ים",חלמית 14,6998-227-5,דירה בבית קומות,3.0,שניה,74.0,1335000,,,1960.0,,4.0,5961490250,1,6998227,False,,בת ים,חלמית,,6998-227-5,6998/227,18040.54054054054,32.0320984032,34.7569815842,2019
2019-09-23,2019-09-23,"יצחק שדה 8, בת ים",יצחק שדה 8,7120-154-318,דירה בבית קומות,3.0,קומה ‎26‏,84.6,2030000,,,2007.0,,34.0,5962194450,1,7120154,False,18% ב 3.5 שנים,בת ים,יצחק שדה,5.14,7120-154-318,7120/154,23995.271867612293,32.0100179071,34.7428555429,2019
2019-09-22,2019-09-22,"רמז 18, בת ים",רמז 18,7134-107-9,דירה בבית קומות,2.0,שלישית,47.7,1000000,,,1970.0,,4.0,5961572350,1,7134107,False,0% ב 2.8 שנים,בת ים,רמז,0.0,7134-107-9,7134/107,20964.36058700209,32.0193488358,34.752160472,2019
2019-09-20,2019-09-20,"מתתיהו גנם 2, בת ים",מתתיהו גנם 2,7133-51-31,דירה בבית קומות,2.0,שלישית,35.1,1370000,,,1970.0,,4.0,5961695300,1,713351,False,,בת ים,גנם מתתיהו,,7133-51-31,7133/51,39031.33903133903,32.0239821886,34.7578033615,2019
2019-09-20,2019-09-20,"החשמונאים 48, בת ים",החשמונאים 48,7135-182-16,דירה בבית קומות,2.0,רביעית,35.0,1030000,,,1970.0,,4.0,5961201000,1,7135182,False,49% ב 5 שנים,בת ים,החשמונאים,9.8,7135-182-16,7135/182,29428.571428571428,32.0185612997,34.7507809152,2019
2019-09-20,2019-09-20,"טרומפלדור 8, בת ים",טרומפלדור 8,7150-257-12,דירה בבית קומות,2.0,ראשונה,52.3,1250000,,,1970.0,,2.0,5961264500,1,7150257,False,,בת ים,טרומפלדור,,7150-257-12,7150/257,23900.57361376673,32.024390295,34.7506765596,2019
2019-09-19,2019-09-19,"הרב הרצוג 40, בת ים",הרב הרצוג 40,7150-315-22,דירה בבית קומות,2.0,ראשונה,47.73,1245000,,,1960.0,,3.0,5962112650,1,7150315,False,20% ב 1.8 שנים,בת ים,הרב הרצוג,11.11,7150-315-22,7150/315,26084.223758642365,32.0224207741,34.7498362003,2019
2019-09-19,2019-09-19,"הרצל 32, בת ים",הרצל 32,7145-40-12,דירה בבית קומות,2.0,רביעית,60.5,1420000,,,1970.0,,5.0,5961223350,1,714540,False,275% ב 19.1 שנים,בת ים,הרצל,14.4,7145-40-12,7145/40,23471.07438016529,32.0273234552,34.7426370136,2019
2019-09-19,2019-09-19,"רוטשילד 6, בת ים",רוטשילד 6,7145-100-16,דירה בבית קומות,3.0,שלישית,60.0,1525000,,,1970.0,,4.0,5961158500,1,7145100,False,203% ב 20.1 שנים,בת ים,רוטשילד,10.1,7145-100-16,7145/100,25416.666666666668,32.0263580011,34.7423858759,2019
2019-09-18,2019-09-18,"דקר 5, בת ים",דקר 5,7141-209-13,דירה בבית קומות,2.0,שניה,51.2,541000,,,1970.0,,5.0,5961667550,1,7141209,False,26% ב 12.3 שנים,בת ים,דקר,2.11,7141-209-13,7141/209,10566.40625,32.0193914143,34.7432317804,2019
2019-09-18,2019-09-18,"ברל כצנלסון 52, בת ים",ברל כצנלסון 52,7134-66-3,דירה בבית קומות,2.0,ראשונה,36.8,1300000,,,1950.0,,1.0,5962025250,1,713466,False,,בת ים,כצנלסון ברל,,7134-66-3,7134/66,35326.08695652174,32.0194701898,34.7541292268,2019
2019-09-18,2019-09-18,"בלפור 123, בת ים",בלפור 123,7140-115-20,דירה בבית קומות,3.0,שלישית,72.0,1373700,,,1970.0,,5.0,5961889100,1,7140115,False,,בת ים,בלפור,,7140-115-20,7140/115,19079.166666666668,32.0151054691,34.7436735801,2019
2019-09-18,2019-09-18,"החשמונאים 51, בת ים",החשמונאים 51,7155-305-16,משרד,2.0,רביעית,63.11,120000,,,2018.0,,5.0,5962405100,1,7155305,False,,בת ים,החשמונאים,,7155-305-16,7155/305,1901.4419267944857,32.0175527071,34.7511506863,2019
2019-09-17,2019-09-17,"פרלשטיין 14, בת ים",פרלשטיין 14,7136-297-46,דירה בבית קומות,4.0,רביעית,112.0,1550000,1.0,פרלשטיין 14-16,2016.0,,2.0,5962179100,1,7136297,False,,בת ים,פרלשטיין,,7136-297-46,7136/297,13839.285714285714,32.0208349769,34.7473862683,2019
2019-09-16,2019-09-16,"זמנהוף 11, בת ים",זמנהוף 11,7136-323-14,דירה בבית קומות,4.0,שניה,64.2,1500000,,,1960.0,,5.0,5960954350,1,7136323,False,178% ב 18.1 שנים,בת ים,זמנהוף,9.83,7136-323-14,7136/323,23364.48598130841,32.0203443479,34.7490615637,2019
2019-09-16,2019-09-16,"קהילת סלונים 12, בת ים",קהילת סלונים 12,7154-320-7,דירה בבית קומות,2.5,שניה,54.1,1320000,,,1993.0,,5.0,5960998100,1,7154320,False,,בת ים,קהילת סלונים,,7154-320-7,7154/320,24399.260628465803,32.0116975084,34.7476230782,2019
2019-09-16,2019-09-16,"הלפר 42, בת ים",הלפר 42,7147-97-7,דירה בבית קומות,2.5,שניה,46.7,1290000,,,1970.0,,3.0,5961029000,1,714797,False,268% ב 15.5 שנים,בת ים,הלפר,17.29,7147-97-7,7147/97,27623.126338329763,32.0290204705,34.7479328221,2019
2019-09-16,2019-09-16,"ברל כצנלסון 26, בת ים",ברל כצנלסון 26,7151-252-2,דירה בבית קומות,2.0,ראשונה,55.0,1230000,,,1970.0,,4.0,5960959300,1,7151252,False,95% ב 9.2 שנים,בת ים,כצנלסון ברל,10.33,7151-252-2,7151/252,22363.636363636364,32.0222969314,34.7543097946,2019
2019-09-16,2019-09-16,"החשמונאים 43, בת ים",החשמונאים 43,7135-232-15,דירה בבית קומות,3.0,רביעית,68.0,1215000,,,1970.0,,4.0,5961723700,1,7135232,False,,בת ים,החשמונאים,,7135-232-15,7135/232,17867.647058823528,32.018240502,34.7512902545,2019
2019-09-16,2019-09-16,"מחרוזת 48, בת ים",מחרוזת 48,6997-261-16,דירה בבית קומות,3.0,רביעית,63.5,1330000,,,1970.0,,4.0,5960953950,1,6997261,False,112% ב 8.7 שנים,בת ים,מחרוזת,12.87,6997-261-16,6997/261,20944.88188976378,32.032795498,34.7584193865,2019
2019-09-15,2019-09-15,"רוטשילד 17, בת ים",רוטשילד 17,7145-122-13,דירה בבית קומות,1.0,שלישית,30.0,1235000,,,1960.0,,3.0,5960940800,1,7145122,False,105% ב 1.5 שנים,בת ים,רוטשילד,70.0,7145-122-13,7145/122,41166.66666666666,32.0268650851,34.74392921,2019
2019-09-15,2019-09-15,"אלי כהן 16, בת ים",אלי כהן 16,7128-59-65,דירה בבית קומות,3.0,תשיעית,63.9,1505000,,,1970.0,,9.0,5960998500,1,712859,False,28% ב 3.8 שנים,בת ים,כהן אלי,7.37,7128-59-65,7128/59,23552.42566510172,32.011875974,34.759265181,2019
2019-09-15,2019-09-15,"ירושלים 23, בת ים",ירושלים 23,7148-144-2,דירה בבית קומות,3.0,ראשונה,59.13,1430000,,,1970.0,,4.0,5960942000,1,7148144,False,150% ב 11.3 שנים,בת ים,ירושלים,13.27,7148-144-2,7148/144,24184.001352951123,32.0258439304,34.7456999166,2019
2019-09-15,2019-09-15,"קרן היסוד 18, בת ים",קרן היסוד 18,7124-129-42,דירה בבית קומות,4.0,רביעית,88.8,1820000,,,1980.0,,7.0,5961166450,1,7124129,False,169% ב 12.2 שנים,בת ים,קרן היסוד,13.85,7124-129-42,7124/129,20495.495495495496,32.0042174193,34.7523726602,2019
2019-09-15,2019-09-15,,,7146-194-2,קרקע למגורים,,,,42327000,,,,,,6003645650,2,7146194,False,,בת ים,בלפור,,7146-194-2,7146/194,,32.0312765294,34.7444836972,2019
2019-09-15,2019-09-15,"החשמונאים 65, בת ים",החשמונאים 65,7155-272-3,דירה בבית קומות,3.0,ראשונה,66.21,1270000,,,1970.0,,5.0,5961912550,1,7155272,False,,בת ים,החשמונאים,,7155-272-3,7155/272,19181.392538891407,32.0163710014,34.7504611495,2019
2019-09-15,2019-09-15,"בר-יהודה 5, בת ים",בר-יהודה 5,7140-299-7,דירה בבית קומות,3.0,שניה,58.0,1385000,,,1990.0,,4.0,5960997350,1,7140299,False,220% ב 14.6 שנים,בת ים,בר יהודה,15.07,7140-299-7,7140/299,23879.310344827587,32.0154720354,34.7451222642,2019
2019-09-15,2019-09-15,"יחזקאל דנין 5, בת ים",יחזקאל דנין 5,7136-385-10,דירה בבית קומות,2.0,ראשונה,40.0,1200000,,,1970.0,,4.0,5961138400,1,7136385,False,148% ב 11.5 שנים,בת ים,דנין יחזקאל,12.87,7136-385-10,7136/385,30000.0,32.0182999254,34.7467152556,2019
2019-09-12,2019-12-09,"צה""ל 1, בת ים","צה""ל 1",7148-184-4,דירה בבית קומות,2.0,ראשונה,51.0,1330000,,,1950.0,,3.0,5964180200,1,7148184,False,,בת ים,"צה""ל",,7148-184-4,7148/184,26078.43137254902,32.0244191775,34.7480223004,2019
2019-09-12,2019-12-09,"ארלוזורוב 22, בת ים",ארלוזורוב 22,7145-52-7,דירה בבית קומות,3.5,שניה,53.49,1600000,,,1960.0,,3.0,5964276300,1,714552,False,25% ב 3.5 שנים,בת ים,ארלוזורוב,7.14,7145-52-7,7145/52,29912.133108992333,32.027597104,34.7438881385,2019
2019-09-12,2019-12-09,"מתתיהו גנם 14, בת ים",מתתיהו גנם 14,7133-46-57,דירה בבית קומות,2.0,רביעית,42.1,1010000,,,1960.0,,4.0,5964248700,1,713346,False,291% ב 11.9 שנים,בת ים,גנם מתתיהו,24.45,7133-46-57,7133/46,23990.498812351543,32.0240437137,34.7600910089,2019
2019-09-12,2019-12-09,"השקמה 9, בת ים",השקמה 9,7154-161-4,דירה בבית קומות,4.0,ראשונה,78.69,1620000,,,1970.0,,4.0,5964227600,1,7154161,False,47% ב 6.3 שנים,בת ים,השקמה,7.46,7154-161-4,7154/161,20587.11399161266,32.0150634205,34.7460119371,2019
2019-09-12,2019-12-09,"כ""ט בנובמבר 48, בת ים","כ""ט בנובמבר 48",7178-3-19,דירה בבית קומות,3.0,שניה,66.9,1280000,,,1970.0,,4.0,5964226850,1,71783,False,156% ב 18.3 שנים,בת ים,"כ""ט בנובמבר",8.52,7178-3-19,7178/3,19133.03437967115,32.0081336263,34.7596785626,2019
2019-09-12,2019-12-09,"החרושת 20, בת ים",החרושת 20,7129-134-118,דירה בבית קומות,3.0,שבע עשרה,88.0,1630000,,,2020.0,,29.0,6000291100,1,7129134,False,,בת ים,החרושת,,7129-134-118,7129/134,18522.727272727272,32.0132941368,34.7519503401,2019
2019-09-12,2019-12-09,"בלפור 52, בת ים",בלפור 52,7144-50-15,דירה בבית קומות,4.0,שלישית,75.17,1500000,,,1970.0,,3.0,6000052250,1,714450,False,120% ב 9.2 שנים,בת ים,בלפור,13.04,7144-50-15,7144/50,19954.76918983637,32.0246040567,34.7449555551,2019
2019-09-12,2019-12-09,"בלפור 140, בת ים",בלפור 140,7138-286-3,משרד,,קרקע,21.0,700000,,,1970.0,,5.0,6000294850,1,7138286,False,,בת ים,בלפור,,7138-286-3,7138/286,33333.333333333336,32.012755911,34.7419303672,2019
2019-09-09,2019-09-09,"חביבה רייק 11, בת ים",חביבה רייק 11,7155-209-6,דירה בבית קומות,3.0,שניה,63.5,1500000,,,2008.0,,6.0,5960754650,1,7155209,False,,בת ים,רייק חביבה,,7155-209-6,7155/209,23622.047244094487,32.0185834092,34.7532805962,2019
2019-09-09,2019-09-09,"הגיבורים 27, בת ים",הגיבורים 27,6998-202-2,דירה בבית קומות,3.0,ראשונה,61.2,1660000,,,1950.0,,2.0,5960829800,1,6998202,False,,בת ים,הגבורים,,6998-202-2,6998/202,27124.183006535943,32.0310932759,34.7558027374,2019
2019-09-09,2019-09-09,"סוקולוב 6, בת ים",סוקולוב 6,7145-117-6,דירה בבית קומות,3.0,שניה,68.0,1499000,,,1960.0,,2.0,5961639150,1,7145117,False,,בת ים,סוקולוב,,7145-117-6,7145/117,22044.117647058825,32.0257807303,34.7417383407,2019
2019-09-07,2019-07-09,"יוספטל גיורא 70, בת ים",יוספטל גיורא 70,7130-171-1,דירה בבית קומות,3.0,ראשונה,68.95,1330000,,,1970.0,,7.0,5958066950,1,7130171,False,,בת ים,יוספטל גיורא,,7130-171-1,7130/171,19289.34010152284,32.0161680489,34.748263244,2019
2019-09-07,2019-07-09,"כובשי החרמון 3, בת ים",כובשי החרמון 3,7128-225-31,דירה בבית קומות,3.0,שביעית,73.93,1450000,,,1970.0,,9.0,5957932850,1,7128225,False,147% ב 18.6 שנים,בת ים,כובשי החרמון,7.9,7128-225-31,7128/225,19613.147572027592,32.010329991,34.7601239362,2019
2019-09-07,2019-07-09,"החשמונאים 5, בת ים",החשמונאים 5,7135-211-13,דירה בבית קומות,2.0,רביעית,42.7,1035000,,,1970.0,,4.0,5958559450,1,7135211,False,203% ב 11.6 שנים,בת ים,החשמונאים,17.5,7135-211-13,7135/211,24238.87587822014,32.0215554339,34.7514495954,2019
2019-09-07,2019-07-09,"בלפור 84, בת ים",בלפור 84,7141-224-107,דירה בבית קומות,3.0,שניה,69.0,1350000,,,1970.0,,8.0,5957918400,1,7141224,False,,בת ים,בלפור,,7141-224-107,7141/224,19565.217391304348,32.0192579347,34.7451873976,2019
2019-09-07,2019-07-09,"בן-גוריון 47, בת ים",בן-גוריון 47,7145-154-11,דירה בבית קומות,3.0,ראשונה,71.47,2100000,,,1960.0,,11.0,5958067350,1,7145154,False,,בת ים,בן גוריון,,7145-154-11,7145/154,29382.957884427036,32.0261315636,34.741398624,2019
2019-09-07,2019-07-09,"ירושלים 33, בת ים",ירושלים 33,7148-24-5,דירה בבית קומות,4.0,שניה,68.27,1440000,,,1960.0,,4.0,5958597000,1,714824,False,95% ב 10.5 שנים,בת ים,ירושלים,9.05,7148-24-5,7148/24,21092.720082027245,32.0262478617,34.7468520287,2019
2019-09-07,2019-07-09,"הרב מימון 13, בת ים",הרב מימון 13,7124-108-46,דירה בבית קומות,3.0,רביעית,63.0,1260000,,,1975.0,,4.0,5957924550,1,7124108,False,116% ב 10.9 שנים,בת ים,הרב מימון,10.64,7124-108-46,7124/108,20000.0,32.0081796386,34.7520382331,2019
2019-09-06,2019-06-09,"העצמאות 9, בת ים",העצמאות 9,7143-32-52,דירה,3.0,,74.0,2180000,1.0,עלמה,2016.0,,14.0,11181293011,1,714332,False,,בת ים,העצמאות,,7143-32-52,7143/32,29459.45945945946,32.0227650945,34.7413927532,2019
2019-09-01,2019-01-09,"מנדלי מוכר ספרים 19, בת ים",מנדלי מוכר ספרים 19,7136-365-14,דירה בבית קומות,2.5,רביעית,43.5,1250000,,,1970.0,,4.0,5950363400,1,7136365,False,222% ב 10.8 שנים,בת ים,מנדלי מוכר ספרים,20.56,7136-365-14,7136/365,28735.632183908045,32.0189157389,34.7497400655,2019
2019-09-01,2019-01-09,"הרב הרצוג 14, בת ים",הרב הרצוג 14,7148-185-11,דירה בבית קומות,2.0,שניה,49.6,766000,,,1960.0,,2.0,5951574100,1,7148185,False,,בת ים,הרב הרצוג,,7148-185-11,7148/185,15443.548387096776,32.0246947429,34.7485603911,2019
2019-09-01,2019-01-09,"השר שפירא 24, בת ים",השר שפירא 24,7140-216-5,דירה בבית קומות,3.5,שניה,73.0,1690000,,,1982.0,,6.0,5951530850,1,7140216,False,,בת ים,השר שפירא,,7140-216-5,7140/216,23150.68493150685,32.0151978112,34.7418425115,2019
2019-09-01,2019-01-09,"בר אילן 38, בת ים",בר אילן 38,7154-197-8,דירה בבית קומות,1.5,שניה,33.52,950000,,,1970.0,,4.0,5950486400,1,7154197,False,,בת ים,בר אילן,,7154-197-8,7154/197,28341.288782816227,32.0134802011,34.7465039578,2019
2019-09-01,2019-01-09,"החשמל 1, בת ים",החשמל 1,7122-51-2,מלאכה,,,500.0,7874000,,,1970.0,,1.0,5951720150,1,712251,False,,בת ים,החשמל,,7122-51-2,7122/51,15748.0,32.0067374656,34.7430684595,2019
2019-09-01,2019-01-09,"יצחק שדה 21, בת ים",יצחק שדה 21,7138-269-7,דירה בבית קומות,4.0,שלישית,82.49,1725000,,,1970.0,,6.0,5951087450,1,7138269,False,46% ב 8.3 שנים,בת ים,יצחק שדה,5.54,7138-269-7,7138/269,20911.62565159413,32.0113848195,34.7415265627,2019
2019-09-01,2019-01-09,"המייסדים 6, בת ים",המייסדים 6,7139-190-5,דירה בבית קומות,4.0,שניה,91.16,1980000,,,1994.0,,6.0,5950985950,1,7139190,False,157% ב 20.1 שנים,בת ים,המיסדים,7.81,7139-190-5,7139/190,21720.0526546731,32.0172321351,34.7410476866,2019
2019-08-30,2019-08-30,"אנה פרנק 12, בת ים",אנה פרנק 12,7124-147-3,דירה בבית קומות,4.0,ראשונה,110.64,1700000,,,1970.0,,4.0,5960240400,1,7124147,False,,בת ים,פרנק אנה,,7124-147-3,7124/147,15365.148228488792,32.0040132471,34.7539834115,2019
2019-08-29,2019-08-29,"כ""ט בנובמבר 46, בת ים","כ""ט בנובמבר 46",7178-3-55,דירה בבית קומות,3.0,רביעית,66.9,1220000,,,1970.0,,4.0,5960227150,1,71783,False,108% ב 9.4 שנים,בת ים,"כ""ט בנובמבר",11.49,7178-3-55,7178/3,18236.173393124063,32.0081336263,34.7596785626,2019
2019-08-29,2019-08-29,"השבטים 12, בת ים",השבטים 12,7122-95-10,דירה בבית קומות,3.0,שלישית,62.13,1300000,,,1970.0,,4.0,5960497400,1,712295,False,,בת ים,השבטים,,7122-95-10,7122/95,20923.86930629325,32.0040817178,34.7490788732,2019
2019-08-29,2019-08-29,"השלושה 37, בת ים",השלושה 37,7152-383-2,דירה בבית קומות,3.0,ראשונה,78.0,216000,,,1950.0,,2.0,5961381750,1,7152383,False,,בת ים,השלושה,,7152-383-2,7152/383,2769.230769230769,32.0277455591,34.7566561527,2019
2019-08-29,2019-08-29,"בר-יהודה 28, בת ים",בר-יהודה 28,7137-115-10,דירה בבית קומות,3.0,רביעית,58.27,1400000,,,1970.0,,5.0,5960367750,1,7137115,False,36% ב 6 שנים,בת ים,בר יהודה,6.0,7137-115-10,7137/115,24026.085464218293,32.0139241128,34.7430960421,2019
2019-08-29,2019-08-29,"ארלוזורוב 3, בת ים",ארלוזורוב 3,7146-92-40,דירה בבית קומות,2.5,שלישית,47.0,1400000,,,1960.0,,4.0,5960226750,1,714692,False,7% ב 2.4 שנים,בת ים,ארלוזורוב,2.92,7146-92-40,7146/92,29787.23404255319,32.0294976106,34.7445109652,2019
2019-08-29,2019-08-29,"אלתרמן 23, בת ים",אלתרמן 23,7140-226-16,דירה בבית קומות,3.5,חמישית,62.9,2020000,,,1970.0,,6.0,5961412250,1,7140226,False,,בת ים,אלתרמן,,7140-226-16,7140/226,32114.467408585057,32.0148340269,34.7427066161,2019
2019-08-29,2019-08-29,"אנה פרנק 7, בת ים",אנה פרנק 7,7124-132-13,דירה בבית קומות,3.0,רביעית,60.5,1215000,,,1970.0,,4.0,5960361550,1,7124132,False,,בת ים,פרנק אנה,,7124-132-13,7124/132,20082.644628099173,32.003641477,34.7529995706,2019
2019-08-29,2019-08-29,"משה שרת 20, בת ים",משה שרת 20,7155-199-23,דירה בבית קומות,4.0,שביעית,94.0,1670000,,,1970.0,2018.0,3.0,5961779400,1,7155199,False,,בת ים,שרת משה,,7155-199-23,7155/199,17765.957446808512,32.0187184433,34.7529148817,2019
2019-08-28,2019-08-28,"רוטשילד 27, בת ים",רוטשילד 27,7148-223-35,דירה בבית קומות,4.0,שישית,69.7,1450000,,,1970.0,,15.0,5960499850,1,7148223,False,,בת ים,רוטשילד,,7148-223-35,7148/223,20803.443328550933,32.027141677,34.7459488697,2019
2019-08-28,2019-08-28,"בן-גוריון 138, בת ים",בן-גוריון 138,7120-135-146,דירה בבית קומות,1.0,שלישית,,700000,,,1970.0,,17.0,5961154450,1,7120135,False,,בת ים,בן גוריון,,7120-135-146,7120/135,,32.0108606487,34.7374825488,2019
2019-08-28,2019-08-28,"החשמונאים 24, בת ים",החשמונאים 24,7135-159-15,דירה בבית קומות,2.0,שלישית,57.0,1245000,,,1960.0,,3.0,5960360350,1,7135159,False,216% ב 14.6 שנים,בת ים,החשמונאים,14.79,7135-159-15,7135/159,21842.105263157893,32.0202907381,34.7508615828,2019
2019-08-28,2019-08-28,"בר יהודה 2, בת ים",בר יהודה 2,7140-106-9,דירה בבית קומות,2.5,שלישית,59.0,1300000,,,1970.0,,4.0,5960417300,1,7140106,False,,בת ים,בר יהודה,,7140-106-9,7140/106,22033.898305084746,32.0162865447,34.7452439059,2019
2019-08-27,2019-08-27,"יוספטל גיורא 111, בת ים",יוספטל גיורא 111,7156-40-3,דירה בבית קומות,3.0,ראשונה,67.45,1340000,,,1960.0,,3.0,5960254300,1,715640,False,21% ב 3.2 שנים,בת ים,יוספטל גיורא,6.56,7156-40-3,7156/40,19866.567828020758,32.015842411,34.7599166649,2019
2019-08-27,2019-08-27,"הרצל 81, בת ים",הרצל 81,7136-286-12,דירה בבית קומות,3.0,שניה,53.29,1430000,,,1960.0,,3.0,5960212650,1,7136286,False,184% ב 14 שנים,בת ים,הרצל,13.14,7136-286-12,7136/286,26834.30287108276,32.0193976501,34.7462851024,2019
2019-08-26,2019-08-26,"בלפור 157, בת ים",בלפור 157,7137-137-3,דירה בבית קומות,4.0,ראשונה,78.39,1510000,,,1970.0,,8.0,5960053850,1,7137137,False,,בת ים,בלפור,,7137-137-3,7137/137,19262.66105370583,32.0123109176,34.7423626115,2019
2019-08-26,2019-08-26,"ירושלים 57, בת ים",ירושלים 57,7149-213-13,דירה בבית קומות,2.0,ראשונה,46.57,400000,,,1970.0,,3.0,6000940450,1,7149213,False,,בת ים,ירושלים,,7149-213-13,7149/213,8589.220528237063,32.0260542818,34.7518164512,2019
2019-08-26,2019-08-26,"הצפירה 10, בת ים",הצפירה 10,7142-141-25,דירה בבית קומות,3.0,חמישית,74.0,1750000,1.0,הצפירה 10 בת ים,1970.0,2014.0,2.0,5960237050,1,7142141,False,,בת ים,הצפירה,,7142-141-25,7142/141,23648.64864864865,32.0196314078,34.7416334896,2019
2019-08-26,2019-08-26,"אלמליח 2, בת ים",אלמליח 2,7140-284-39,דירה בבית קומות,3.5,רביעית,79.0,1300000,,,1970.0,,4.0,5960076150,1,7140284,False,,בת ים,אלמליח,,7140-284-39,7140/284,16455.696202531646,32.0177016869,34.7448108207,2019
