DEALDATE,DEALDATETIME,FULLADRESS,DISPLAYADRESS,GUSH,DEALNATUREDESCRIPTION,ASSETROOMNUM,FLOORNO,DEALNATURE,DEALAMOUNT,NEWPROJECTTEXT,PROJECTNAME,BUILDINGYEAR,YEARBUILT,BUILDINGFLOORS,KEYVALUE,TYPE,POLYGON_ID,TREND_IS_NEGATIVE,TREND_FORMAT,city_name,street,presentage per year,GUSH - Copy,Gush_Helka,Price per sqm,lat,lon,Year
2001-12-31,2001-12-31,"קדומים 22, כפר סבא",קדומים 22,7618-124-2,דירה בבית קומות,6.0,מרתף+קרקע+ראשונה,193.9,1330000,,,2000.0,,,7549347910,1,7618124,False,,כפר סבא,קדומים,,7618-124-2,7618/124,6859.205776173285,32.1812466314,34.9354208031,2001
2001-12-30,2001-12-30,"קפלנסקי 1, כפר סבא",קפלנסקי 1,7620-188-28,דירה בבית קומות,4.0,רביעית,100.0,778000,,,2001.0,,4.0,7548583046,1,7620188,False,,כפר סבא,קפלנסקי,,7620-188-28,7620/188,7780.0,32.1897313921,34.9040751416,2001
2001-12-28,2001-12-28,"הרצפלד אברהם 8, כפר סבא",הרצפלד אברהם 8,6431-308-19,,3.0,ראשונה,73.4,646000,,,1975.0,,4.0,7548460872,1,6431308,False,,כפר סבא,הרצפלד אברהם,,6431-308-19,6431/308,8801.08991825613,32.1850475889,34.9030330057,2001
2001-12-27,2001-12-27,"הארזים 4, כפר סבא",הארזים 4,6437-88-8,,3.0,שניה,67.8,601000,,,1970.0,,4.0,7548008436,1,643788,False,,כפר סבא,הארזים,,6437-88-8,6437/88,8864.306784660766,32.1724578491,34.9141495686,2001
2001-12-26,2001-12-26,"המעלות 1, כפר סבא",המעלות 1,6429-261-2,,7.0,קרקע + ראשונה,152.9,1311000,,,1999.0,,4.0,7549375438,1,6429261,False,,כפר סבא,המעלות,,6429-261-2,6429/261,8574.231523871811,32.1794641445,34.894854325,2001
2001-12-26,2001-12-26,"התותחנים 6, כפר סבא",התותחנים 6,6435-190-4,,4.0,שניה,91.57,765000,,,1993.0,,6.0,7548037740,1,6435190,False,,כפר סבא,התותחנים,,6435-190-4,6435/190,8354.26449710604,32.1739423985,34.9208841807,2001
2001-12-26,2001-12-26,"הראשונים 21, כפר סבא",הראשונים 21,6435-254-4,,,ראשונה,79.0,752000,,,2001.0,,7.0,7548238058,1,6435254,False,,כפר סבא,הראשונים,,6435-254-4,6435/254,9518.987341772152,32.1698472408,34.9212972269,2001
2001-12-25,2001-12-25,"הגליל 14, כפר סבא",הגליל 14,6435-126-12,דירה בבית קומות,3.0,ראשונה+קרקע,79.16,823000,,,2002.0,,5.0,7548639212,1,6435126,False,,כפר סבא,הגליל,,6435-126-12,6435/126,10396.6649823143,32.1747587326,34.9175208595,2001
2001-12-24,2001-12-24,"אמבר 9, כפר סבא",אמבר 9,6426-459-3,,5.0,שניה,118.17,888000,,,1980.0,,6.0,7548919968,1,6426459,False,,כפר סבא,אימבר,,6426-459-3,6426/459,7514.597613607514,32.1730693535,34.9026873186,2001
2001-12-24,2001-12-24,"הר רותם 2, כפר סבא",הר רותם 2,6434-366-1,,6.0,,170.0,897000,,,2001.0,,,7548256336,1,6434366,False,,כפר סבא,הר רותם,,6434-366-1,6434/366,5276.470588235294,32.1783338272,34.9221044003,2001
2001-12-23,2001-12-23,"התפוז 8, כפר סבא",התפוז 8,6437-114-21,,3.0,שלישית,64.67,497000,,,1970.0,,4.0,7484735624,1,6437114,False,,כפר סבא,התפוז,,6437-114-21,6437/114,7685.170867481057,32.1730221732,34.9144854095,2001
2001-12-20,2001-12-20,"הגליל 14, כפר סבא",הגליל 14,6435-126-16,דירה בבית קומות,3.0,שלישית+קרקע,79.22,811000,,,2002.0,,5.0,7548639804,1,6435126,False,,כפר סבא,הגליל,,6435-126-16,6435/126,10237.313809644029,32.1747587326,34.9175208595,2001
2001-12-18,2001-12-18,"אברהם קרן 14, כפר סבא",אברהם קרן 14,6439-411-10,,4.0,חמישית,102.73,754000,,,1978.0,,8.0,7548923002,1,6439411,False,,כפר סבא,קרן אברהם,,6439-411-10,6439/411,7339.628151465005,32.1711035334,34.9121215196,2001
2001-12-17,2001-12-17,"סירקין 25, כפר סבא",סירקין 25,6430-146-18,,3.0,שניה,81.46,956000,,,1999.0,,5.0,7484754568,1,6430146,False,,כפר סבא,סירקין,,6430-146-18,6430/146,11735.821261969066,32.1857646916,34.9009274079,2001
2001-12-16,2001-12-16,"רוטשילד 26, כפר סבא",רוטשילד 26,6441-363-3,דירה בבית קומות,5.0,שניה,105.1,995000,,,2001.0,,4.0,7548218522,1,6441363,False,,כפר סבא,רוטשילד,,6441-363-3,6441/363,9467.174119885824,32.1727744426,34.9080613896,2001
2001-12-14,2001-12-14,"אירוס 5, כפר סבא",אירוס 5,6427-475-8,,5.0,רביעית,103.92,826000,,,1970.0,,5.0,7548458948,1,6427475,False,,כפר סבא,אירוס,,6427-475-8,6427/475,7948.421862971516,32.1739132475,34.8950126595,2001
2001-12-13,2001-12-13,"רופין 22, כפר סבא",רופין 22,6437-51-1,משרד,1.0,,250.0,1000000,,,1946.0,,1.0,7549006696,1,643751,False,,כפר סבא,רופין,,6437-51-1,6437/51,4000.0,32.1701148427,34.9170557366,2001
2001-12-13,2001-12-13,"גלבוע 4, כפר סבא",גלבוע 4,6439-390-2,,5.0,קרקע + ראשונה,104.55,1095000,,,1992.0,,5.0,7484711426,1,6439390,False,,כפר סבא,גלבוע,,6439-390-2,6439/390,10473.457675753229,32.1724713591,34.9112000468,2001
2001-12-12,2001-12-12,"הידידות 2, כפר סבא",הידידות 2,6435-274-6,דירה בבית קומות,4.0,ק. תחתונה+ראשונה,80.5,764000,,,2002.0,,4.0,7484677090,1,6435274,False,,כפר סבא,הידידות,,6435-274-6,6435/274,9490.683229813663,32.1703519267,34.9194842794,2001
2001-12-09,2001-09-12,"עמק דותן 2, כפר סבא",עמק דותן 2,7618-226-31,דירה בבית קומות,3.0,שלישית,73.27,563000,,,2001.0,,4.0,7482106774,1,7618226,False,,כפר סבא,עמק דותן,,7618-226-31,7618/226,7683.908830353487,32.1807908353,34.931717923,2001
2001-12-09,2001-09-12,"עמק דותן 2, כפר סבא",עמק דותן 2,7618-226-30,דירה בבית קומות,3.0,שניה,73.07,571000,,,2001.0,,4.0,7482368068,1,7618226,False,,כפר סבא,עמק דותן,,7618-226-30,7618/226,7814.424524428631,32.1807908353,34.931717923,2001
2001-12-09,2001-09-12,"עמק חפר 1, כפר סבא",עמק חפר 1,7618-226-4,דירה בבית קומות,3.0,שניה,71.95,583000,,,2001.0,,5.0,7482105072,1,7618226,False,,כפר סבא,עמק חפר,,7618-226-4,7618/226,8102.849200833912,32.1807908353,34.931717923,2001
2001-12-09,2001-09-12,"קדומים 2, כפר סבא",קדומים 2,7618-293-4,דירה בבית קומות,3.0,ראשונה,78.67,594000,,,2001.0,,5.0,7482103740,1,7618293,False,,כפר סבא,קדומים,,7618-293-4,7618/293,7550.527520020338,32.1820617379,34.9314910988,2001
2001-12-09,2001-09-12,"הידידות 2, כפר סבא",הידידות 2,6435-274-2,דירה בבית קומות,4.0,ק. תחתונה+קרקע,97.8,976000,,,2002.0,,4.0,7482289998,1,6435274,False,,כפר סבא,הידידות,,6435-274-2,6435/274,9979.550102249488,32.1703519267,34.9194842794,2001
2001-12-08,2001-08-12,"התחייה 5, כפר סבא",התחייה 5,6441-350-5,,4.0,מרתף+שניה,102.19,1017000,,,1999.0,,,7481700810,1,6441350,False,,כפר סבא,התחיה,,6441-350-5,6441/350,9952.05010274978,32.1754839147,34.9045937456,2001
2001-12-07,2001-07-12,"הבנים 16, כפר סבא",הבנים 16,6439-196-15,,3.0,שניה,57.53,577000,,,1970.0,,3.0,7480431784,1,6439196,False,,כפר סבא,הבנים,,6439-196-15,6439/196,10029.549800104292,32.1737791311,34.9113219597,2001
2001-12-03,2001-03-12,"משה שרת 16, כפר סבא",משה שרת 16,6439-212-12,,2.0,שלישית,50.5,646000,,,1970.0,,9.0,7476566024,1,6439212,False,,כפר סבא,שרת משה,,6439-212-12,6439/212,12792.079207920791,32.1733765126,34.9098884318,2001
2001-12-02,2001-02-12,"קפלנסקי 1, כפר סבא",קפלנסקי 1,7620-188-38,דירה בבית קומות,3.0,שלישית,75.0,610000,,,2001.0,,4.0,7475951750,1,7620188,False,,כפר סבא,קפלנסקי,,7620-188-38,7620/188,8133.333333333333,32.1897313921,34.9040751416,2001
2001-12-02,2001-02-12,"העבודה 3, כפר סבא",העבודה 3,6440-258-2,דירה בבית קומות,4.0,קרקע,106.5,1111000,,,1999.0,,4.0,7475595884,1,6440258,False,,כפר סבא,העבודה,,6440-258-2,6440/258,10431.924882629108,32.1788133346,34.907719307,2001
2001-11-30,2001-11-30,"החרמון 8, כפר סבא",החרמון 8,6426-718-6,,4.0,שלישית,104.0,910000,,,1995.0,,8.0,7484356078,1,6426718,False,,כפר סבא,החרמון,,6426-718-6,6426/718,8750.0,32.1758579006,34.9015472946,2001
2001-11-30,2001-11-30,"אירוס 12, כפר סבא",אירוס 12,6427-494-15,,6.0,חמישית,134.43,1113000,,,1980.0,,5.0,7484173446,1,6427494,False,0% ב 0.5 שנים,כפר סבא,אירוס,0.0,6427-494-15,6427/494,8279.40191921446,32.1731993874,34.8959114,2001
2001-11-29,2001-11-29,"בן-גוריון 14, כפר סבא",בן-גוריון 14,6426-850-14,,5.0,שלישית,95.45,887000,,,1989.0,,4.0,7484392560,1,6426850,False,,כפר סבא,בן גוריון,,6426-850-14,6426/850,9292.82346778418,32.1731590352,34.9035543678,2001
2001-11-29,2001-11-29,"העמק 7, כפר סבא",העמק 7,6437-75-11,,3.0,שלישית,68.4,581000,,,1970.0,,4.0,7484474478,1,643775,False,,כפר סבא,העמק,,6437-75-11,6437/75,8494.152046783625,32.1718545209,34.914621906,2001
2001-11-29,2001-11-29,"תל חי 37, כפר סבא",תל חי 37,6438-62-16,,3.0,רביעית,64.74,589000,,,1970.0,,7.0,7484348752,1,643862,False,,כפר סבא,תל חי,,6438-62-16,6438/62,9097.930182267532,32.1746312929,34.9139834635,2001
2001-11-28,2001-11-28,"נחשון 7, כפר סבא",נחשון 7,6441-248-11,,4.0,שלישית,97.41,864000,,,1975.0,,5.0,7484347420,1,6441248,False,,כפר סבא,נחשון,,6441-248-11,6441/248,8869.725900831538,32.174910549,34.9062036446,2001
2001-11-23,2001-11-23,"יבנה 20, כפר סבא",יבנה 20,6433-514-16,,3.0,רביעית,50.5,448000,,,1960.0,,4.0,7548023088,1,6433514,False,,כפר סבא,יבנה,,6433-514-16,6433/514,8871.287128712871,32.1805308875,34.9153855751,2001
2001-11-23,2001-11-23,"חומה ומגדל 2, כפר סבא",חומה ומגדל 2,6435-182-10,,4.0,שניה,87.89,718000,,,1988.0,,6.0,7548023680,1,6435182,False,,כפר סבא,חומה ומגדל,,6435-182-10,6435/182,8169.302537262487,32.1718582777,34.9182197657,2001
2001-11-22,2001-11-22,"מאפו 8, כפר סבא",מאפו 8,6428-427-23,,4.0,שישית,78.63,676000,,,1975.0,,8.0,7484106180,1,6428427,False,,כפר סבא,מאפו,,6428-427-23,6428/427,8597.227521302302,32.1811868113,34.8986702319,2001
2001-11-21,2001-11-21,"הכלנית 4, כפר סבא",הכלנית 4,6427-527-16,,4.0,שלישית,94.5,764000,,,1983.0,,4.0,7483934130,1,6427527,False,,כפר סבא,הכלנית,,6427-527-16,6427/527,8084.656084656084,32.1755850842,34.8944760914,2001
2001-11-21,2001-11-21,"הסובלנות 1, כפר סבא",הסובלנות 1,6435-279-24,דירה בבית קומות,4.0,קרקע תחתונה + שלישית,102.4,793000,,,2002.0,,5.0,7484080576,1,6435279,False,,כפר סבא,הסובלנות,,6435-279-24,6435/279,7744.140625,32.1701973196,34.9201811885,2001
2001-11-19,2001-11-19,"חצרות הדר 21, כפר סבא",חצרות הדר 21,6428-100-2,,2.0,קרקע,44.9,579000,,,1950.0,,1.0,7484098854,1,6428100,False,,כפר סבא,חצרות הדר,,6428-100-2,6428/100,12895.32293986637,32.1804908248,34.9009654831,2001
2001-11-19,2001-11-19,"זאב גולד 22, כפר סבא",זאב גולד 22,6433-523-14,,3.0,רביעית,50.5,422000,,,1960.0,,4.0,7484095820,1,6433523,False,,כפר סבא,גולד זאב,,6433-523-14,6433/523,8356.435643564357,32.1798041812,34.9152937373,2001
2001-11-18,2001-11-18,"ויצמן 66, כפר סבא",ויצמן 66,6426-320-10,,3.0,ג,65.0,648000,,,1965.0,,5.0,7484199716,1,6426320,False,4% ב 2.4 שנים,כפר סבא,ויצמן,1.67,6426-320-10,6426/320,9969.23076923077,32.1761576645,34.903740895,2001
2001-11-18,2001-11-18,"טשרניחובסקי 24, כפר סבא",טשרניחובסקי 24,6427-546-1,,,קרקע+ביניים,134.5,800000,,,1990.0,,6.0,7484625808,1,6427546,False,,כפר סבא,טשרניחובסקי,,6427-546-1,6427/546,5947.955390334572,32.1771182814,34.8939186816,2001
2001-11-15,2001-11-15,"ויצמן 192, כפר סבא",ויצמן 192,6435-124-8,,3.5,ראשונה,66.4,436000,,,1965.0,,3.0,7483816248,1,6435124,False,,כפר סבא,ויצמן,,6435-124-8,6435/124,6566.265060240963,32.1722532934,34.9204186696,2001
2001-11-14,2001-11-14,"הרצפלד אברהם 2, כפר סבא",הרצפלד אברהם 2,6431-307-5,,3.0,שניה,73.4,605000,,,1970.0,,4.0,7483851620,1,6431307,True,-6% ב 3 שנים,כפר סבא,הרצפלד אברהם,-2.0,6431-307-5,6431/307,8242.5068119891,32.1848893098,34.9037206711,2001
2001-11-13,2001-11-13,"קדושי קהיר 14, כפר סבא",קדושי קהיר 14,6430-191-43,דירה בבית קומות,4.0,קרקע+ראשונה,100.68,1067000,,,2001.0,,4.0,7483762672,1,6430191,False,,כפר סבא,קדושי קהיר,,6430-191-43,6430/191,10597.9340484704,32.1869685222,34.8989201087,2001
2001-11-12,2001-12-11,"גיסות השריון 3, כפר סבא",גיסות השריון 3,6435-80-16,,3.0,רביעית,53.4,350000,,,1970.0,,4.0,7484573934,1,643580,False,,כפר סבא,גיסות השריון,,6435-80-16,6435/80,6554.307116104869,32.1727829301,34.9209145821,2001
2001-11-11,2001-11-11,"הרצל 56, כפר סבא",הרצל 56,6438-269-10,,4.0,שלישית,96.0,793000,,,1983.0,,7.0,7483842518,1,6438269,False,,כפר סבא,הרצל,,6438-269-10,6438/269,8260.416666666666,32.1759643145,34.9120120299,2001
2001-11-11,2001-11-11,"הר רותם 18, כפר סבא",הר רותם 18,6434-488-2,,5.0,,125.0,1735000,,,1980.0,,1.0,7484061040,1,6434488,False,,כפר סבא,הר רותם,,6434-488-2,6434/488,13880.0,32.1790327629,34.9223274316,2001
2001-11-10,2001-10-11,"אז""ר 125, כפר סבא","אז""ר 125",6434-286-1,,5.0,,203.0,1644000,,,2000.0,,1.0,7483442622,1,6434286,False,,כפר סבא,"אז""ר",,6434-286-1,6434/286,8098.522167487685,32.1813620107,34.9216634809,2001
2001-11-09,2001-09-11,"עמק איילון 2, כפר סבא",עמק איילון 2,7618-291-14,דירה בבית קומות,3.0,שניה,71.79,570000,,,2001.0,,4.0,7482098930,1,7618291,False,,כפר סבא,עמק אילון,,7618-291-14,7618/291,7939.824488090263,32.1789850131,34.9316148398,2001
2001-11-09,2001-09-11,"עמק חורון 8, כפר סבא",עמק חורון 8,7618-290-5,דירה בבית קומות,3.0,שניה,71.79,570000,,,2001.0,,4.0,7482101372,1,7618290,False,,כפר סבא,עמק חורון,,7618-290-5,7618/290,7939.824488090263,32.1784909575,34.931648023,2001
2001-11-09,2001-09-11,"עמק דותן 2, כפר סבא",עמק דותן 2,7618-226-29,דירה בבית קומות,3.0,שניה,78.67,602000,,,2001.0,,4.0,7482108698,1,7618226,False,,כפר סבא,עמק דותן,,7618-226-29,7618/226,7652.218126350578,32.1807908353,34.931717923,2001
2001-11-09,2001-09-11,"המוביל 18, כפר סבא",המוביל 18,7618-226-18,דירה בבית קומות,3.0,שלישית,71.95,575000,,,2001.0,,6.0,7482108106,1,7618226,False,,כפר סבא,המוביל,,7618-226-18,7618/226,7991.66087560806,32.1807908353,34.931717923,2001
2001-11-07,2001-07-11,"הרעות 10, כפר סבא",הרעות 10,6435-241-9,דירה בבית קומות,6.0,שלישית+רביעית,177.0,1224000,,,2001.0,,1.0,7480523174,1,6435241,False,,כפר סבא,הרעות,,6435-241-9,6435/241,6915.254237288135,32.1692284063,34.9230813895,2001
2001-11-07,2001-07-11,"המייסדים 18, כפר סבא",המייסדים 18,6438-192-10,,4.0,שלישית,95.91,817000,,,1980.0,,5.0,7480516440,1,6438192,False,,כפר סבא,המיסדים,,6438-192-10,6438/192,8518.402669169012,32.1760717513,34.9104879677,2001
2001-11-06,2001-06-11,"הרצל 8, כפר סבא",הרצל 8,6439-470-3,,5.0,קרקע תחתונה+קרקע,119.5,1161000,,,2002.0,,5.0,7479322524,1,6439470,False,,כפר סבא,הרצל,,6439-470-3,6439/470,9715.481171548116,32.1706812121,34.9102833474,2001
2001-11-06,2001-06-11,"תל חי 40, כפר סבא",תל חי 40,6436-119-24,,,ראשונה,29.51,138000,,,1981.0,,3.0,7479399410,1,6436119,False,,כפר סבא,תל חי,,6436-119-24,6436/119,4676.380887834632,32.1752936466,34.914821851,2001
2001-11-06,2001-06-11,"שאול המלך 18, כפר סבא",שאול המלך 18,7601-75-4,,3.0,ראשונה,41.5,54000,,,1965.0,,2.0,7479114140,1,760175,False,,כפר סבא,שאול המלך,,7601-75-4,7601/75,1301.2048192771083,32.1847524774,34.9419500722,2001
2001-11-05,2001-05-11,"ביאליק 8, כפר סבא",ביאליק 8,6426-958-7,,6.0,רביעית+ ק. גג,186.8,1554000,,,2000.0,,5.0,7478763232,1,6426958,False,,כפר סבא,ביאליק,,6426-958-7,6426/958,8319.057815845825,32.1705268239,34.9084767437,2001
2001-11-04,2001-04-11,"הגר""א 3, כפר סבא","הגר""א 3",6426-985-9,דירה בבית קומות,7.0,חמישית ושישית,251.6,1708000,,,2001.0,,5.0,7477487176,1,6426985,False,,כפר סבא,"הגר""א",,6426-985-9,6426/985,6788.553259141495,32.1723941177,34.906835375,2001
2001-11-04,2001-04-11,"סוקולוב 13, כפר סבא",סוקולוב 13,6426-610-13,,4.0,ג,85.11,579000,,,1960.0,,4.0,7477328520,1,6426610,False,,כפר סבא,סוקולוב,,6426-610-13,6426/610,6802.960874162848,32.1750084956,34.9025355476,2001
2001-11-03,2001-03-11,"הר כרכום 14, כפר סבא",הר כרכום 14,6434-458-1,דירה בבית קומות,5.0,מרתף+קרקע+ראשונה,199.04,1546000,,,2001.0,,,7476963404,1,6434458,False,,כפר סבא,הר כרכום,,6434-458-1,6434/458,7767.282958199357,32.1811472613,34.9239084286,2001
2001-11-02,2001-02-11,"השמחה 8, כפר סבא",השמחה 8,6429-222-16,,4.0,+2+3 ק. תחתונה,112.17,905000,,,1998.0,,4.0,7475598992,1,6429222,False,,כפר סבא,שמחה הולצברג,,6429-222-16,6429/222,8068.110903093519,32.1842151469,34.8942284814,2001
2001-11-01,2001-01-11,"הגליל 6, כפר סבא",הגליל 6,6435-128-12,,5.0,רביעית,104.09,921000,,,1992.0,,5.0,7474431050,1,6435128,False,,כפר סבא,הגליל,,6435-128-12,6435/128,8848.11221058699,32.1741885263,34.9177881777,2001
2001-10-31,2001-10-31,"הסובלנות 1, כפר סבא",הסובלנות 1,6435-279-22,דירה בבית קומות,4.0,קרקע תחתונה + שניה,102.6,829000,,,2002.0,,5.0,7483539784,1,6435279,False,,כפר סבא,הסובלנות,,6435-279-22,6435/279,8079.922027290449,32.1701973196,34.9201811885,2001
2001-10-31,2001-10-31,"האלה 73, כפר סבא",האלה 73,6438-281-13,,5.0,רביעית,102.0,928000,,,1985.0,,5.0,7483522616,1,6438281,False,,כפר סבא,האלה,,6438-281-13,6438/281,9098.039215686274,32.1766281474,34.9109431736,2001
2001-10-31,2001-10-31,"ירושלים 6, כפר סבא",ירושלים 6,6441-179-12,,3.0,ג,56.44,616000,,,1963.0,,4.0,7483489686,1,6441179,False,,כפר סבא,ירושלים,,6441-179-12,6441/179,10914.245216158752,32.173469629,34.9054986849,2001
2001-10-31,2001-10-31,"לוי אשכול 51, כפר סבא",לוי אשכול 51,7602-143-14,,3.0,ד',49.6,351000,,,1960.0,,4.0,7483577006,1,7602143,True,-6% ב 2.2 שנים,כפר סבא,אשכול לוי,-2.73,7602-143-14,7602/143,7076.612903225806,32.1812415288,34.9411093465,2001
2001-10-30,2001-10-30,"הגליל 14, כפר סבא",הגליל 14,6435-126-20,דירה בבית קומות,3.0,חמישית+קרקע,79.15,788000,,,2002.0,,5.0,7483689412,1,6435126,False,,כפר סבא,הגליל,,6435-126-20,6435/126,9955.780164245103,32.1747587326,34.9175208595,2001
2001-10-28,2001-10-28,"ההסתדרות 15, כפר סבא",ההסתדרות 15,6427-613-21,,6.0,שישית+שביעית,161.0,2276000,,,1999.0,,6.0,7483573306,1,6427613,False,,כפר סבא,ההסתדרות,,6427-613-21,6427/613,14136.64596273292,32.1726896068,34.8944959547,2001
2001-10-26,2001-10-26,"ששת הימים 31, כפר סבא",ששת הימים 31,6426-590-3,,3.0,א,52.0,592000,,,1967.0,,2.0,7484519544,1,6426590,False,,כפר סבא,ששת הימים,,6426-590-3,6426/590,11384.615384615385,32.1752553151,34.8974280548,2001
2001-10-25,2001-10-25,"לוי אשכול 51, כפר סבא",לוי אשכול 51,7602-143-12,,3.0,ד',49.6,334000,,,1960.0,,4.0,7484103886,1,7602143,False,,כפר סבא,אשכול לוי,,7602-143-12,7602/143,6733.870967741936,32.1812415288,34.9411093465,2001
2001-10-25,2001-10-25,"המעפילים 16, כפר סבא",המעפילים 16,6428-448-18,,4.0,חמישית,94.0,663000,,,1982.0,,6.0,7483485986,1,6428448,False,,כפר סבא,המעפילים,,6428-448-18,6428/448,7053.191489361702,32.1800741221,34.9007883884,2001
2001-10-22,2001-10-22,"יציאת אירופה 32, כפר סבא",יציאת אירופה 32,6435-210-2,,5.0,ראשונה,105.4,884000,,,1999.0,,7.0,7483666694,1,6435210,False,,כפר סבא,יציאת אירופה,,6435-210-2,6435/210,8387.096774193547,32.1713141656,34.9205295058,2001
2001-10-22,2001-10-22,"הרעות 17, כפר סבא",הרעות 17,6435-242-14,,4.0,ק. תחתונה+שניה,97.2,850000,,,1999.0,,4.0,7483504930,1,6435242,False,,כפר סבא,הרעות,,6435-242-14,6435/242,8744.855967078189,32.169973235,34.9224583329,2001
2001-10-18,2001-10-18,"רוטשילד 21, כפר סבא",רוטשילד 21,6426-876-4,,5.0,שניה,103.0,1091000,,,1994.0,,4.0,7483801078,1,6426876,False,,כפר סבא,רוטשילד,,6426-876-4,6426/876,10592.233009708738,32.172124574,34.9072442616,2001
2001-10-18,2001-10-18,"שח""ל 1, כפר סבא","שח""ל 1",6433-90-1,,6.0,,150.0,1350000,,,1975.0,,,7484056230,1,643390,False,,כפר סבא,"שח""ל",,6433-90-1,6433/90,9000.0,32.1793315213,34.9127137536,2001
2001-10-18,2001-10-18,"מורדי הגטאות 22, כפר סבא",מורדי הגטאות 22,6427-340-1,,3.0,,75.0,1096000,,,1951.0,,,7483020822,1,6427340,False,,כפר סבא,מורדי הגטאות,,6427-340-1,6427/340,14613.333333333334,32.179275441,34.8914180359,2001
2001-10-18,2001-10-18,"עמק חפר 5, כפר סבא",עמק חפר 5,7618-224-2,,,קרקע,91.9,929000,,,2001.0,,,7483258140,1,7618224,False,,כפר סבא,עמק חפר,,7618-224-2,7618/224,10108.813928182806,32.1805291878,34.9326292173,2001
2001-10-16,2001-10-16,"תל חי 99, כפר סבא",תל חי 99,6432-90-25,,5.0,שלישית ורביעית,117.88,1126000,,,1998.0,,5.0,7484589178,1,643290,False,,כפר סבא,תל חי,,6432-90-25,6432/90,9552.086868001355,32.1831044951,34.9163637537,2001
2001-10-14,2001-10-14,"מבצע יונתן 11, כפר סבא",מבצע יונתן 11,6433-579-2,,3.0,ראשונה,83.9,747000,,,1994.0,,5.0,7482974942,1,6433579,False,,כפר סבא,מבצע יונתן,,6433-579-2,6433/579,8903.456495828366,32.179469553,34.9178117888,2001
2001-10-12,2001-12-10,"ויצמן 24, כפר סבא",ויצמן 24,6426-994-22,,,ראשונה,49.75,413000,,,1990.0,,3.0,7484790014,1,6426994,False,,כפר סבא,ויצמן,,6426-994-22,6426/994,8301.507537688442,32.1771923468,34.8990054205,2001
2001-10-10,2001-10-10,"קדומים 2, כפר סבא",קדומים 2,7618-293-14,דירה בבית קומות,3.0,רביעית,78.04,741000,,,2001.0,,5.0,7482786982,1,7618293,False,,כפר סבא,קדומים,,7618-293-14,7618/293,9495.130702203996,32.1820617379,34.9314910988,2001
2001-10-10,2001-10-10,"ניצנים 10, כפר סבא",ניצנים 10,6428-381-1,,5.0,,126.0,2747000,,,1950.0,,,7482845590,1,6428381,False,,כפר סבא,ניצנים,,6428-381-1,6428/381,21801.5873015873,32.1811769328,34.9024675309,2001
2001-10-10,2001-10-10,"ויצמן 94, כפר סבא",ויצמן 94,6441-80-35,,4.0,ג,63.0,556000,,,1970.0,,3.0,7483144772,1,644180,False,,כפר סבא,ויצמן,,6441-80-35,6441/80,8825.396825396825,32.1753939224,34.90692365,2001
2001-10-10,2001-10-10,"הכרמל 68, כפר סבא",הכרמל 68,6438-226-9,,6.0,חמישית,128.77,1017000,,,1982.0,,6.0,7482728300,1,6438226,False,,כפר סבא,הכרמל,,6438-226-9,6438/226,7897.802283140482,32.1767519126,34.9139918141,2001
2001-10-08,2001-08-10,"ויצמן 132, כפר סבא",ויצמן 132,6439-333-25,משרד,,ראשונה,30.34,106000,,,1990.0,,4.0,7482197202,1,6439333,False,,כפר סבא,ויצמן,,6439-333-25,6439/333,3493.737640079104,32.1745578794,34.910496318,2001
2001-10-08,2001-08-10,"הכרמל 85, כפר סבא",הכרמל 85,6433-551-16,,3.0,רביעית,61.38,520000,,,1972.0,,4.0,7480930544,1,6433551,False,,כפר סבא,הכרמל,,6433-551-16,6433/551,8471.814923427826,32.1766026512,34.916520368,2001
2001-10-08,2001-08-10,"מורן 7, כפר סבא",מורן 7,6430-193-18,,4.0,ראשונה,98.0,1005000,,,1993.0,,3.0,7481341392,1,6430193,False,,כפר סבא,מורן,,6430-193-18,6430/193,10255.102040816326,32.1864284379,34.8993480635,2001
2001-10-06,2001-06-10,"העמק 29, כפר סבא",העמק 29,6436-157-6,,5.0,שניה,109.0,785000,,,1983.0,,6.0,7480954446,1,6436157,False,,כפר סבא,העמק,,6436-157-6,6436/157,7201.834862385321,32.1752077385,34.9156520181,2001
2001-10-06,2001-06-10,"הדרור 4, כפר סבא",הדרור 4,6426-648-8,,5.0,שניה,132.0,998000,,,1980.0,,7.0,7479389642,1,6426648,False,,כפר סבא,הדרור,,6426-648-8,6426/648,7560.606060606061,32.1742068086,34.9002882864,2001
2001-10-06,2001-06-10,"הפורצים 1, כפר סבא",הפורצים 1,6427-311-1,,4.0,,100.0,1036000,,,1950.0,,1.0,7479265618,1,6427311,False,,כפר סבא,הפורצים,,6427-311-1,6427/311,10360.0,32.1792231782,34.89266622,2001
2001-10-06,2001-06-10,"הגליל 47, כפר סבא",הגליל 47,6433-601-34,,4.0,ראשונה,97.0,746000,,,1983.0,,8.0,7479429898,1,6433601,False,,כפר סבא,הגליל,,6433-601-34,6433/601,7690.721649484536,32.1793646735,34.9182798624,2001
2001-10-01,2001-01-10,"נורית 3, כפר סבא",נורית 3,6428-593-6,,6.0,קרקע+ראשונה,135.49,1089000,,,1997.0,,2.0,7474875494,1,6428593,False,,כפר סבא,נורית,,6428-593-6,6428/593,8037.493541958815,32.1833063214,34.9005333534,2001
2001-09-30,2001-09-30,"עמק חורון 8, כפר סבא",עמק חורון 8,7618-290-6,דירה בבית קומות,3.0,שלישית,71.79,569000,,,2001.0,,4.0,7482678794,1,7618290,False,,כפר סבא,עמק חורון,,7618-290-6,7618/290,7925.89497144449,32.1784909575,34.931648023,2001
2001-09-25,2001-09-25,"המוביל 12, כפר סבא",המוביל 12,7618-291-5,דירה בבית קומות,3.0,שניה,71.79,570000,,,2001.0,,4.0,7482677610,1,7618291,False,,כפר סבא,המוביל,,7618-291-5,7618/291,7939.824488090263,32.1789850131,34.9316148398,2001
2001-09-24,2001-09-24,"הראשונים 7, כפר סבא",הראשונים 7,6435-238-11,,4.0,ק. תחתונה+קרקע,92.21,959000,,,1999.0,,4.0,7482434742,1,6435238,False,,כפר סבא,הראשונים,,6435-238-11,6435/238,10400.173516972129,32.1709627481,34.9217491952,2001
2001-09-24,2001-09-24,"קדומים 2, כפר סבא",קדומים 2,7618-293-9,דירה בבית קומות,3.0,שלישית,73.27,563000,,,2001.0,,5.0,7482565944,1,7618293,False,,כפר סבא,קדומים,,7618-293-9,7618/293,7683.908830353487,32.1820617379,34.9314910988,2001
2001-09-24,2001-09-24,"האחדות 4, כפר סבא",האחדות 4,7620-250-15,,3.0,שלישית,42.0,429000,,,1965.0,,3.0,7482688636,1,7620250,False,,כפר סבא,האחדות,,7620-250-15,7620/250,10214.285714285714,32.190105066,34.9007785702,2001
2001-09-24,2001-09-24,"עמק איילון 1, כפר סבא",עמק איילון 1,7618-292-8,דירה בבית קומות,3.0,רביעית,76.18,731000,,,2001.0,,4.0,7482586072,1,7618292,False,,כפר סבא,עמק אילון,,7618-292-8,7618/292,9595.694407981096,32.1796820387,34.9315736402,2001
2001-09-24,2001-09-24,"הכלנית 22, כפר סבא",הכלנית 22,6427-484-15,,4.0,רביעית,76.7,719000,,,1983.0,,6.0,7482545742,1,6427484,False,,כפר סבא,הכלנית,,6427-484-15,6427/484,9374.185136897,32.1738009521,34.8940169482,2001
2001-09-23,2001-09-23,"תל חי 40, כפר סבא",תל חי 40,6436-118-2,,4.0,ראשונה,102.1,162000,,,1980.0,,5.0,7483548886,1,6436118,False,,כפר סבא,תל חי,,6436-118-2,6436/118,1586.67972575906,32.175410474,34.9151831422,2001
2001-09-23,2001-09-23,"הכרמל 11, כפר סבא",הכרמל 11,6428-556-71,,5.0,מרתף+שלישית,125.3,1373000,,,1995.0,,8.0,7482507410,1,6428556,False,,כפר סבא,הכרמל,,6428-556-71,6428/556,10957.701516360734,32.1793999061,34.9051380213,2001
2001-09-23,2001-09-23,"קדושי בלזן 1, כפר סבא",קדושי בלזן 1,6434-617-19,,6.0,שלישית+רביעית+קומה תחתונה,165.89,1190000,,,2002.0,,2.0,7482437702,1,6434617,False,,כפר סבא,קדושי בלזן,,6434-617-19,6434/617,7173.428175296884,32.1807883823,34.9194192466,2001
2001-09-23,2001-09-23,"קדושי בלזן 1, כפר סבא",קדושי בלזן 1,6434-617-14,,4.0,ראשונה+קרקע תחתונה,86.5,776000,,,2002.0,,2.0,7482431708,1,6434617,False,,כפר סבא,קדושי בלזן,,6434-617-14,6434/617,8971.098265895953,32.1807883823,34.9194192466,2001
2001-09-23,2001-09-23,"ויצמן 132, כפר סבא",ויצמן 132,6439-333-35,,4.0,שלישית,92.87,680000,,,1990.0,,4.0,7483315712,1,6439333,False,,כפר סבא,ויצמן,,6439-333-35,6439/333,7322.063098955529,32.1745578794,34.910496318,2001
2001-09-21,2001-09-21,"גאולה 32, כפר סבא",גאולה 32,6426-669-13,,5.0,רביעית,119.3,1016000,,,1987.0,,6.0,7482545150,1,6426669,False,,כפר סבא,גאולה,,6426-669-13,6426/669,8516.345347862532,32.1734261854,34.8986019457,2001
2001-09-21,2001-09-21,"גורדון 3, כפר סבא",גורדון 3,6426-207-20,,4.0,ג,96.68,665000,,,1970.0,,4.0,7482537824,1,6426207,False,,כפר סבא,גורדון,,6426-207-20,6426/207,6878.3616052958205,32.177027683,34.8995065682,2001
2001-09-20,2001-09-20,"שועלי שמשון 7, כפר סבא",שועלי שמשון 7,6435-213-22,,5.0,שלישית,118.95,1019000,,,1995.0,,5.0,7482400480,1,6435213,False,,כפר סבא,שועלי שמשון,,6435-213-22,6435/213,8566.624632198402,32.170806387,34.9205702719,2001
2001-09-16,2001-09-16,"הידידות 2, כפר סבא",הידידות 2,6435-274-15,דירה בבית קומות,4.0,ק. תחתונה+קרקע,96.7,971000,,,2002.0,,4.0,7482282080,1,6435274,False,,כפר סבא,הידידות,,6435-274-15,6435/274,10041.365046535677,32.1703519267,34.9194842794,2001
2001-09-16,2001-09-16,"עמק איילון 2, כפר סבא",עמק איילון 2,7618-291-13,דירה בבית קומות,3.0,שניה,71.79,570000,,,2001.0,,4.0,7482374802,1,7618291,False,,כפר סבא,עמק אילון,,7618-291-13,7618/291,7939.824488090263,32.1789850131,34.9316148398,2001
2001-09-16,2001-09-16,"המוביל 18, כפר סבא",המוביל 18,7618-226-20,דירה בבית קומות,3.0,רביעית,71.95,575000,,,2001.0,,6.0,7482359706,1,7618226,False,,כפר סבא,המוביל,,7618-226-20,7618/226,7991.66087560806,32.1807908353,34.931717923,2001
2001-09-13,2001-09-13,"הרצל 77, כפר סבא",הרצל 77,6438-276-29,,4.0,רביעית,105.28,845000,,,1980.0,,6.0,7482554992,1,6438276,False,,כפר סבא,הרצל,,6438-276-29,6438/276,8026.215805471124,32.1771306157,34.9114242017,2001
2001-09-13,2001-09-13,"רוטשילד 65, כפר סבא",רוטשילד 65,6440-169-16,,4.0,רביעית,105.5,736000,,,1981.0,,7.0,7482608050,1,6440169,False,,כפר סבא,רוטשילד,,6440-169-16,6440/169,6976.303317535545,32.1768035522,34.9085987467,2001
2001-09-13,2001-09-13,"אז""ר 185, כפר סבא","אז""ר 185",6434-455-1,דירה בבית קומות,6.0,קרקע + ראשונה,161.38,1625000,,,2001.0,,,7482926768,1,6434455,False,,כפר סבא,"אז""ר",,6434-455-1,6434/455,10069.401412814475,32.1809269294,34.9235358531,2001
2001-09-13,2001-09-13,"המפלס 8, כפר סבא",המפלס 8,6433-559-13,,4.0,רביעית,71.96,693000,,,1970.0,,8.0,7482230798,1,6433559,False,,כפר סבא,המפלס,,6433-559-13,6433/559,9630.35019455253,32.1772808974,34.9161275436,2001
2001-09-13,2001-09-13,"הכרמל 85, כפר סבא",הכרמל 85,6433-551-2,,3.0,ראשונה,61.38,606000,,,1979.0,,4.0,7482223472,1,6433551,False,,כפר סבא,הכרמל,,6433-551-2,6433/551,9872.922776148582,32.1766026512,34.916520368,2001
2001-09-12,2001-12-09,"גאולה 9, כפר סבא",גאולה 9,6426-721-11,,4.0,רביעית,96.22,1056000,,,1996.0,,7.0,7484662438,1,6426721,False,,כפר סבא,גאולה,,6426-721-11,6426/721,10974.84930367907,32.1758974227,34.9004536635,2001
2001-09-12,2001-12-09,"סוקולוב 10, כפר סבא",סוקולוב 10,6426-357-6,,4.0,א,91.0,685000,,,1960.0,,3.0,7548394938,1,6426357,False,,כפר סבא,סוקולוב,,6426-357-6,6426/357,7527.472527472528,32.1753052551,34.9020277815,2001
2001-09-11,2001-11-09,"יציאת אירופה 32, כפר סבא",יציאת אירופה 32,6435-210-23,,5.0,שישית,105.4,871000,,,1999.0,,7.0,7483764374,1,6435210,False,,כפר סבא,יציאת אירופה,,6435-210-23,6435/210,8263.757115749526,32.1713141656,34.9205295058,2001
2001-09-10,2001-10-09,"עמק איילון 1, כפר סבא",עמק איילון 1,7618-292-9,דירה בבית קומות,3.0,רביעית,76.18,731000,,,2001.0,,4.0,7482682494,1,7618292,False,,כפר סבא,עמק אילון,,7618-292-9,7618/292,9595.694407981096,32.1796820387,34.9315736402,2001
2001-09-09,2001-09-09,"הרצל 8, כפר סבא",הרצל 8,6439-470-15,,5.0,קרקע תחתונה+שלישית,119.0,987000,,,2002.0,,5.0,7482242934,1,6439470,False,,כפר סבא,הרצל,,6439-470-15,6439/470,8294.117647058823,32.1706812121,34.9102833474,2001
2001-09-08,2001-08-09,"ביל""ו 1, כפר סבא","ביל""ו 1",6441-107-14,,3.0,ג,71.26,698000,,,1970.0,,4.0,7481056788,1,6441107,False,,כפר סבא,"ביל""ו",,6441-107-14,6441/107,9795.11647488072,32.1740615861,34.9055856631,2001
2001-09-07,2001-07-09,"הר כנען 10, כפר סבא",הר כנען 10,6434-439-1,,,,125.0,1240000,,,2001.0,,,7480562320,1,6434439,False,,כפר סבא,הר כנען,,6434-439-1,6434/439,9920.0,32.1761425188,34.9224776858,2001
2001-09-05,2001-05-09,"שועלי שמשון 2, כפר סבא",שועלי שמשון 2,6435-148-8,,4.0,ראשונה,95.45,737000,,,1992.0,,4.0,7478757090,1,6435148,False,,כפר סבא,שועלי שמשון,,6435-148-8,6435/148,7721.320062860136,32.1708010885,34.9191053423,2001
2001-09-05,2001-05-09,"רוטשילד 26, כפר סבא",רוטשילד 26,6441-363-6,דירה בבית קומות,4.0,שלישית,88.38,862000,,,2001.0,,4.0,7478167310,1,6441363,False,,כפר סבא,רוטשילד,,6441-363-6,6441/363,9753.337859244171,32.1727744426,34.9080613896,2001
2001-09-05,2001-05-09,"הגליל 14, כפר סבא",הגליל 14,6435-126-2,דירה בבית קומות,5.0,ראשונה+קרקע,117.03,1139000,,,2002.0,,5.0,7478767524,1,6435126,False,,כפר סבא,הגליל,,6435-126-2,6435/126,9732.547210117064,32.1747587326,34.9175208595,2001
2001-09-04,2001-04-09,"האיקליפטוס 1, כפר סבא",האיקליפטוס 1,6433-700-5,,4.0,שלישית,95.6,795000,,,1996.0,,4.0,7478136822,1,6433700,False,,כפר סבא,האקליפטוס,,6433-700-5,6433/700,8315.899581589958,32.1805996332,34.916810226,2001
2001-09-03,2001-03-09,"יסמין 6, כפר סבא",יסמין 6,6427-653-10,דירה בבית קומות,6.0,חמישית+שישית,168.0,1567000,,,2003.0,,6.0,7476570316,1,6427653,False,,כפר סבא,יסמין,,6427-653-10,6427/653,9327.380952380952,32.1775802967,34.895178913,2001
2001-09-03,2001-03-09,"האהבה 28, כפר סבא",האהבה 28,6435-240-10,,,"5,4 + ק. תחתונה",153.32,1101000,,,2000.0,,5.0,7476726012,1,6435240,False,,כפר סבא,האהבה,,6435-240-10,6435/240,7181.059222541091,32.1713557184,34.9223336141,2001
2001-08-31,2001-08-31,"ששת הימים 51, כפר סבא",ששת הימים 51,6427-503-20,,5.0,ראשונה,126.0,952000,,,1986.0,,5.0,7481742472,1,6427503,False,,כפר סבא,ששת הימים,,6427-503-20,6427/503,7555.555555555556,32.1761301815,34.8937380133,2001
2001-08-31,2001-08-31,"התותחנים 6, כפר סבא",התותחנים 6,6435-190-26,,4.0,רביעית,91.57,768000,,,1993.0,,6.0,7481553698,1,6435190,False,,כפר סבא,התותחנים,,6435-190-26,6435/190,8387.026318663318,32.1739423985,34.9208841807,2001
2001-08-31,2001-08-31,"האהבה 26, כפר סבא",האהבה 26,6435-239-8,,,ק. תחתונה+שניה,121.2,980000,,,2000.0,,4.0,7481713020,1,6435239,False,,כפר סבא,האהבה,,6435-239-8,6435/239,8085.808580858085,32.1707796463,34.9224078423,2001
2001-08-30,2001-08-30,"הפורצים 2, כפר סבא",הפורצים 2,6427-310-2,,1.0,קרקע,40.2,1140000,,,1950.0,,,7482846182,1,6427310,False,,כפר סבא,הפורצים,,6427-310-2,6427/310,28358.20895522388,32.1790547233,34.8928819975,2001
2001-08-30,2001-08-30,"רוטשילד 57, כפר סבא",רוטשילד 57,6440-224-44,,,שלישית,28.61,248000,,,1994.0,,3.0,7482294808,1,6440224,False,,כפר סבא,רוטשילד,,6440-224-44,6440/224,8668.297797972737,32.1759654011,34.9083632553,2001
2001-08-30,2001-08-30,"הרצל 26, כפר סבא",הרצל 26,6439-237-15,,4.0,רביעית,97.35,733000,,,1982.0,,5.0,7481722788,1,6439237,False,,כפר סבא,הרצל,,6439-237-15,6439/237,7529.532614278378,32.172323503,34.910736249,2001
2001-08-30,2001-08-30,"גרץ 3, כפר סבא",גרץ 3,6434-128-2,,2.0,,40.92,848000,,,1958.0,,,7482236200,1,6434128,False,,כפר סבא,גרץ,,6434-128-2,6434/128,20723.36265884653,32.1784531448,34.9191398241,2001
2001-08-29,2001-08-29,"לוינסקי 8, כפר סבא",לוינסקי 8,6430-147-13,,3.0,שניה,72.58,808000,,,2002.0,,3.0,7482037214,1,6430147,False,,כפר סבא,לוינסקי,,6430-147-13,6430/147,11132.54340038578,32.1854691425,34.9005424822,2001
2001-08-29,2001-08-29,"קדומים 2, כפר סבא",קדומים 2,7618-293-2,דירה בבית קומות,3.0,קרקע,84.9,620000,,,2001.0,,5.0,7481976830,1,7618293,False,,כפר סבא,קדומים,,7618-293-2,7618/293,7302.709069493521,32.1820617379,34.9314910988,2001
2001-08-29,2001-08-29,"קדומים 2, כפר סבא",קדומים 2,7618-293-1,דירה בבית קומות,3.0,קרקע,78.67,650000,,,2001.0,,5.0,7481972612,1,7618293,False,,כפר סבא,קדומים,,7618-293-1,7618/293,8262.36176433202,32.1820617379,34.9314910988,2001
2001-08-29,2001-08-29,"המוביל 16, כפר סבא",המוביל 16,7618-292-10,דירה בבית קומות,4.0,קרקע,83.42,642000,,,2001.0,,4.0,7481982972,1,7618292,False,,כפר סבא,המוביל,,7618-292-10,7618/292,7695.996163989451,32.1796820387,34.9315736402,2001
2001-08-29,2001-08-29,"עמק דותן 2, כפר סבא",עמק דותן 2,7618-226-27,דירה בבית קומות,4.0,ראשונה,84.7,637000,,,2001.0,,4.0,7481980530,1,7618226,False,,כפר סבא,עמק דותן,,7618-226-27,7618/226,7520.661157024793,32.1807908353,34.931717923,2001
2001-08-28,2001-08-28,"עמק איילון 2, כפר סבא",עמק איילון 2,7618-291-12,דירה בבית קומות,4.0,ראשונה,83.42,629000,,,2001.0,,4.0,7481987856,1,7618291,False,,כפר סבא,עמק אילון,,7618-291-12,7618/291,7540.158235435148,32.1789850131,34.9316148398,2001
2001-08-28,2001-08-28,"קדומים 2, כפר סבא",קדומים 2,7618-293-3,דירה בבית קומות,4.0,ראשונה,84.9,636000,,,2001.0,,5.0,7481963954,1,7618293,False,,כפר סבא,קדומים,,7618-293-3,7618/293,7491.166077738515,32.1820617379,34.9314910988,2001
2001-08-28,2001-08-28,"המוביל 12, כפר סבא",המוביל 12,7618-291-2,דירה בבית קומות,4.0,ראשונה,83.42,620000,,,2001.0,,4.0,7481988374,1,7618291,False,,כפר סבא,המוביל,,7618-291-2,7618/291,7432.270438743706,32.1789850131,34.9316148398,2001
2001-08-28,2001-08-28,"טשרניחובסקי 131, כפר סבא",טשרניחובסקי 131,7620-274-11,,3.0,שלישית,53.0,470000,,,1980.0,,6.0,7482451170,1,7620274,False,,כפר סבא,טשרניחובסקי,,7620-274-11,7620/274,8867.924528301886,32.1876932036,34.9043943772,2001
2001-08-27,2001-08-27,"הראשונים 19, כפר סבא",הראשונים 19,6435-254-10,,4.0,ק. תחתונה+קרקע,96.2,926000,,,2001.0,,7.0,7481714870,1,6435254,False,,כפר סבא,הראשונים,,6435-254-10,6435/254,9625.779625779624,32.1698472408,34.9212972269,2001
2001-08-26,2001-08-26,"לוינסקי 8, כפר סבא",לוינסקי 8,6430-147-14,,5.0,שניה,108.53,1165000,,,2002.0,,3.0,7481717386,1,6430147,False,,כפר סבא,לוינסקי,,6430-147-14,6430/147,10734.359163364968,32.1854691425,34.9005424822,2001
2001-08-26,2001-08-26,"דקל 3, כפר סבא",דקל 3,6435-293-21,,4.0,שלישית,96.0,882000,,,1994.0,,5.0,7481719162,1,6435293,False,,כפר סבא,דקל,,6435-293-21,6435/293,9187.5,32.174718215,34.9178874959,2001
2001-08-26,2001-08-26,"המוביל 16, כפר סבא",המוביל 16,7618-292-12,דירה בבית קומות,4.0,ראשונה,83.42,629000,,,2001.0,,4.0,7482369992,1,7618292,False,,כפר סבא,המוביל,,7618-292-12,7618/292,7540.158235435148,32.1796820387,34.9315736402,2001
2001-08-23,2001-08-23,"טשרניחובסקי 24, כפר סבא",טשרניחובסקי 24,6427-546-66,,,רביעית,22.5,152000,,,1990.0,,6.0,7481819284,1,6427546,False,,כפר סבא,טשרניחובסקי,,6427-546-66,6427/546,6755.555555555556,32.1771182814,34.8939186816,2001
2001-08-23,2001-08-23,"קדושי קהיר 14, כפר סבא",קדושי קהיר 14,6430-191-27,דירה בבית קומות,5.0,קרקע+שלישית+רביעית,122.3,1071000,,,2001.0,,4.0,7481384756,1,6430191,False,,כפר סבא,קדושי קהיר,,6430-191-27,6430/191,8757.15453802126,32.1869685222,34.8989201087,2001
2001-08-21,2001-08-21,"הכרמל 5, כפר סבא",הכרמל 5,6428-551-0,,5.0,רביעית,125.0,1270000,,,1998.0,,10.0,7481471928,1,6428551,False,,כפר סבא,הכרמל,,6428-551-0,6428/551,10160.0,32.1792258377,34.9041052345,2001
2001-08-20,2001-08-20,"התע""ש 20, כפר סבא","התע""ש 20",7607-125-197,,,שניה,47.29,804000,,,1999.0,,5.0,7482565426,1,7607125,False,,כפר סבא,"התע""ש",,7607-125-197,7607/125,17001.480228378092,32.1759745495,34.9277395245,2001
2001-08-20,2001-08-20,"שאול המלך 7, כפר סבא",שאול המלך 7,7600-155-10,,,שניה,56.0,152000,,,1956.0,,4.0,7481648936,1,7600155,False,,כפר סבא,שאול המלך,,7600-155-10,7600/155,2714.285714285714,32.184293601,34.940326411,2001
2001-08-20,2001-08-20,"עמק חפר 1, כפר סבא",עמק חפר 1,7618-226-1,דירה בבית קומות,4.0,קרקע,83.64,672000,,,2001.0,,5.0,7481981640,1,7618226,False,,כפר סבא,עמק חפר,,7618-226-1,7618/226,8034.433285509325,32.1807908353,34.931717923,2001
2001-08-19,2001-08-19,"פינס 1, כפר סבא",פינס 1,6433-226-2,,5.0,קרקע,125.0,1522000,,,1954.0,,,7482233832,1,6433226,False,,כפר סבא,פינס,,6433-226-2,6433/226,12176.0,32.1814495285,34.9129669775,2001
2001-08-17,2001-08-17,"ויצמן 177, כפר סבא",ויצמן 177,6435-195-6,,4.0,ראשונה,91.09,761000,,,1993.0,,6.0,7481440182,1,6435195,False,,כפר סבא,ויצמן,,6435-195-6,6435/195,8354.374794159621,32.1729750099,34.919902075,2001
2001-08-17,2001-08-17,"העמק 12, כפר סבא",העמק 12,6437-149-8,,5.0,שלישית,102.16,944000,,,1988.0,,4.0,7481440700,1,6437149,False,,כפר סבא,העמק,,6437-149-8,6437/149,9240.407204385278,32.1722265561,34.9152863761,2001
2001-08-16,2001-08-16,"סוקולוב 9, כפר סבא",סוקולוב 9,6426-660-12,,4.0,שלישית,105.23,996000,,,1991.0,,7.0,7481160092,1,6426660,False,,כפר סבא,סוקולוב,,6426-660-12,6426/660,9464.981469162783,32.1753281722,34.9027308328,2001
2001-08-14,2001-08-14,"הידידות 2, כפר סבא",הידידות 2,6435-274-21,דירה בבית קומות,4.0,ק. תחתונה+שלישית,97.0,825000,,,2002.0,,4.0,7481265024,1,6435274,False,,כפר סבא,הידידות,,6435-274-21,6435/274,8505.154639175258,32.1703519267,34.9194842794,2001
2001-08-14,2001-08-14,"ויצמן 107, כפר סבא",ויצמן 107,6438-302-0,,,שניה,1069.0,519000,,,1998.0,,4.0,7481161276,1,6438302,False,,כפר סבא,ויצמן,,6438-302-0,6438/302,485.5004677268476,32.1754107002,34.9089415779,2001
2001-08-13,2001-08-13,"האגוז 6, כפר סבא",האגוז 6,6431-28-1,,5.0,,125.0,1866000,,,1989.0,,1.0,7482241158,1,643128,False,,כפר סבא,האגוז,,6431-28-1,6431/28,14928.0,32.1819578397,34.906076761,2001
2001-08-13,2001-08-13,"האחדות 6, כפר סבא",האחדות 6,7620-251-14,,3.0,שלישית,60.3,435000,,,1970.0,,4.0,7481357820,1,7620251,False,,כפר סבא,האחדות,,7620-251-14,7620/251,7213.930348258706,32.1898230816,34.9006049464,2001
2001-08-11,2001-11-08,"גיבורי ישראל 11, כפר סבא",גיבורי ישראל 11,6438-264-5,,5.0,שניה,124.6,892000,,,1986.0,,4.0,7483699032,1,6438264,False,,כפר סבא,גבורי ישראל,,6438-264-5,6438/264,7158.908507223115,32.1769819141,34.9099657437,2001
2001-08-11,2001-11-08,"הר צין 145, כפר סבא",הר צין 145,6434-303-1,,,קרקע+ראשונה,156.42,1576000,,,2001.0,,,7483765706,1,6434303,False,,כפר סבא,הר צין,,6434-303-1,6434/303,10075.43792353919,32.1811328906,34.9226529533,2001
2001-08-11,2001-11-08,"רופין 3, כפר סבא",רופין 3,6437-168-25,,4.0,רביעית,97.5,938000,,,1999.0,,7.0,7483724710,1,6437168,False,,כפר סבא,רופין,,6437-168-25,6437/168,9620.51282051282,32.171358737,34.9136129312,2001
2001-08-08,2001-08-08,"קדושי קהיר 14, כפר סבא",קדושי קהיר 14,6430-191-26,דירה בבית קומות,4.0,קרקע+שלישית+רביעית,100.0,1062000,,,2001.0,,4.0,7481042728,1,6430191,False,,כפר סבא,קדושי קהיר,,6430-191-26,6430/191,10620.0,32.1869685222,34.8989201087,2001
2001-08-07,2001-07-08,"ששת הימים 24, כפר סבא",ששת הימים 24,6426-560-9,,3.0,שלישית,73.5,574000,,,1970.0,,4.0,7480909158,1,6426560,False,,כפר סבא,ששת הימים,,6426-560-9,6426/560,7809.523809523809,32.1755741954,34.8980196879,2001
2001-08-07,2001-07-08,"העבודה 3, כפר סבא",העבודה 3,6440-258-3,דירה בבית קומות,6.0,ראשונה  +  שניה,168.0,1384000,,,1999.0,,4.0,7480125868,1,6440258,False,,כפר סבא,העבודה,,6440-258-3,6440/258,8238.095238095239,32.1788133346,34.907719307,2001
2001-08-05,2001-05-08,"שלום אש 3, כפר סבא",שלום אש 3,6426-546-3,,4.0,שניה,105.0,611000,,,1950.0,,2.0,7478170344,1,6426546,False,,כפר סבא,אש שלום,,6426-546-3,6426/546,5819.047619047619,32.1716939878,34.8997522351,2001
2001-08-03,2001-03-08,"הרצל 57, כפר סבא",הרצל 57,6438-97-27,,4.0,חמישית,116.31,680000,,,1970.0,,7.0,7476296738,1,643897,False,,כפר סבא,הרצל,,6438-97-27,6438/97,5846.444845671052,32.1749701942,34.91103332,2001
2001-08-01,2001-01-08,"רופין 45, כפר סבא",רופין 45,6435-244-15,,,חמישית+גג,110.0,878000,,,1998.0,,5.0,7475163058,1,6435244,False,,כפר סבא,רופין,,6435-244-15,6435/244,7981.818181818182,32.1693020209,34.9225563347,2001
2001-08-01,2001-01-08,"בקעת בית נטופה 8, כפר סבא",בקעת בית נטופה 8,7606-115-1,,,קרקע,96.0,925000,,,2000.0,,,7474854108,1,7606115,False,,כפר סבא,בקעת בית נטופה,,7606-115-1,7606/115,9635.416666666666,32.1815310752,34.929773582,2001
2001-08-01,2001-01-08,"ויצמן 52, כפר סבא",ויצמן 52,6426-417-49,,3.0,חמישית,66.9,618000,,,1970.0,,6.0,7474625226,1,6426417,False,,כפר סבא,ויצמן,,6426-417-49,6426/417,9237.668161434976,32.1764876665,34.9018930531,2001
2001-07-31,2001-07-31,"ויצמן 60, כפר סבא",ויצמן 60,6426-596-10,,3.0,א,63.0,589000,,,1960.0,,5.0,7481743064,1,6426596,False,,כפר סבא,ויצמן,,6426-596-10,6426/596,9349.20634920635,32.1763111188,34.902949902,2001
2001-07-31,2001-07-31,"לוינסקי 8, כפר סבא",לוינסקי 8,6430-147-11,,5.0,ראשונה,108.53,1338000,,,2002.0,,3.0,7480862168,1,6430147,False,,כפר סבא,לוינסקי,,6430-147-11,6430/147,12328.388464019165,32.1854691425,34.9005424822,2001
2001-07-31,2001-07-31,"דינור 12, כפר סבא",דינור 12,6432-88-7,,6.0,שלישית+רביעית+חמישית,152.42,1233000,,,1995.0,,,7480688786,1,643288,False,,כפר סבא,דינור,,6432-88-7,6432/88,8089.489568298124,32.184081816,34.9123160208,2001
2001-07-31,2001-07-31,"יציאת אירופה 32, כפר סבא",יציאת אירופה 32,6435-210-19,,5.0,חמישית,105.4,906000,,,1999.0,,7.0,7480870826,1,6435210,False,,כפר סבא,יציאת אירופה,,6435-210-19,6435/210,8595.825426944972,32.1713141656,34.9205295058,2001
2001-07-31,2001-07-31,"גורדון 1, כפר סבא",גורדון 1,6426-207-8,,4.0,ב,82.89,601000,,,1970.0,,4.0,7480973242,1,6426207,False,,כפר סבא,גורדון,,6426-207-8,6426/207,7250.573048618651,32.177027683,34.8995065682,2001
2001-07-27,2001-07-27,"קפלנסקי 1, כפר סבא",קפלנסקי 1,7620-188-29,דירה בבית קומות,4.0,,100.0,758000,,,2001.0,,4.0,7480788316,1,7620188,False,,כפר סבא,קפלנסקי,,7620-188-29,7620/188,7580.0,32.1897313921,34.9040751416,2001
2001-07-25,2001-07-25,"ברל כצנלסון 47, כפר סבא",ברל כצנלסון 47,6428-479-3,,5.0,ראשונה,139.66,1154000,,,1988.0,,3.0,7480873120,1,6428479,False,,כפר סבא,כצנלסון ברל,,6428-479-3,6428/479,8262.924244594014,32.1823177278,34.9039680439,2001
2001-07-24,2001-07-24,"רוטשילד 71, כפר סבא",רוטשילד 71,6440-151-3,,,קרקע,39.5,251000,,,1970.0,,7.0,7480935428,1,6440151,False,,כפר סבא,רוטשילד,,6440-151-3,6440/151,6354.430379746836,32.1774456723,34.9088267198,2001
2001-07-24,2001-07-24,"המייסדים 7, כפר סבא",המייסדים 7,6438-145-12,,3.0,ב,49.9,251000,,,1970.0,,2.0,7482590882,1,6438145,False,,כפר סבא,המיסדים,,6438-145-12,6438/145,5030.060120240481,32.1753085633,34.9134459073,2001
2001-07-23,2001-07-23,"טרומפלדור 10, כפר סבא",טרומפלדור 10,6426-251-44,,3.0,רביעית,66.0,562000,,,2021.0,,7.0,7480592808,1,6426251,False,,כפר סבא,טרומפלדור,,6426-251-44,6426/251,8515.151515151516,,,2001
2001-07-22,2001-07-22,"אח""י אילת 6, כפר סבא","אח""י אילת 6",6435-83-2,,3.0,ראשונה,44.3,449000,,,1960.0,,4.0,7481934650,1,643583,False,,כפר סבא,"אח""י אילת",,6435-83-2,6435/83,10135.440180586907,32.1736181238,34.9219456934,2001
2001-07-19,2001-07-19,"החרוב 3, כפר סבא",החרוב 3,7590-32-1,,3.0,קרקע,64.8,546000,,,1972.0,,,7480773072,1,759032,False,,כפר סבא,החרוב,,7590-32-1,7590/32,8425.925925925927,32.1812297747,34.9390224454,2001
2001-07-19,2001-07-19,"טשרניחובסקי 24, כפר סבא",טשרניחובסקי 24,6427-546-52,,,שלישית,32.5,294000,,,1990.0,,6.0,7480619226,1,6427546,False,,כפר סבא,טשרניחובסקי,,6427-546-52,6427/546,9046.153846153846,32.1771182814,34.8939186816,2001
2001-07-17,2001-07-17,"אז""ר 125, כפר סבא","אז""ר 125",6434-286-3,,5.0,,125.0,1705000,,,2000.0,,1.0,7480560026,1,6434286,False,,כפר סבא,"אז""ר",,6434-286-3,6434/286,13640.0,32.1813620107,34.9216634809,2001
2001-07-16,2001-07-16,"אמבר 14, כפר סבא",אמבר 14,6426-664-14,,4.0,חמישית,78.34,744000,,,1970.0,,6.0,7480512814,1,6426664,False,,כפר סבא,אימבר,,6426-664-14,6426/664,9497.064079652797,32.1725141838,34.9029201556,2001
2001-07-16,2001-07-16,"חבצלת השרון 11, כפר סבא",חבצלת השרון 11,6427-192-6,,3.0,שניה,76.5,592000,,,1970.0,,3.0,7480243676,1,6427192,False,,כפר סבא,חבצלת השרון,,6427-192-6,6427/192,7738.562091503268,32.1746768369,34.8957565646,2001
2001-07-15,2001-07-15,"הרצל 8, כפר סבא",הרצל 8,6439-470-11,,5.0,קרקע תחתונה+שניה,120.0,967000,,,2002.0,,5.0,7480522064,1,6439470,False,,כפר סבא,הרצל,,6439-470-11,6439/470,8058.333333333333,32.1706812121,34.9102833474,2001
2001-07-11,2001-11-07,"מרים 1, כפר סבא",מרים 1,8191-16-1,,5.0,,125.0,1343000,,,1999.0,,,7483514698,1,819116,False,,כפר סבא,מרים,,8191-16-1,8191/16,10744.0,32.1880327771,34.935954995,2001
2001-07-11,2001-11-07,"ששת הימים 31, כפר סבא",ששת הימים 31,6426-590-2,,3.0,א,52.0,585000,,,1967.0,,2.0,7483839558,1,6426590,False,,כפר סבא,ששת הימים,,6426-590-2,6426/590,11250.0,32.1752553151,34.8974280548,2001
2001-07-11,2001-11-07,"פנחס לבון 2, כפר סבא",פנחס לבון 2,6431-418-1,,6.0,"מרתף,קרקע,ראשונה",162.0,1640000,,,1984.0,,,7483523208,1,6431418,False,,כפר סבא,לבון פנחס,,6431-418-1,6431/418,10123.456790123457,32.1799275347,34.9088073371,2001
2001-07-09,2001-09-07,"הר צין 145, כפר סבא",הר צין 145,6434-303-2,,5.0,קרקע+ראשונה,156.42,1569000,,,2001.0,,,7482455980,1,6434303,False,,כפר סבא,הר צין,,6434-303-2,6434/303,10030.686612965095,32.1811328906,34.9226529533,2001
2001-07-09,2001-09-07,"נורדאו 6, כפר סבא",נורדאו 6,6435-286-14,,4.0,ראשונה,109.38,888000,,,1996.0,,5.0,7482217330,1,6435286,False,,כפר סבא,נורדאו,,6435-286-14,6435/286,8118.48601206802,32.1717223521,34.9187561673,2001
2001-07-03,2001-03-07,"בן גוריון 58, כפר סבא",בן גוריון 58,6439-76-20,,5.0,חמישית+שישית,131.89,1070000,,,1980.0,,5.0,7477291890,1,643976,False,,כפר סבא,בן גוריון,,6439-76-20,6439/76,8112.821290469331,32.1713897225,34.9114580246,2001
2001-07-02,2001-02-07,"הגפן 8, כפר סבא",הגפן 8,7602-176-2,,3.0,ראשונה,60.2,76000,,,2019.0,,5.0,7475131238,1,7602176,False,,כפר סבא,הגפן,,7602-176-2,7602/176,1262.4584717607972,32.1818752332,34.940087806,2001
2001-07-02,2001-02-07,"גאולה 8, כפר סבא",גאולה 8,6426-955-5,,5.0,שלישית,109.89,1096000,,,2000.0,,4.0,7475389572,1,6426955,False,,כפר סבא,גאולה,,6426-955-5,6426/955,9973.609973609971,32.1762819737,34.9000048748,2001
2001-07-01,2001-01-07,"משה דיין 4, כפר סבא",משה דיין 4,6435-191-26,,3.0,חמישית,99.72,716000,,,1998.0,,5.0,7474471306,1,6435191,False,,כפר סבא,דיין משה,,6435-191-26,6435/191,7180.10429201765,32.1736133347,34.9199117477,2001
2001-06-28,2001-06-28,"גובר רבקה 1, כפר סבא",גובר רבקה 1,6435-159-19,,4.0,שניה,97.72,791000,,,1989.0,,7.0,7479852882,1,6435159,False,,כפר סבא,גובר רבקה,,6435-159-19,6435/159,8094.555873925501,32.1721315166,34.9171565612,2001
2001-06-27,2001-06-27,"הרצל 19, כפר סבא",הרצל 19,6439-283-15,,4.0,חמישית,97.76,730000,,,1985.0,,7.0,7479755276,1,6439283,False,,כפר סבא,הרצל,,6439-283-15,6439/283,7467.266775777413,32.1714226761,34.9097645819,2001
2001-06-27,2001-06-27,"עמק חפר 5, כפר סבא",עמק חפר 5,7618-224-22,,,שלישית+קרקע,99.8,960000,,,2001.0,,,7480047206,1,7618224,False,,כפר סבא,עמק חפר,,7618-224-22,7618/224,9619.238476953908,32.1805291878,34.9326292173,2001
2001-06-27,2001-06-27,"אח""י אילת 6, כפר סבא","אח""י אילת 6",6435-83-21,,3.0,שניה,44.3,432000,,,1960.0,,4.0,7479868866,1,643583,False,,כפר סבא,"אח""י אילת",,6435-83-21,6435/83,9751.693002257338,32.1736181238,34.9219456934,2001
2001-06-27,2001-06-27,"עמק חפר 5, כפר סבא",עמק חפר 5,7618-224-17,,,ראשונה+קרקע,85.8,776000,,,2001.0,,,7480045874,1,7618224,False,,כפר סבא,עמק חפר,,7618-224-17,7618/224,9044.289044289044,32.1805291878,34.9326292173,2001
2001-06-27,2001-06-27,"תל חי 2, כפר סבא",תל חי 2,6439-440-2,,2.0,קרקע,30.92,350000,,,1990.0,,4.0,7480479366,1,6439440,False,,כפר סבא,תל חי,,6439-440-2,6439/440,11319.53428201811,32.1697521866,34.9129051928,2001
2001-06-27,2001-06-27,"קפלנסקי 1, כפר סבא",קפלנסקי 1,7620-188-30,דירה בבית קומות,4.0,,100.0,758000,,,2001.0,,4.0,7480790166,1,7620188,False,,כפר סבא,קפלנסקי,,7620-188-30,7620/188,7580.0,32.1897313921,34.9040751416,2001
2001-06-25,2001-06-25,"ויצמן 52, כפר סבא",ויצמן 52,6426-417-16,,3.0,שלישית,66.9,689000,,,1970.0,,6.0,7479705770,1,6426417,False,,כפר סבא,ויצמן,,6426-417-16,6426/417,10298.95366218236,32.1764876665,34.9018930531,2001
2001-06-24,2001-06-24,"הלפיד 1, כפר סבא",הלפיד 1,6435-252-20,,4.0,שלישית,105.0,831000,,,2000.0,,6.0,7480364518,1,6435252,False,,כפר סבא,הלפיד,,6435-252-20,6435/252,7914.285714285715,32.1705938341,34.9216450805,2001
2001-06-24,2001-06-24,"המייסדים 28, כפר סבא",המייסדים 28,6440-255-6,,4.0,שלישית,104.0,1003000,,,2002.0,,6.0,7480589700,1,6440255,False,,כפר סבא,המיסדים,,6440-255-6,6440/255,9644.23076923077,32.1765444388,34.9084407844,2001
2001-06-22,2001-06-22,"סירקין 25, כפר סבא",סירקין 25,6430-146-24,,6.0,רביעית+ק. גג,149.46,1504000,,,1999.0,,5.0,7479573902,1,6430146,False,,כפר סבא,סירקין,,6430-146-24,6430/146,10062.893081761003,32.1857646916,34.9009274079,2001
2001-06-21,2001-06-21,"הגליל 43, כפר סבא",הגליל 43,6433-668-47,,4.0,רביעית,109.77,715000,,,1983.0,,8.0,7479486656,1,6433668,False,,כפר סבא,הגליל,,6433-668-47,6433/668,6513.619385988886,32.1785861703,34.9180027916,2001
2001-06-18,2001-06-18,"גורדון 1, כפר סבא",גורדון 1,6426-207-3,,,קרקע,140.72,1480000,,,1970.0,,4.0,7480515848,1,6426207,False,,כפר סבא,גורדון,,6426-207-3,6426/207,10517.339397384878,32.177027683,34.8995065682,2001
2001-06-18,2001-06-18,"הסובלנות 1, כפר סבא",הסובלנות 1,6435-279-9,דירה בבית קומות,4.0,קרקע תחתונה+שניה,97.2,838000,,,2002.0,,5.0,7479606240,1,6435279,False,,כפר סבא,הסובלנות,,6435-279-9,6435/279,8621.399176954732,32.1701973196,34.9201811885,2001
2001-06-18,2001-06-18,"הר רותם 18, כפר סבא",הר רותם 18,6434-488-1,,6.0,,150.0,1689000,,,1980.0,,1.0,7479815068,1,6434488,False,,כפר סבא,הר רותם,,6434-488-1,6434/488,11260.0,32.1790327629,34.9223274316,2001
2001-06-17,2001-06-17,"מורן 16, כפר סבא",מורן 16,6430-192-12,,5.0,שניה+שלישית,118.0,1160000,,,1996.0,,2.0,7480142888,1,6430192,False,,כפר סבא,מורן,,6430-192-12,6430/192,9830.50847457627,32.1872506866,34.8994487496,2001
2001-06-15,2001-06-15,"השפלה 2, כפר סבא",השפלה 2,6432-74-26,,5.0,ראשונה,115.15,1106000,,,1996.0,,7.0,7480561728,1,643274,False,,כפר סבא,השפלה,,6432-74-26,6432/74,9604.863221884498,32.182941027,34.915330668,2001
2001-06-15,2001-06-15,"חצרות הדר 14, כפר סבא",חצרות הדר 14,6428-97-4,,2.0,א,34.38,488000,,,1960.0,,1.0,7479313274,1,642897,False,,כפר סבא,חצרות הדר,,6428-97-4,6428/97,14194.299011052935,32.1806922051,34.90176918,2001
2001-06-13,2001-06-13,"חבצלת השרון 21, כפר סבא",חבצלת השרון 21,6427-478-5,,5.0,שלישית,99.25,875000,,,1981.0,,5.0,7479418946,1,6427478,False,,כפר סבא,חבצלת השרון,,6427-478-5,6427/478,8816.120906801008,32.1737793354,34.8955444,2001
2001-06-13,2001-06-13,"הגר""א 22, כפר סבא","הגר""א 22",6426-161-7,,5.0,רביעית,114.63,996000,,,1980.0,,5.0,7479409696,1,6426161,False,,כפר סבא,"הגר""א",,6426-161-7,6426/161,8688.824914943732,32.1709997816,34.9058563588,2001
2001-06-13,2001-06-13,"חגי 12, כפר סבא",חגי 12,7594-13-3,,6.0,קרקע+ראשונה,166.1,921000,,,1990.0,,,7479397560,1,759413,False,,כפר סבא,חגי,,7594-13-3,7594/13,5544.852498494883,32.1863620327,34.935007969,2001
2001-06-09,2001-09-06,"קדושי בלזן 1, כפר סבא",קדושי בלזן 1,6434-617-17,,4.0,שניה+קרקע תחתונה,86.59,759000,,,2002.0,,2.0,7481993850,1,6434617,False,,כפר סבא,קדושי בלזן,,6434-617-17,6434/617,8765.446356392193,32.1807883823,34.9194192466,2001
2001-06-08,2001-08-06,"עמק דותן 8, כפר סבא",עמק דותן 8,7618-164-2,,,קרקע,103.2,791000,,,2000.0,,3.0,7481666104,1,7618164,False,,כפר סבא,עמק דותן,,7618-164-2,7618/164,7664.728682170542,32.1804136824,34.9332285314,2001
2001-06-07,2001-07-06,"ביל""ו 7, כפר סבא","ביל""ו 7",6441-357-2,,5.0,ראשונה+שניה,173.5,1300000,,,2000.0,,5.0,7480854842,1,6441357,False,,כפר סבא,"ביל""ו",,6441-357-2,6441/357,7492.795389048992,32.173907301,34.9063309833,2001
2001-06-07,2001-07-06,"ביל""ו 7, כפר סבא","ביל""ו 7",6441-357-3,,3.0,שניה,102.0,762000,,,2000.0,,5.0,7480855434,1,6441357,False,,כפר סבא,"ביל""ו",,6441-357-3,6441/357,7470.588235294118,32.173907301,34.9063309833,2001
2001-06-07,2001-07-06,"סירקין 25, כפר סבא",סירקין 25,6430-146-3,,4.0,ראשונה,84.0,1090000,,,1999.0,,5.0,7480008652,1,6430146,False,,כפר סבא,סירקין,,6430-146-3,6430/146,12976.190476190475,32.1857646916,34.9009274079,2001
2001-06-06,2001-06-06,"טרומפלדור 10, כפר סבא",טרומפלדור 10,6426-251-45,,4.0,ראשונה,84.0,692000,,,2021.0,,7.0,7478937872,1,6426251,False,,כפר סבא,טרומפלדור,,6426-251-45,6426/251,8238.095238095239,,,2001
2001-06-05,2001-05-06,"הגליל 45, כפר סבא",הגליל 45,6433-668-23,,4.0,שישית,79.95,688000,,,1980.0,,9.0,7478115436,1,6433668,False,6% ב 3.1 שנים,כפר סבא,הגליל,1.94,6433-668-23,6433/668,8605.378361475921,32.1785861703,34.9180027916,2001
2001-06-05,2001-05-06,"נחמיה 13, כפר סבא",נחמיה 13,7594-77-1,,6.0,קרקע,142.1,775000,,,1950.0,,,7479388458,1,759477,False,,כפר סבא,נחמיה,,7594-77-1,7594/77,5453.905700211119,32.1848422954,34.934735581,2001
2001-05-31,2001-05-31,"המעפילים 6, כפר סבא",המעפילים 6,6428-671-0,,3.0,שניה,75.0,715000,,,1984.0,,3.0,7480452430,1,6428671,False,,כפר סבא,המעפילים,,6428-671-0,6428/671,9533.333333333334,32.1785549295,34.8998646329,2001
2001-05-31,2001-05-31,"הלפיד 1, כפר סבא",הלפיד 1,6435-252-18,,4.0,שניה,105.0,822000,,,2000.0,,6.0,7479078842,1,6435252,False,,כפר סבא,הלפיד,,6435-252-18,6435/252,7828.571428571428,32.1705938341,34.9216450805,2001
2001-05-29,2001-05-29,"צאלון 7, כפר סבא",צאלון 7,6438-270-2,,4.0,ראשונה,99.16,1030000,,,1988.0,,5.0,7478587408,1,6438270,False,,כפר סבא,צאלון,,6438-270-2,6438/270,10387.252924566355,32.1768603914,34.9110047192,2001
2001-05-27,2001-05-27,"פרץ 28, כפר סבא",פרץ 28,6431-436-1,,5.0,,120.0,1351000,,,1956.0,,,7479176522,1,6431436,False,,כפר סבא,פרץ,,6431-436-1,6431/436,11258.333333333334,32.1875897619,34.9093326648,2001
2001-05-25,2001-05-25,"הרעות 17, כפר סבא",הרעות 17,6435-242-28,דירה בבית קומות,5.0,ק. תחתונה+רביעית+גג,149.8,990000,,,1999.0,,4.0,7479252298,1,6435242,False,,כפר סבא,הרעות,,6435-242-28,6435/242,6608.811748998664,32.169973235,34.9224583329,2001
2001-05-25,2001-05-25,"שועלי שמשון 2, כפר סבא",שועלי שמשון 2,6435-148-7,,5.0,רביעית,113.85,969000,,,1992.0,,4.0,7478699074,1,6435148,False,,כפר סבא,שועלי שמשון,,6435-148-7,6435/148,8511.198945981556,32.1708010885,34.9191053423,2001
2001-05-24,2001-05-24,"לילנבלום 8, כפר סבא",לילנבלום 8,6430-61-2,,3.0,,50.0,887000,,,1960.0,,,7479054940,1,643061,False,,כפר סבא,לילנבלום,,6430-61-2,6430/61,17740.0,32.1838609589,34.8985535686,2001
2001-05-24,2001-05-24,"עמרמי 11, כפר סבא",עמרמי 11,6441-307-14,,,ראשונה,38.58,143000,,,1995.0,,1.0,7479384166,1,6441307,False,,כפר סבא,עמרמי,,6441-307-14,6441/307,3706.583722135822,32.1742656978,34.9095318935,2001
2001-05-24,2001-05-24,"תל חי 18, כפר סבא",תל חי 18,6437-82-12,,4.0,שלישית,69.5,676000,,,1970.0,,5.0,7478750948,1,643782,False,,כפר סבא,תל חי,,6437-82-12,6437/82,9726.618705035971,32.1720789939,34.9137189679,2001
2001-05-24,2001-05-24,"ברקן 10, כפר סבא",ברקן 10,6430-201-20,,5.0,שלישית+רביעית,127.0,1093000,,,1994.0,,4.0,7479159428,1,6430201,False,,כפר סבא,ברקן,,6430-201-20,6430/201,8606.299212598426,32.185874872,34.896253818,2001
2001-05-23,2001-05-23,"טשרניחובסקי 129, כפר סבא",טשרניחובסקי 129,7620-273-13,,3.0,רביעית,53.0,562000,,,1970.0,,6.0,7478610570,1,7620273,False,,כפר סבא,טשרניחובסקי,,7620-273-13,7620/273,10603.77358490566,32.1874421498,34.9041155715,2001
2001-05-23,2001-05-23,"תרי עשר 16, כפר סבא",תרי עשר 16,7593-7-0,,4.0,ראשונה,92.0,100000,,,1985.0,,,7478491578,1,75937,False,,כפר סבא,תרי עשר,,7593-7-0,7593/7,1086.9565217391305,32.1909519919,34.9402829348,2001
2001-05-22,2001-05-22,"נחשון 10, כפר סבא",נחשון 10,6441-280-12,,4.0,שניה,99.88,878000,,,1986.0,,7.0,7478489062,1,6441280,False,,כפר סבא,נחשון,,6441-280-12,6441/280,8790.54865839007,32.174502937,34.905920554,2001
2001-05-21,2001-05-21,"התנאים 10, כפר סבא",התנאים 10,6431-335-1,,5.0,קרקע ראשונה,125.88,1532000,,,1985.0,,,7478683830,1,6431335,False,,כפר סבא,התנאים,,6431-335-1,6431/335,12170.32094057833,32.1831263662,34.9101097596,2001
2001-05-21,2001-05-21,"בילינסון 3, כפר סבא",בילינסון 3,6428-47-11,,4.0,ד,70.83,898000,,,1970.0,,4.0,7479736406,1,642847,False,,כפר סבא,בילינסון,,6428-47-11,6428/47,12678.243682055629,32.1775838706,34.9010189446,2001
2001-05-20,2001-05-20,"הכרמל 5, כפר סבא",הכרמל 5,6428-551-74,,4.0,חמישית,102.0,1127000,,,1998.0,,10.0,7479600246,1,6428551,False,,כפר סבא,הכרמל,,6428-551-74,6428/551,11049.019607843138,32.1792258377,34.9041052345,2001
2001-05-20,2001-05-20,"דניאל 8, כפר סבא",דניאל 8,7594-70-0,,4.0,ראשונה,99.0,224000,,,2001.0,,,7478946382,1,759470,False,,כפר סבא,דניאל,,7594-70-0,7594/70,2262.626262626263,32.1849847846,34.9359708241,2001
2001-05-17,2001-05-17,"קפלנסקי 1, כפר סבא",קפלנסקי 1,7620-188-31,דירה בבית קומות,3.0,רביעית,75.0,758000,,,2001.0,,4.0,7479866350,1,7620188,False,,כפר סבא,קפלנסקי,,7620-188-31,7620/188,10106.666666666666,32.1897313921,34.9040751416,2001
2001-05-16,2001-05-16,"קפלנסקי 1, כפר סבא",קפלנסקי 1,7620-188-32,דירה בבית קומות,3.0,רביעית,75.0,758000,,,2001.0,,4.0,7478431786,1,7620188,False,,כפר סבא,קפלנסקי,,7620-188-32,7620/188,10106.666666666666,32.1897313921,34.9040751416,2001
2001-05-15,2001-05-15,"בקעת בית נטופה 8, כפר סבא",בקעת בית נטופה 8,7606-115-13,,4.0,קרקע,96.0,928000,,,2000.0,,,7478619080,1,7606115,False,,כפר סבא,בקעת בית נטופה,,7606-115-13,7606/115,9666.666666666666,32.1815310752,34.929773582,2001
2001-05-14,2001-05-14,"לוינסקי 8, כפר סבא",לוינסקי 8,6430-147-5,,5.0,שניה,105.68,1182000,,,2002.0,,3.0,7478611162,1,6430147,False,,כפר סבא,לוינסקי,,6430-147-5,6430/147,11184.708554125662,32.1854691425,34.9005424822,2001
2001-05-14,2001-05-14,"הרצל 8, כפר סבא",הרצל 8,6439-470-12,,5.0,קרקע תחתונה+שניה,120.0,1141000,,,2002.0,,5.0,7478425052,1,6439470,False,,כפר סבא,הרצל,,6439-470-12,6439/470,9508.333333333334,32.1706812121,34.9102833474,2001
2001-05-13,2001-05-13,"הרעות 10, כפר סבא",הרעות 10,6435-241-4,דירה בבית קומות,4.0,ראשונה+קרקע תחתונה,94.3,851000,,,2001.0,,1.0,7479263176,1,6435241,False,,כפר סבא,הרעות,,6435-241-4,6435/241,9024.39024390244,32.1692284063,34.9230813895,2001
2001-05-09,2001-09-05,"המוביל 16, כפר סבא",המוביל 16,7618-292-13,דירה בבית קומות,3.0,שניה,71.79,579000,,,2001.0,,4.0,7481984156,1,7618292,False,,כפר סבא,המוביל,,7618-292-13,7618/292,8065.190137902214,32.1796820387,34.9315736402,2001
2001-05-09,2001-09-05,"המוביל 12, כפר סבא",המוביל 12,7618-291-3,דירה בבית קומות,4.0,ראשונה,83.42,629000,,,2001.0,,4.0,7482370584,1,7618291,False,,כפר סבא,המוביל,,7618-291-3,7618/291,7540.158235435148,32.1789850131,34.9316148398,2001
2001-05-09,2001-09-05,"קדומים 2, כפר סבא",קדומים 2,7618-293-5,דירה בבית קומות,4.0,ראשונה,84.7,636000,,,2001.0,,5.0,7482362666,1,7618293,False,,כפר סבא,קדומים,,7618-293-5,7618/293,7508.854781582054,32.1820617379,34.9314910988,2001
2001-05-09,2001-09-05,"בן-גוריון 20, כפר סבא",בן-גוריון 20,6426-1008-2,,4.0,ראשונה,97.46,918000,,,2000.0,,4.0,7482314418,1,64261008,False,,כפר סבא,בן גוריון,,6426-1008-2,6426/1008,9419.248922634928,32.1730833818,34.9041567773,2001
2001-05-09,2001-09-05,"הרעות 17, כפר סבא",הרעות 17,6435-242-18,דירה בבית קומות,5.0,ק. תחתונה+רביעית+גג,150.2,1053000,,,1999.0,,4.0,7481795456,1,6435242,False,,כפר סבא,הרעות,,6435-242-18,6435/242,7010.652463382157,32.169973235,34.9224583329,2001
2001-05-09,2001-09-05,"עמק דותן 2, כפר סבא",עמק דותן 2,7618-226-23,דירה בבית קומות,4.0,קרקע,84.78,662000,,,2001.0,,4.0,7481965878,1,7618226,False,,כפר סבא,עמק דותן,,7618-226-23,7618/226,7808.445388063223,32.1807908353,34.931717923,2001
2001-05-08,2001-08-05,"התפוז 7, כפר סבא",התפוז 7,6437-111-4,,3.0,קרקע,58.45,283000,,,1970.0,,4.0,7481691190,1,6437111,False,,כפר סבא,התפוז,,6437-111-4,6437/111,4841.745081266039,32.1733311605,34.9146731761,2001
2001-05-08,2001-08-05,"יואל 9, כפר סבא",יואל 9,7594-52-0,,1.0,ראשונה,740.0,666000,,,1950.0,,,7553871160,1,759452,False,,כפר סבא,יואל,,7594-52-0,7594/52,900.0,32.184572032,34.9345344227,2001
2001-05-07,2001-07-05,"תל חי 99, כפר סבא",תל חי 99,6432-90-33,,4.0,ראשונה,97.57,1172000,,,1998.0,,5.0,7479854806,1,643290,False,22% ב 3 שנים,כפר סבא,תל חי,7.33,6432-90-33,6432/90,12011.888900276725,32.1831044951,34.9163637537,2001
2001-05-02,2001-02-05,"שועלי שמשון 8, כפר סבא",שועלי שמשון 8,6435-151-8,,5.0,רביעית,129.0,996000,,,1996.0,,5.0,7475396898,1,6435151,False,,כפר סבא,שועלי שמשון,,6435-151-8,6435/151,7720.930232558139,32.170425664,34.9207580383,2001
2001-04-30,2001-04-30,"הידידות 2, כפר סבא",הידידות 2,6435-274-1,דירה בבית קומות,4.0,ק. תחתונה+קרקע,99.0,972000,,,2002.0,,4.0,7477955448,1,6435274,False,,כפר סבא,הידידות,,6435-274-1,6435/274,9818.181818181818,32.1703519267,34.9194842794,2001
2001-04-29,2001-04-29,"יציאת אירופה 32, כפר סבא",יציאת אירופה 32,6435-210-21,,4.0,שישית,91.4,830000,,,1999.0,,7.0,7477856584,1,6435210,False,,כפר סבא,יציאת אירופה,,6435-210-21,6435/210,9080.962800875272,32.1713141656,34.9205295058,2001
2001-04-27,2001-04-27,"אברהם קרן 15, כפר סבא",אברהם קרן 15,6439-302-7,,4.0,שלישית,95.16,769000,,,1985.0,,8.0,7478490986,1,6439302,False,,כפר סבא,קרן אברהם,,6439-302-7,6439/302,8081.126523749474,32.1708546518,34.9112641092,2001
2001-04-25,2001-04-25,"קפלנסקי 1, כפר סבא",קפלנסקי 1,7620-188-33,דירה בבית קומות,4.0,רביעית,100.0,692000,,,2001.0,,4.0,7478429270,1,7620188,False,,כפר סבא,קפלנסקי,,7620-188-33,7620/188,6920.0,32.1897313921,34.9040751416,2001
2001-04-24,2001-04-24,"תל חי 20, כפר סבא",תל חי 20,6437-71-15,,3.0,רביעית,65.6,477000,,,1970.0,,4.0,7477759570,1,643771,False,,כפר סבא,תל חי,,6437-71-15,6437/71,7271.341463414635,32.1722869362,34.9139227206,2001
2001-04-24,2001-04-24,"שאול המלך 18, כפר סבא",שאול המלך 18,7601-75-17,,3.0,שניה,41.5,290000,,,1965.0,,2.0,7478702182,1,760175,False,,כפר סבא,שאול המלך,,7601-75-17,7601/75,6987.951807228916,32.1847524774,34.9419500722,2001
2001-04-24,2001-04-24,"ויצמן 169, כפר סבא",ויצמן 169,6435-172-3,,,קרקע,41.92,195000,,,1985.0,,5.0,7478979904,1,6435172,False,,כפר סבא,ויצמן,,6435-172-3,6435/172,4651.717557251908,32.1734831633,34.9183329092,2001
2001-04-24,2001-04-24,"אסף שמחוני 7, כפר סבא",אסף שמחוני 7,6434-620-2,,,קרקע + ראשונה,185.0,1424000,,,2000.0,,,7477735668,1,6434620,False,,כפר סבא,שמחוני אסף,,6434-620-2,6434/620,7697.2972972972975,32.1808226662,34.9197601636,2001
2001-04-23,2001-04-23,"ויצמן 101, כפר סבא",ויצמן 101,6440-89-17,,4.0,רביעית,92.0,622000,,,1975.0,,6.0,7478201572,1,644089,False,,כפר סבא,ויצמן,,6440-89-17,6440/89,6760.869565217391,32.1758400948,34.9077024782,2001
2001-04-22,2001-04-22,"תל חי 16, כפר סבא",תל חי 16,6437-81-15,,4.0,רביעית,69.5,551000,,,1970.0,,4.0,7477673434,1,643781,False,,כפר סבא,תל חי,,6437-81-15,6437/81,7928.057553956834,32.1718565225,34.9136493678,2001
2001-04-20,2001-04-20,"רעם 8, כפר סבא",רעם 8,6435-193-8,,3.0,שלישית,71.78,672000,,,1995.0,,6.0,7478216224,1,6435193,False,,כפר סבא,רעם,,6435-193-8,6435/193,9361.939258846474,32.1732661178,34.9204730273,2001
2001-04-20,2001-04-20,"בקעת רמון 4, כפר סבא",בקעת רמון 4,7606-108-2,דירה בבית קומות,5.0,מרתף+קרקע+ראשונה,193.9,1440000,,,2001.0,,,7478142964,1,7606108,False,,כפר סבא,בקעת רמון,,7606-108-2,7606/108,7426.508509541,32.1818640312,34.9287961497,2001
2001-04-19,2001-04-19,"העמק 31, כפר סבא",העמק 31,6436-91-6,,3.0,שניה,68.0,676000,,,1970.0,,5.0,7477973208,1,643691,False,,כפר סבא,העמק,,6436-91-6,6436/91,9941.176470588236,32.1755630755,34.9156602245,2001
2001-04-18,2001-04-18,"טרומפלדור 13, כפר סבא",טרומפלדור 13,6426-971-5,,5.0,שניה,114.31,1155000,,,1999.0,,3.0,7477763196,1,6426971,False,,כפר סבא,טרומפלדור,,6426-971-5,6426/971,10104.102878138396,32.1717799439,34.905627687,2001
2001-04-16,2001-04-16,"ששת הימים 38, כפר סבא",ששת הימים 38,6427-524-24,,4.0,חמישית,98.6,839000,,,1993.0,,6.0,7477378026,1,6427524,False,,כפר סבא,ששת הימים,,6427-524-24,6427/524,8509.127789046654,32.1763649603,34.8945293565,2001
2001-04-16,2001-04-16,"תל חי 99, כפר סבא",תל חי 99,6432-90-29,,4.0,שניה,103.0,939000,,,1998.0,,5.0,7477918966,1,643290,False,,כפר סבא,תל חי,,6432-90-29,6432/90,9116.504854368932,32.1831044951,34.9163637537,2001
2001-04-16,2001-04-16,"טרומפלדור 22, כפר סבא",טרומפלדור 22,6426-245-4,,4.0,שניה,113.5,868000,,,1978.0,,4.0,7477376102,1,6426245,False,,כפר סבא,טרומפלדור,,6426-245-4,6426/245,7647.577092511013,32.1713565526,34.9049560769,2001
2001-04-16,2001-04-16,"הרצל 8, כפר סבא",הרצל 8,6439-470-1,,4.0,קרקע תחתונה+קרקע,106.5,1086000,,,2002.0,,5.0,7477497536,1,6439470,False,,כפר סבא,הרצל,,6439-470-1,6439/470,10197.18309859155,32.1706812121,34.9102833474,2001
2001-04-16,2001-04-16,"טרומן 3, כפר סבא",טרומן 3,6426-763-7,,4.0,שלישית,103.36,1014000,,,1991.0,,7.0,7478200240,1,6426763,False,,כפר סבא,טרומן,,6426-763-7,6426/763,9810.371517027865,32.1734952724,34.9003519317,2001
2001-04-09,2001-09-04,"עמק חורון 8, כפר סבא",עמק חורון 8,7618-290-1,דירה בבית קומות,4.0,קרקע,83.42,649000,,,2001.0,,4.0,7482371176,1,7618290,False,,כפר סבא,עמק חורון,,7618-290-1,7618/290,7779.90889474946,32.1784909575,34.931648023,2001
2001-04-09,2001-09-04,"עמק דותן 2, כפר סבא",עמק דותן 2,7618-226-34,דירה בבית קומות,3.0,רביעית,78.04,783000,,,2001.0,,4.0,7482566536,1,7618226,False,,כפר סבא,עמק דותן,,7618-226-34,7618/226,10033.316248077908,32.1807908353,34.931717923,2001
2001-04-09,2001-09-04,"קדומים 2, כפר סבא",קדומים 2,7618-293-7,דירה בבית קומות,3.0,שניה,78.67,602000,,,2001.0,,5.0,7483202640,1,7618293,False,,כפר סבא,קדומים,,7618-293-7,7618/293,7652.218126350578,32.1820617379,34.9314910988,2001
2001-04-09,2001-09-04,"הרעות 10, כפר סבא",הרעות 10,6435-241-16,דירה בבית קומות,4.0,שניה+קרקע תחתונה,95.9,867000,,,2001.0,,1.0,7481794272,1,6435241,False,,כפר סבא,הרעות,,6435-241-16,6435/241,9040.667361835243,32.1692284063,34.9230813895,2001
2001-04-09,2001-09-04,"עמק איילון 1, כפר סבא",עמק איילון 1,7618-292-5,דירה בבית קומות,3.0,שניה,71.79,570000,,,2001.0,,4.0,7482576378,1,7618292,False,,כפר סבא,עמק אילון,,7618-292-5,7618/292,7939.824488090263,32.1796820387,34.9315736402,2001
2001-04-09,2001-09-04,"המוביל 12, כפר סבא",המוביל 12,7618-291-1,דירה בבית קומות,4.0,קרקע,83.42,640000,,,2001.0,,4.0,7481992666,1,7618291,False,,כפר סבא,המוביל,,7618-291-1,7618/291,7672.02109805802,32.1789850131,34.9316148398,2001
2001-04-09,2001-09-04,"המוביל 12, כפר סבא",המוביל 12,7618-291-9,דירה בבית קומות,3.0,רביעית,76.18,731000,,,2001.0,,4.0,7481989706,1,7618291,False,,כפר סבא,המוביל,,7618-291-9,7618/291,9595.694407981096,32.1789850131,34.9316148398,2001
2001-04-09,2001-09-04,"עמק דותן 2, כפר סבא",עמק דותן 2,7618-226-25,דירה בבית קומות,4.0,ראשונה,84.9,637000,,,2001.0,,4.0,7482361482,1,7618226,False,,כפר סבא,עמק דותן,,7618-226-25,7618/226,7502.944640753827,32.1807908353,34.931717923,2001
2001-04-07,2001-07-04,"אלחריזי 7, כפר סבא",אלחריזי 7,7614-114-7,,3.0,,75.0,1085000,,,1951.0,,1.0,7480846332,1,7614114,False,,כפר סבא,אלחריזי,,7614-114-7,7614/114,14466.666666666666,32.1695316633,34.9248311748,2001
2001-04-06,2001-06-04,"אמבר 3, כפר סבא",אמבר 3,6426-290-8,,4.0,רביעית,95.38,744000,,,1970.0,,5.0,7480314420,1,6426290,False,,כפר סבא,אימבר,,6426-290-8,6426/290,7800.37743761795,32.173202081,34.9020812267,2001
2001-04-06,2001-06-04,"הר רותם 1, כפר סבא",הר רותם 1,6434-365-1,,6.0,,170.0,1623000,,,2000.0,,,7480048982,1,6434365,False,,כפר סבא,הר רותם,,6434-365-1,6434/365,9547.058823529413,32.1784254169,34.921707726,2001
2001-04-04,2001-04-04,"חומה ומגדל 2, כפר סבא",חומה ומגדל 2,6435-182-18,,5.0,חמישית+גג,140.12,808000,,,1988.0,,6.0,7479442108,1,6435182,False,,כפר סבא,חומה ומגדל,,6435-182-18,6435/182,5766.485869254924,32.1718582777,34.9182197657,2001
2001-04-03,2001-03-04,"יקותיאל אדם 17, כפר סבא",יקותיאל אדם 17,6427-566-1,,5.0,ראשונה,230.0,1553000,,,1990.0,,1.0,7476073850,1,6427566,False,,כפר סבא,אדם יקותיאל,,6427-566-1,6427/566,6752.173913043478,32.1778373687,34.890096888,2001
2001-04-01,2001-01-04,"בן-גוריון 20, כפר סבא",בן-גוריון 20,6426-1008-8,,6.0,רביעית+חמישית,160.34,1403000,,,2000.0,,4.0,7475246752,1,64261008,False,,כפר סבא,בן גוריון,,6426-1008-8,6426/1008,8750.155918672821,32.1730833818,34.9041567773,2001
2001-04-01,2001-01-04,"התע""ש 20, כפר סבא","התע""ש 20",7607-125-161,,,שניה,98.2,661000,,,1999.0,,5.0,7474489658,1,7607125,False,,כפר סבא,"התע""ש",,7607-125-161,7607/125,6731.160896130346,32.1759745495,34.9277395245,2001
2001-03-30,2001-03-30,"תל חי 92, כפר סבא",תל חי 92,6433-289-4,,2.0,ראשונה,46.8,487000,,,1970.0,,1.0,7477235206,1,6433289,False,,כפר סבא,תל חי,,6433-289-4,6433/289,10405.982905982906,32.1820408883,34.9166917045,2001
2001-03-28,2001-03-28,"ששת הימים 10, כפר סבא",ששת הימים 10,6426-724-13,,5.0,רביעית+חמישית,111.71,995000,,,1991.0,,7.0,7477741218,1,6426724,False,,כפר סבא,ששת הימים,,6426-724-13,6426/724,8906.991316802436,32.1750415737,34.9006671897,2001
2001-03-28,2001-03-28,"עמק דותן 25, כפר סבא",עמק דותן 25,7618-145-2,דירה בבית קומות,5.0,קרקע+ראשונה,149.2,1255000,,,2001.0,,,7477407700,1,7618145,False,,כפר סבא,עמק דותן,,7618-145-2,7618/145,8411.528150134049,32.1802262117,34.9359160827,2001
2001-03-26,2001-03-26,"החרוב 9, כפר סבא",החרוב 9,7590-30-0,,3.0,ראשונה,75.0,588000,,,1970.0,,,7476974948,1,759030,False,,כפר סבא,החרוב,,7590-30-0,7590/30,7840.0,32.1810214219,34.9385163031,2001
2001-03-26,2001-03-26,"עמק חפר 5, כפר סבא",עמק חפר 5,7618-224-13,דירה בבית קומות,5.0,קרקע,108.6,1000000,,,2001.0,,,7477247342,1,7618224,False,,כפר סבא,עמק חפר,,7618-224-13,7618/224,9208.103130755066,32.1805291878,34.9326292173,2001
2001-03-25,2001-03-25,"הרצל 8, כפר סבא",הרצל 8,6439-470-10,,4.0,קרקע תחתונה+שניה,107.0,1032000,,,2002.0,,5.0,7476976872,1,6439470,False,,כפר סבא,הרצל,,6439-470-10,6439/470,9644.859813084113,32.1706812121,34.9102833474,2001
2001-03-22,2001-03-22,"שב""ד 5, כפר סבא","שב""ד 5",7620-152-1,,3.0,,60.0,1209000,,,1945.0,,,7477909198,1,7620152,False,,כפר סבא,"שב""ד",,7620-152-1,7620/152,20150.0,32.1906223817,34.9057538829,2001
2001-03-21,2001-03-21,"הראשונים 14, כפר סבא",הראשונים 14,6435-276-8,,,שלישית,95.54,935000,,,2001.0,,6.0,7476910938,1,6435276,False,,כפר סבא,הראשונים,,6435-276-8,6435/276,9786.4768683274,32.1697729171,34.9206066593,2001
2001-03-21,2001-03-21,"יסמין 3, כפר סבא",יסמין 3,6427-635-0,,4.0,שלישית,100.0,941000,,,1997.0,,6.0,7477332146,1,6427635,False,,כפר סבא,יסמין,,6427-635-0,6427/635,9410.0,32.1776645512,34.8957439074,2001
2001-03-21,2001-03-21,"יציאת אירופה 32, כפר סבא",יציאת אירופה 32,6435-210-24,,,שישית,91.4,863000,,,1999.0,,7.0,7477567170,1,6435210,False,,כפר סבא,יציאת אירופה,,6435-210-24,6435/210,9442.013129102845,32.1713141656,34.9205295058,2001
2001-03-18,2001-03-18,"זאב גולד 16, כפר סבא",זאב גולד 16,6433-522-10,,2.0,ראשונה,46.4,450000,,,1960.0,,4.0,7476824728,1,6433522,False,,כפר סבא,גולד זאב,,6433-522-10,6433/522,9698.275862068966,32.1798878721,34.9148967799,2001
2001-03-15,2001-03-15,"אח""י דקר 1, כפר סבא","אח""י דקר 1",6435-70-28,,3.0,ראשונה,63.6,438000,,,1960.0,,4.0,7476566616,1,643570,False,,כפר סבא,"אח""י דקר",,6435-70-28,6435/70,6886.792452830188,32.1731486353,34.921557825,2001
2001-03-14,2001-03-14,"העבודה 3, כפר סבא",העבודה 3,6440-258-6,דירה בבית קומות,6.0,שלישית  + רביעית,148.0,1496000,,,1999.0,,4.0,7476610498,1,6440258,False,,כפר סבא,העבודה,,6440-258-6,6440/258,10108.108108108108,32.1788133346,34.907719307,2001
2001-03-14,2001-03-14,"איתמר בן-אב""י 1, כפר סבא","איתמר בן-אב""י 1",6431-318-1,,6.0,,150.0,1615000,,,1983.0,,,7476897396,1,6431318,False,,כפר סבא,"בן אב""י איתמר",,6431-318-1,6431/318,10766.666666666666,32.1854375127,34.9048656962,2001
2001-03-14,2001-03-14,"עמק חפר 5, כפר סבא",עמק חפר 5,7618-224-8,,,שניה+קרקע,83.9,774000,,,2001.0,,,7476695376,1,7618224,False,,כפר סבא,עמק חפר,,7618-224-8,7618/224,9225.268176400476,32.1805291878,34.9326292173,2001
2001-03-10,2001-10-03,"המוביל 16, כפר סבא",המוביל 16,7618-292-18,דירה בבית קומות,3.0,רביעית,76.18,731000,,,2001.0,,4.0,7482680718,1,7618292,False,,כפר סבא,המוביל,,7618-292-18,7618/292,9595.694407981096,32.1796820387,34.9315736402,2001
2001-03-10,2001-10-03,"עמק איילון 2, כפר סבא",עמק איילון 2,7618-291-18,דירה בבית קומות,3.0,רביעית,76.18,731000,,,2001.0,,4.0,7482678202,1,7618291,False,,כפר סבא,עמק אילון,,7618-291-18,7618/291,9595.694407981096,32.1789850131,34.9316148398,2001
2001-03-09,2001-09-03,"הבנים 5, כפר סבא",הבנים 5,6439-241-18,,5.0,חמישית,132.36,1320000,,,1984.0,,5.0,7481817434,1,6439241,False,,כפר סבא,הבנים,,6439-241-18,6439/241,9972.8014505893,32.17287899,34.9132410518,2001
2001-03-08,2001-08-03,"ששת הימים 38, כפר סבא",ששת הימים 38,6427-524-10,,4.0,חמישית,93.2,843000,,,1993.0,,6.0,7481247486,1,6427524,False,,כפר סבא,ששת הימים,,6427-524-10,6427/524,9045.064377682404,32.1763649603,34.8945293565,2001
2001-03-08,2001-08-03,"לוינסקי 8, כפר סבא",לוינסקי 8,6430-147-2,,5.0,ראשונה,105.68,1370000,,,2002.0,,3.0,7481011722,1,6430147,False,,כפר סבא,לוינסקי,,6430-147-2,6430/147,12963.663890991673,32.1854691425,34.9005424822,2001
2001-03-07,2001-07-03,"בקעת רמון 4, כפר סבא",בקעת רמון 4,7606-108-1,דירה בבית קומות,5.0,מרתף+קרקע+ראשונה,193.9,1410000,,,2001.0,,,7480097156,1,7606108,False,,כפר סבא,בקעת רמון,,7606-108-1,7606/108,7271.789582258896,32.1818640312,34.9287961497,2001
2001-03-06,2001-06-03,"השקמה 8, כפר סבא",השקמה 8,7602-186-22,,3.0,שלישית,60.2,392000,,,2021.0,,4.0,7479150326,1,7602186,False,,כפר סבא,השקמה,,7602-186-22,7602/186,6511.627906976744,32.1797833353,34.939383857,2001
2001-03-04,2001-04-03,"עמק חפר 5, כפר סבא",עמק חפר 5,7618-224-23,,,רביעית+חמישית+קרקע,147.6,1154000,,,2001.0,,,7477351016,1,7618224,False,,כפר סבא,עמק חפר,,7618-224-23,7618/224,7818.428184281843,32.1805291878,34.9326292173,2001
2001-03-04,2001-04-03,"עמק חפר 5, כפר סבא",עמק חפר 5,7618-224-19,,,שניה+קרקע,84.0,774000,,,2001.0,,,7477352200,1,7618224,False,,כפר סבא,עמק חפר,,7618-224-19,7618/224,9214.285714285714,32.1805291878,34.9326292173,2001
2001-03-04,2001-04-03,"הכלנית 13, כפר סבא",הכלנית 13,6427-162-1,,4.0,ראשונה,88.0,743000,,,1973.0,,4.0,7479250374,1,6427162,False,,כפר סבא,הכלנית,,6427-162-1,6427/162,8443.181818181818,32.1741610024,34.8946026622,2001
2001-03-02,2001-02-03,"משה דיין 4, כפר סבא",משה דיין 4,6435-191-5,,4.0,שניה,77.01,702000,,,1998.0,,5.0,7475830390,1,6435191,False,,כפר סבא,דיין משה,,6435-191-5,6435/191,9115.699259836383,32.1736133347,34.9199117477,2001
2001-03-01,2001-01-03,"גאולה 26, כפר סבא",גאולה 26,6426-667-14,,5.0,חמישית+גג,125.97,1084000,,,1985.0,,6.0,7474255818,1,6426667,False,,כפר סבא,גאולה,,6426-667-14,6426/667,8605.22346590458,32.1740992448,34.899264056,2001
2001-03-01,2001-01-03,"טרומפלדור 3, כפר סבא",טרומפלדור 3,6426-963-5,,4.0,שלישית,113.64,1163000,,,2002.0,,4.0,7474801642,1,6426963,False,,כפר סבא,טרומפלדור,,6426-963-5,6426/963,10234.07250967969,32.1726089349,34.9058918343,2001
2001-03-01,2001-01-03,"תל חי 48, כפר סבא",תל חי 48,6436-109-17,,4.0,רביעית,104.18,736000,,,1982.0,,4.0,7474468272,1,6436109,False,,כפר סבא,תל חי,,6436-109-17,6436/109,7064.695718947975,32.1762289746,34.9150799358,2001
2001-03-01,2001-01-03,"בן גוריון 25, כפר סבא",בן גוריון 25,6441-275-3,,1.0,ראשונה,105.02,71000,,,1984.0,,4.0,7474176416,1,6441275,False,,כפר סבא,בן גוריון,,6441-275-3,6441/275,676.0617025328509,32.1729886202,34.9065660967,2001
2001-02-27,2001-02-27,"החי""ל 8, כפר סבא","החי""ל 8",6428-159-1,,6.0,ראשונה,256.0,2366000,,,1978.0,,1.0,7476114846,1,6428159,False,,כפר סבא,"החי""ל",,6428-159-1,6428/159,9242.1875,32.1783778228,34.8980231064,2001
2001-02-27,2001-02-27,"רוטשילד 26, כפר סבא",רוטשילד 26,6441-363-4,דירה בבית קומות,4.0,שניה,87.18,913000,,,2001.0,,4.0,7476973172,1,6441363,False,,כפר סבא,רוטשילד,,6441-363-4,6441/363,10472.585455379673,32.1727744426,34.9080613896,2001
2001-02-27,2001-02-27,"העמק 9, כפר סבא",העמק 9,6437-74-12,,3.0,קומה ‎3‏,93.0,555000,,,2017.0,,7.0,7476112922,1,643774,False,,כפר סבא,העמק,,6437-74-12,6437/74,5967.741935483871,32.1720795391,34.9146939225,2001
2001-02-26,2001-02-26,"הגליל 14, כפר סבא",הגליל 14,6435-126-14,דירה בבית קומות,3.0,שניה,76.66,731000,,,2002.0,,5.0,7476300364,1,6435126,False,,כפר סבא,הגליל,,6435-126-14,6435/126,9535.611792329768,32.1747587326,34.9175208595,2001
2001-02-26,2001-02-26,"אז""ר 185, כפר סבא","אז""ר 185",6434-455-2,,5.0,קרקע + ראשונה+שניה,181.38,1394000,,,2001.0,,,7477061676,1,6434455,False,,כפר סבא,"אז""ר",,6434-455-2,6434/455,7685.522108280958,32.1809269294,34.9235358531,2001
2001-02-25,2001-02-25,"סירקין 25, כפר סבא",סירקין 25,6430-146-13,,4.0,ראשונה,82.3,1073000,,,1999.0,,5.0,7476100786,1,6430146,False,,כפר סבא,סירקין,,6430-146-13,6430/146,13037.667071688944,32.1857646916,34.9009274079,2001
2001-02-25,2001-02-25,"ברנר 6, כפר סבא",ברנר 6,6428-40-10,,3.0,ב,70.41,639000,,,1964.0,,4.0,7475836532,1,642840,False,,כפר סבא,ברנר,,6428-40-10,6428/40,9075.415423945462,32.1778472045,34.9006198658,2001
2001-02-25,2001-02-25,"קפלנסקי 1, כפר סבא",קפלנסקי 1,7620-188-35,דירה בבית קומות,3.0,שלישית,75.0,610000,,,2001.0,,4.0,7477020828,1,7620188,False,,כפר סבא,קפלנסקי,,7620-188-35,7620/188,8133.333333333333,32.1897313921,34.9040751416,2001
2001-02-25,2001-02-25,"בן גוריון 25, כפר סבא",בן גוריון 25,6441-275-8,,4.0,שניה,105.02,771000,,,1984.0,,4.0,7476091536,1,6441275,False,,כפר סבא,בן גוריון,,6441-275-8,6441/275,7341.458769758142,32.1729886202,34.9065660967,2001
2001-02-25,2001-02-25,"סירקין 25, כפר סבא",סירקין 25,6430-146-16,,4.0,שניה,82.3,982000,,,1999.0,,5.0,7476097752,1,6430146,False,,כפר סבא,סירקין,,6430-146-16,6430/146,11931.956257594167,32.1857646916,34.9009274079,2001
2001-02-23,2001-02-23,"רוטשילד 17, כפר סבא",רוטשילד 17,6426-773-5,,4.0,שניה,91.65,819000,,,1989.0,,4.0,7476564100,1,6426773,False,,כפר סבא,רוטשילד,,6426-773-5,6426/773,8936.170212765957,32.1717013268,34.9070970842,2001
2001-02-21,2001-02-21,"הרצל 43, כפר סבא",הרצל 43,6439-451-2,,5.0,ראשונה+קרקע,107.44,1068000,,,1999.0,,4.0,7476009766,1,6439451,False,,כפר סבא,הרצל,,6439-451-2,6439/451,9940.431868950112,32.1733293821,34.9104681471,2001
2001-02-21,2001-02-21,"מורן 12, כפר סבא",מורן 12,6430-192-0,,6.0,שניה,135.0,1113000,,,1994.0,,3.0,7475865022,1,6430192,False,,כפר סבא,מורן,,6430-192-0,6430/192,8244.444444444445,32.1872506866,34.8994487496,2001
2001-02-19,2001-02-19,"אח""י אילת 6, כפר סבא","אח""י אילת 6",6435-83-44,,3.0,שלישית,43.7,498000,,,1960.0,,4.0,7476031744,1,643583,False,,כפר סבא,"אח""י אילת",,6435-83-44,6435/83,11395.881006864987,32.1736181238,34.9219456934,2001
2001-02-18,2001-02-18,"הבנים 20, כפר סבא",הבנים 20,6439-335-11,,4.0,קרקע + ראשונה,93.58,714000,,,1980.0,,4.0,7475652642,1,6439335,False,,כפר סבא,הבנים,,6439-335-11,6439/335,7629.835434921992,32.1739288855,34.9105880264,2001
2001-02-18,2001-02-18,"תל חי 51, כפר סבא",תל חי 51,6438-222-13,,5.0,שניה,117.14,862000,,,1984.0,,6.0,7475631256,1,6438222,False,,כפר סבא,תל חי,,6438-222-13,6438/222,7358.716066245518,32.1759703915,34.9142356125,2001
2001-02-15,2001-02-15,"הר אדום 6, כפר סבא",הר אדום 6,6434-516-1,דירה בבית קומות,7.0,,269.0,1764000,,,2001.0,,,7475982386,1,6434516,False,,כפר סבא,הר אדום,,6434-516-1,6434/516,6557.6208178438665,32.1778303414,34.9219127282,2001
2001-02-15,2001-02-15,"קפלנסקי 1, כפר סבא",קפלנסקי 1,7620-188-36,דירה בבית קומות,3.0,שלישית,100.0,610000,,,2001.0,,4.0,7475960260,1,7620188,False,,כפר סבא,קפלנסקי,,7620-188-36,7620/188,6100.0,32.1897313921,34.9040751416,2001
2001-02-15,2001-02-15,"טשרניחובסקי 60, כפר סבא",טשרניחובסקי 60,6428-257-2,,3.0,,40.92,878000,,,1959.0,,,7475707550,1,6428257,False,,כפר סבא,טשרניחובסקי,,6428-257-2,6428/257,21456.500488758556,32.1818638481,34.8988446677,2001
2001-02-15,2001-02-15,"הפרדס 7, כפר סבא",הפרדס 7,6426-576-24,,3.0,ב,41.1,500000,,,1960.0,,2.0,7475630072,1,6426576,False,,כפר סבא,הפרדס,,6426-576-24,6426/576,12165.4501216545,32.1749484067,34.8981977121,2001
2001-02-14,2001-02-14,"עמק זבולון 30, כפר סבא",עמק זבולון 30,7618-144-1,דירה בבית קומות,6.0,קרקע+ראשונה,149.2,1130000,,,2000.0,,,7475872940,1,7618144,False,,כפר סבא,עמק זבולון,,7618-144-1,7618/144,7573.72654155496,32.1804171811,34.9361387386,2001
2001-02-09,2001-09-02,"המוביל 18, כפר סבא",המוביל 18,7618-226-12,דירה בבית קומות,4.0,קרקע,83.64,672000,,,2001.0,,6.0,7481978014,1,7618226,False,,כפר סבא,המוביל,,7618-226-12,7618/226,8034.433285509325,32.1807908353,34.931717923,2001
2001-02-09,2001-09-02,"עמק איילון 2, כפר סבא",עמק איילון 2,7618-291-11,דירה בבית קומות,4.0,ראשונה,83.42,629000,,,2001.0,,4.0,7482683826,1,7618291,False,,כפר סבא,עמק אילון,,7618-291-11,7618/291,7540.158235435148,32.1789850131,34.9316148398,2001
2001-02-09,2001-09-02,"בקעת רמון 8, כפר סבא",בקעת רמון 8,7606-107-1,דירה בבית קומות,6.0,מרתף+קרקע+ראשונה,193.9,1390000,,,2001.0,,,7481998660,1,7606107,False,,כפר סבא,בקעת רמון,,7606-107-1,7606/107,7168.643630737493,32.1818720833,34.9285837719,2001
2001-02-09,2001-09-02,"שלמה המלך 10, כפר סבא",שלמה המלך 10,7535-43-15,,5.0,ב',125.0,502000,,,1970.0,,4.0,7481554290,1,753543,False,,כפר סבא,שלמה המלך,,7535-43-15,7535/43,4016.0,32.1830075734,34.9424552296,2001
2001-02-09,2001-09-02,"העמק 2, כפר סבא",העמק 2,6437-93-10,,3.0,שניה,63.0,600000,,,1970.0,,4.0,7482439626,1,643793,False,,כפר סבא,העמק,,6437-93-10,6437/93,9523.809523809525,32.171165409,34.9149416839,2001
2001-02-08,2001-08-02,"המייסדים 4, כפר סבא",המייסדים 4,6438-232-9,,4.0,ד' + ה',103.75,969000,,,1970.0,,6.0,7480741844,1,6438232,False,,כפר סבא,המיסדים,,6438-232-9,6438/232,9339.759036144578,32.175566446,34.9138861173,2001
2001-02-08,2001-08-02,"העבודה 5, כפר סבא",העבודה 5,6440-253-3,,4.0,שניה,101.56,801000,,,1995.0,,3.0,7481010612,1,6440253,False,,כפר סבא,העבודה,,6440-253-3,6440/253,7886.963371406066,32.1789471627,34.9077622316,2001
2001-02-08,2001-08-02,"הרצל 41, כפר סבא",הרצל 41,6439-158-9,,4.0,שלישית,85.34,674000,,,2021.0,,5.0,7480729116,1,6439158,False,,כפר סבא,הרצל,,6439-158-9,6439/158,7897.820482774783,32.1731883845,34.9103557635,2001
2001-02-08,2001-08-02,"הגליל 47, כפר סבא",הגליל 47,6433-601-13,,4.0,רביעית,97.0,661000,,,1983.0,,8.0,7481055678,1,6433601,False,,כפר סבא,הגליל,,6433-601-13,6433/601,6814.432989690722,32.1793646735,34.9182798624,2001
2001-02-08,2001-08-02,"בקעת בית נטופה 8, כפר סבא",בקעת בית נטופה 8,7606-115-12,,,רביעית+גג +קרקע,142.6,1087000,,,2000.0,,,7481338284,1,7606115,False,,כפר סבא,בקעת בית נטופה,,7606-115-12,7606/115,7622.720897615709,32.1815310752,34.929773582,2001
2001-02-05,2001-05-02,"הנביאים 30, כפר סבא",הנביאים 30,7594-131-11,,4.0,שלישית,98.9,1102000,,,1970.0,,5.0,7478192914,1,7594131,False,,כפר סבא,הנביאים,,7594-131-11,7594/131,11142.56825075834,32.1839005743,34.9377145469,2001
2001-02-05,2001-05-02,"אז""ר 73, כפר סבא","אז""ר 73",6432-74-3,,4.0,שניה,82.31,960000,,,1996.0,,7.0,7477777182,1,643274,False,,כפר סבא,"אז""ר",,6432-74-3,6432/74,11663.224395577694,32.182941027,34.915330668,2001
2001-02-04,2001-04-02,"סירני 26, כפר סבא",סירני 26,6427-291-1,,5.0,,160.0,1359000,,,1990.0,,,7477187994,1,6427291,False,,כפר סבא,סירני,,6427-291-1,6427/291,8493.75,32.1803214539,34.8925612107,2001
2001-02-04,2001-04-02,"הכרמל 18, כפר סבא",הכרמל 18,6440-221-48,,4.0,רביעית,126.41,1180000,,,1996.0,,5.0,7477178300,1,6440221,False,,כפר סבא,הכרמל,,6440-221-48,6440/221,9334.704532869237,32.1785413937,34.9061959858,2001
2001-02-01,2001-01-02,"הרצפלד אברהם 2, כפר סבא",הרצפלד אברהם 2,6431-307-4,,4.0,ראשונה,78.25,676000,,,1970.0,,4.0,7474428534,1,6431307,False,,כפר סבא,הרצפלד אברהם,,6431-307-4,6431/307,8638.977635782747,32.1848893098,34.9037206711,2001
2001-01-31,2001-01-31,"הרמה 2, כפר סבא",הרמה 2,6433-536-9,,3.0,שלישית,73.4,529000,,,1973.0,,4.0,7474670292,1,6433536,False,,כפר סבא,הרמה,,6433-536-9,6433/536,7207.08446866485,32.1776731253,34.9177575372,2001
2001-01-31,2001-01-31,"הגר""א 14, כפר סבא","הגר""א 14",6426-634-3,,3.0,ראשונה,69.24,632000,,,1974.0,,4.0,7475386538,1,6426634,False,,כפר סבא,"הגר""א",,6426-634-3,6426/634,9127.671865973429,32.1716467343,34.9060500592,2001
2001-01-31,2001-01-31,"העמק 8, כפר סבא",העמק 8,6437-132-11,,8.0,"שלישית,רביעית+גג",186.54,1115000,,,1980.0,,3.0,7475023346,1,6437132,False,,כפר סבא,העמק,,6437-132-11,6437/132,5977.270290554305,32.17150793,34.9150451018,2001
2001-01-31,2001-01-31,"אסף שמחוני 7, כפר סבא",אסף שמחוני 7,6434-620-1,,,קרקע + ראשונה,163.6,1452000,,,2000.0,,,7475173418,1,6434620,False,,כפר סבא,שמחוני אסף,,6434-620-1,6434/620,8875.305623471882,32.1808226662,34.9197601636,2001
2001-01-30,2001-01-30,"אח""י אילת 6, כפר סבא","אח""י אילת 6",6435-83-15,,3.0,רביעית,43.7,149000,,,1960.0,,4.0,7475445146,1,643583,False,,כפר סבא,"אח""י אילת",,6435-83-15,6435/83,3409.610983981693,32.1736181238,34.9219456934,2001
2001-01-29,2001-01-29,"נורדאו 3, כפר סבא",נורדאו 3,6435-98-2,,2.0,ראשונה,47.9,417000,,,1960.0,,4.0,7475211232,1,643598,False,,כפר סבא,נורדאו,,6435-98-2,6435/98,8705.636743215031,32.1722532482,34.919473369,2001
2001-01-25,2001-01-25,"הר צין 6, כפר סבא",הר צין 6,6434-298-1,,6.0,,220.0,3251000,,,2000.0,,,7475609426,1,6434298,False,,כפר סבא,הר צין,,6434-298-1,6434/298,14777.272727272728,32.1815241016,34.9222977297,2001
2001-01-25,2001-01-25,"יציאת אירופה 2, כפר סבא",יציאת אירופה 2,6435-99-22,,3.0,שלישית,38.9,568000,,,1960.0,,3.0,7475064786,1,643599,False,,כפר סבא,יציאת אירופה,,6435-99-22,6435/99,14601.542416452445,32.1718714537,34.919497346,2001
2001-01-25,2001-01-25,"תל חי 83, כפר סבא",תל חי 83,6433-518-22,,3.0,שלישית,48.9,67000,,,1966.0,,4.0,7474807192,1,6433518,False,,כפר סבא,תל חי,,6433-518-22,6433/518,1370.1431492842537,32.1801668714,34.9155013114,2001
2001-01-23,2001-01-23,"טרומפלדור 24, כפר סבא",טרומפלדור 24,6426-898-3,,5.0,שניה +קרקע,125.07,993000,,,1993.0,,2.0,7475579900,1,6426898,False,,כפר סבא,טרומפלדור,,6426-898-3,6426/898,7939.553849844087,32.1711971978,34.9049356993,2001
2001-01-21,2001-01-21,"ויצמן 169, כפר סבא",ויצמן 169,6435-172-2,,,קרקע,52.92,429000,,,1985.0,,5.0,7475572574,1,6435172,False,,כפר סבא,ויצמן,,6435-172-2,6435/172,8106.57596371882,32.1734831633,34.9183329092,2001
2001-01-18,2001-01-18,"בן-גוריון 20, כפר סבא",בן-גוריון 20,6426-1008-6,,6.0,שלישית,104.81,990000,,,2000.0,,4.0,7475244828,1,64261008,False,,כפר סבא,בן גוריון,,6426-1008-6,6426/1008,9445.663581719302,32.1730833818,34.9041567773,2001
2001-01-18,2001-01-18,"קפלנסקי 1, כפר סבא",קפלנסקי 1,7620-188-39,דירה בבית קומות,3.0,שלישית,100.0,610000,,,2001.0,,4.0,7475963368,1,7620188,False,,כפר סבא,קפלנסקי,,7620-188-39,7620/188,6100.0,32.1897313921,34.9040751416,2001
2001-01-17,2001-01-17,"התע""ש 20, כפר סבא","התע""ש 20",7607-125-273,,,רביעית,99.1,739000,,,1999.0,,5.0,7475401190,1,7607125,False,1% ב 0.9 שנים,כפר סבא,"התע""ש",1.11,7607-125-273,7607/125,7457.114026236126,32.1759745495,34.9277395245,2001
2001-01-17,2001-01-17,"מבצע יונתן 3, כפר סבא",מבצע יונתן 3,6433-631-12,,4.0,רביעית,92.2,699000,,,1980.0,,5.0,7475253486,1,6433631,False,,כפר סבא,מבצע יונתן,,6433-631-12,6433/631,7581.344902386117,32.1796128765,34.9164147743,2001
2001-01-16,2001-01-16,"הר צין 6, כפר סבא",הר צין 6,6434-298-2,,6.0,,220.0,3241000,,,2000.0,,,7475609944,1,6434298,False,,כפר סבא,הר צין,,6434-298-2,6434/298,14731.818181818182,32.1815241016,34.9222977297,2001
2001-01-16,2001-01-16,"קפלנסקי 1, כפר סבא",קפלנסקי 1,7620-188-43,דירה בבית קומות,4.0,שלישית,100.0,751000,,,2001.0,,4.0,7475954858,1,7620188,False,,כפר סבא,קפלנסקי,,7620-188-43,7620/188,7510.0,32.1897313921,34.9040751416,2001
2001-01-08,2001-08-01,"הרצפלד אברהם 10, כפר סבא",הרצפלד אברהם 10,6431-309-16,,4.0,רביעית,78.25,526000,,,1970.0,,4.0,7481273534,1,6431309,False,,כפר סבא,הרצפלד אברהם,,6431-309-16,6431/309,6722.044728434505,32.1850698561,34.9025035595,2001
2001-01-07,2001-07-01,"הרעות 10, כפר סבא",הרעות 10,6435-241-10,דירה בבית קומות,3.0,קרקע+קרקע תחתונה,82.4,797000,,,2001.0,,1.0,7480524506,1,6435241,False,,כפר סבא,הרעות,,6435-241-10,6435/241,9672.33009708738,32.1692284063,34.9230813895,2001
2001-01-06,2001-06-01,"יציאת אירופה 32, כפר סבא",יציאת אירופה 32,6435-210-18,,,חמישית,105.4,834000,,,1999.0,,7.0,7479148994,1,6435210,False,,כפר סבא,יציאת אירופה,,6435-210-18,6435/210,7912.713472485768,32.1713141656,34.9205295058,2001
2001-01-05,2001-05-01,"הגליל 14, כפר סבא",הגליל 14,6435-126-4,דירה בבית קומות,5.0,שניה+קרקע,116.98,1105000,,,2002.0,,5.0,7478768116,1,6435126,False,,כפר סבא,הגליל,,6435-126-4,6435/126,9446.059155411182,32.1747587326,34.9175208595,2001
2001-01-04,2001-04-01,"רחל המשוררת 9, כפר סבא",רחל המשוררת 9,6433-31-1,,2.0,א,45.2,448000,,,1960.0,,2.0,7478196022,1,643331,False,,כפר סבא,רחל המשוררת,,6433-31-1,6433/31,9911.50442477876,32.1790961861,34.9102467332,2001
2001-01-03,2001-03-01,"טרומפלדור 13, כפר סבא",טרומפלדור 13,6426-971-4,,4.0,ראשונה,98.64,1091000,,,1999.0,,3.0,7476144742,1,6426971,False,,כפר סבא,טרומפלדור,,6426-971-4,6426/971,11060.421735604215,32.1717799439,34.905627687,2001
2001-01-03,2001-03-01,"האילנות 19, כפר סבא",האילנות 19,7590-24-0,,4.0,,74.0,730000,,,1970.0,,1.0,7476371700,1,759024,False,,כפר סבא,האילנות,,7590-24-0,7590/24,9864.864864864863,32.1802047123,34.937962088,2001
2001-01-02,2001-02-01,"התותחנים 2, כפר סבא",התותחנים 2,6435-188-29,,5.0,ראשונה,117.32,942000,,,1992.0,,7.0,7475279534,1,6435188,False,,כפר סבא,התותחנים,,6435-188-29,6435/188,8029.321513808388,32.1741398853,34.9200094512,2001
2001-01-02,2001-02-01,"התותחנים 2, כפר סבא",התותחנים 2,6435-188-56,,5.0,חמישית + שישית,143.25,1118000,,,1992.0,,7.0,7475278350,1,6435188,False,,כפר סבא,התותחנים,,6435-188-56,6435/188,7804.537521815008,32.1741398853,34.9200094512,2001
2001-01-02,2001-02-01,"ביאליק 6, כפר סבא",ביאליק 6,6426-974-3,,5.0,שניה+קרקע,107.13,1048000,,,2000.0,,4.0,7475265474,1,6426974,False,,כפר סבא,ביאליק,,6426-974-3,6426/974,9782.507234201435,32.1703579232,34.9084241844,2001
2001-01-02,2001-02-01,"הרצל 56, כפר סבא",הרצל 56,6438-269-14,,4.0,רביעית,96.0,820000,,,1983.0,,7.0,7475321122,1,6438269,False,,כפר סבא,הרצל,,6438-269-14,6438/269,8541.666666666666,32.1759643145,34.9120120299,2001
2001-01-02,2001-02-01,"הכרמל 32, כפר סבא",הכרמל 32,6440-189-2,,4.0,ראשונה,100.0,911000,,,1989.0,,4.0,7475079438,1,6440189,False,,כפר סבא,הכרמל,,6440-189-2,6440/189,9110.0,32.1780112485,34.9084155876,2001
