DEALDATE,DEALDATETIME,FULLADRESS,DISPLAYADRESS,GUSH,DEALNATUREDESCRIPTION,ASSETROOMNUM,FLOORNO,DEALNATURE,DEALAMOUNT,NEWPROJECTTEXT,PROJECTNAME,BUILDINGYEAR,YEARBUILT,BUILDINGFLOORS,KEYVALUE,TYPE,POLYGON_ID,TREND_IS_NEGATIVE,TREND_FORMAT,city_name,street,presentage per year,GUSH - Copy,Gush_Helka,Price per sqm,lat,lon,Year
2014-12-31,2014-12-31,"סשה ארגוב 14, רעננה",סשה ארגוב 14,7661-167-2,דירה בבית קומות,5.0,קרקע,116.27,2860000,,,2014.0,,6.0,8512525324,1,7661167,False,,רעננה,סשה ארגוב,,7661-167-2,7661/167,24597.918637653736,32.1938025935,34.8665569746,2014
2014-12-30,2014-12-30,"יעקב אורלנד 8, רעננה",יעקב אורלנד 8,7661-167-74,דירה בבית קומות,5.0,שלישית,133.27,2701000,,,2014.0,,6.0,8511256076,1,7661167,False,,רעננה,סשה ארגוב,,7661-167-74,7661/167,20267.126885270503,32.1938025935,34.8665569746,2014
2014-12-30,2014-12-30,"המעלות 9, רעננה",המעלות 9,6586-585-9,דירה בבית קומות,6.0,שישית,150.0,4450000,1.0,המעלות 9 רעננה,2015.0,,2.0,8510462944,1,6586585,False,,רעננה,המעלות,,6586-585-9,6586/585,29666.666666666668,32.1789011634,34.8748664569,2014
2014-12-30,2014-12-30,"ויצמן 230, רעננה",ויצמן 230,7649-196-12,דירה בבית קומות,4.0,קרקע,81.39,1830000,,,1995.0,,2.0,8510441706,1,7649196,False,78% ב 9.8 שנים,רעננה,ויצמן,7.96,7649-196-12,7649/196,22484.33468485072,32.1926477217,34.8495126359,2014
2014-12-29,2014-12-29,"יפה אליעזר 17, רעננה",יפה אליעזר 17,6580-286-15,דירה בבית קומות,3.0,ד',79.9,1520000,,,1970.0,,3.0,8510230362,1,6580286,False,,רעננה,יפה אליעזר,,6580-286-15,6580/286,19023.77972465582,32.1821417729,34.8749520493,2014
2014-12-29,2014-12-29,"הפרחים 13, רעננה",הפרחים 13,7651-623-86,דירה בבית קומות,2.5,קרקע ושניה,67.0,1485000,,,2000.0,,7.0,8512029598,1,7651623,False,,רעננה,הפרחים,,7651-623-86,7651/623,22164.17910447761,32.1799646053,34.8536566781,2014
2014-12-28,2014-12-28,"גאולה 7, רעננה",גאולה 7,7649-140-42,דירה בבית קומות,3.0,שלישית,50.6,1150000,,,2023.0,,3.0,8511720056,1,7649140,False,,רעננה,גאולה,,7649-140-42,7649/140,22727.272727272728,32.194438498,34.8554493122,2014
2014-12-26,2014-12-26,"הנוטרים 5, רעננה",הנוטרים 5,6579-406-18,דירה בבית קומות,5.0,רביעית,146.0,2440000,1.0,הגדוד העברי רעננה,2015.0,,6.0,8511091352,1,6579406,False,,רעננה,הנוטרים,,6579-406-18,6579/406,16712.328767123287,32.1839968412,34.8659906775,2014
2014-12-26,2014-12-26,"דוד אלעזר 23, רעננה",דוד אלעזר 23,6581-427-2,קוטג' דו משפחתי,6.0,"קרקע,א'+ גג",184.2,4000000,,,1976.0,,,8510918414,1,6581427,False,,רעננה,אלעזר דוד,,6581-427-2,6581/427,21715.526601520087,32.180415749,34.885897585,2014
2014-12-25,2014-12-25,"ויצמן 194, רעננה",ויצמן 194,7652-27-1,קרקע למגורים,,,621.0,2800000,,,,,,8510391460,1,765227,False,,רעננה,ויצמן,,7652-27-1,7652/27,4508.856682769726,32.1932675372,34.8554921011,2014
2014-12-25,2014-12-25,"הנשר 65, רעננה",הנשר 65,7650-302-9,דירה בבית קומות,5.5,שלישית+גג,124.4,2300000,,,1994.0,,4.0,8510921448,1,7650302,False,,רעננה,הנשר,,7650-302-9,7650/302,18488.745980707397,32.1921079894,34.8505349461,2014
2014-12-25,2014-12-25,"רבוצקי 5, רעננה",רבוצקי 5,6581-459-5,בית בודד,6.0,קרקע+א+ב+גג,165.08,2750000,,,1979.0,,2.0,8453427000,1,6581459,True,-2% ב 4 שנים,רעננה,רבוצקי,-0.5,6581-459-5,6581/459,16658.589774654713,32.1791086574,34.8843073958,2014
2014-12-24,2014-12-24,"קרן היסוד 50, רעננה",קרן היסוד 50,7655-378-18,דירה בבית קומות,5.5,שלישית,122.75,2650000,,,1995.0,,3.0,8510014800,1,7655378,True,-8% ב 3.3 שנים,רעננה,קרן היסוד,-2.42,7655-378-18,7655/378,21588.59470468432,32.1901656206,34.8739700464,2014
2014-12-24,2014-12-24,"שושנה דמארי 20, רעננה",שושנה דמארי 20,7661-163-38,דירה בבית קומות,5.0,שניה,129.72,2565000,,,2014.0,,5.0,8510170570,1,7661163,False,,רעננה,שושנה דמארי,,7661-163-38,7661/163,19773.358001850134,32.1955520357,34.8718946024,2014
2014-12-24,2014-12-24,"הקישון 3, רעננה",הקישון 3,6578-518-9,דירה בבית קומות,5.0,ראשונה,115.1,2800000,,,1995.0,,3.0,8510444666,1,6578518,False,,רעננה,הקישון,,6578-518-9,6578/518,24326.67245873154,32.1905680993,34.8827546509,2014
2014-12-24,2014-12-24,"שושנה דמארי 16, רעננה",שושנה דמארי 16,7661-163-6,דירה בבית קומות,4.0,שניה,95.11,2199000,,,2014.0,,6.0,8510171754,1,7661163,False,,רעננה,שושנה דמארי,,7661-163-6,7661/163,23120.597203238354,32.1955520357,34.8718946024,2014
2014-12-24,2014-12-24,"ההגנה 87, רעננה",ההגנה 87,7654-113-4,דירה בבית קומות,5.0,שניה,125.0,1600000,,,1970.0,,4.0,8510174788,1,7654113,False,159% ב 12.2 שנים,רעננה,ההגנה,13.03,7654-113-4,7654/113,12800.0,32.1886170169,34.8681203309,2014
2014-12-24,2014-12-24,"שושנה דמארי 16, רעננה",שושנה דמארי 16,7661-163-23,דירה בבית קומות,4.0,שניה,95.11,2034000,,,2014.0,,6.0,8510171162,1,7661163,False,,רעננה,שושנה דמארי,,7661-163-23,7661/163,21385.763852381453,32.1955520357,34.8718946024,2014
2014-12-23,2014-12-23,"הלוטוס 4, רעננה",הלוטוס 4,7651-645-8,דירה בבית קומות,6.0,רביעית+ חמישית,131.0,3325000,,,1999.0,,4.0,8453114498,1,7651645,False,,רעננה,הלוטוס,,7651-645-8,7651/645,25381.679389312976,32.1813221353,34.8563426034,2014
2014-12-22,2014-12-22,"עגנון 20, רעננה",עגנון 20,6583-713-32,דירה בבית קומות,4.0,חמישית,90.0,1700000,,,1992.0,,7.0,8453559460,1,6583713,False,74% ב 16.6 שנים,רעננה,עגנון,4.46,6583-713-32,6583/713,18888.88888888889,32.1757521644,34.8697639897,2014
2014-12-22,2014-12-22,"קרן היסוד 1, רעננה",קרן היסוד 1,6580-715-18,דירה בבית קומות,5.0,רביעית,105.8,2000000,,,1985.0,,7.0,8510031376,1,6580715,False,33% ב 2.5 שנים,רעננה,קרן היסוד,13.2,6580-715-18,6580/715,18903.59168241966,32.1819753182,34.8701164209,2014
2014-12-22,2014-12-22,"אלי כהן 16, רעננה",אלי כהן 16,7654-120-39,דירה בבית קומות,4.0,רביעית,100.0,1500000,1.0,אלי כהן 16,1970.0,2014.0,4.0,8510348910,1,7654120,False,,רעננה,אלי כהן,,7654-120-39,7654/120,15000.0,32.1873035556,34.8669370065,2014
2014-12-22,2014-12-22,"אסירי ציון 25, רעננה",אסירי ציון 25,7652-290-4,דירה בבית קומות,3.0,ראשונה,60.5,1395000,,,2024.0,,4.0,8453297130,1,7652290,False,,רעננה,אסירי ציון,,7652-290-4,7652/290,23057.85123966942,32.1944465531,34.8574562065,2014
2014-12-21,2014-12-21,"קרן היסוד 12, רעננה",קרן היסוד 12,6580-853-22,דירה בבית קומות,4.0,שלישית,89.4,1950000,,,1980.0,,5.0,8510016724,1,6580853,False,54% ב 6 שנים,רעננה,קרן היסוד,9.0,6580-853-22,6580/853,21812.080536912752,32.1833966845,34.8713481013,2014
2014-12-21,2014-12-21,"הפרחים 27, רעננה",הפרחים 27,7651-572-9,דירה בבית קומות,5.0,קרקע+קרקע תחתונה,116.46,2600000,,,1997.0,,2.0,8452936306,1,7651572,False,,רעננה,הפרחים,,7651-572-9,7651/572,22325.26189249528,32.1818827517,34.8535981806,2014
2014-12-21,2014-12-21,"אחד העם 12, רעננה",אחד העם 12,6581-705-6,בית בודד,6.0,ראשונה,165.0,3215000,,,1980.0,,1.0,8511305508,1,6581705,False,,רעננה,אחד העם,,6581-705-6,6581/705,19484.848484848484,32.1800844547,34.8833559632,2014
2014-12-21,2014-12-21,"נחום גוטמן 5, רעננה",נחום גוטמן 5,7654-444-11,דירה בבית קומות,5.0,ראשונה,113.6,2450000,,,1998.0,,3.0,8453109540,1,7654444,False,,רעננה,גוטמן נחום,,7654-444-11,7654/444,21566.901408450707,32.1909355363,34.8645694715,2014
2014-12-20,2014-12-20,"הצליל 3, רעננה",הצליל 3,6582-424-2,דירה בבית קומות,3.0,קרקע,72.7,1750000,,,1999.0,,3.0,8511504494,1,6582424,False,4% ב 4.6 שנים,רעננה,הצליל,0.87,6582-424-2,6582/424,24071.52682255846,32.182249069,34.8594329083,2014
2014-12-19,2014-12-19,"לאה גולדברג 4, רעננה",לאה גולדברג 4,7654-393-0,דירת גן,5.0,ראשונה,1251.0,2435000,,,1994.0,,3.0,8453300164,1,7654393,False,,רעננה,גולדברג לאה,,7654-393-0,7654/393,1946.4428457234208,32.1913570043,34.8600869581,2014
2014-12-18,2014-12-18,"הרב קוק 7, רעננה",הרב קוק 7,7656-127-1,מגורים,,,513.0,2800000,,,,,,8512281198,1,7656127,False,,רעננה,הרב קוק,,7656-127-1,7656/127,5458.089668615984,32.195746979,34.8747087418,2014
2014-12-18,2014-12-18,"החי""ל 30, רעננה","החי""ל 30",6579-415-37,דירה בבית קומות,5.0,חמישית,135.0,2987000,1.0,פסגת התמר החייל 30-32,2015.0,,5.0,8511296406,1,6579415,False,,רעננה,"החי""ל",,6579-415-37,6579/415,22125.925925925927,32.1856749165,34.8671602522,2014
2014-12-16,2014-12-16,"החרוב 5, רעננה",החרוב 5,7651-213-1,דירה בבית קומות,5.0,קרקע וראשונה,160.0,4700000,,,1978.0,,2.0,8511326894,1,7651213,False,,רעננה,החרוב,,7651-213-1,7651/213,29375.0,32.1912405324,34.8565795367,2014
2014-12-16,2014-12-16,"מכבי 50, רעננה",מכבי 50,6580-1085-39,דירה בבית קומות,5.0,קומה ‎3‏,112.2,2819000,,,2015.0,,7.0,8510162652,1,65801085,False,,רעננה,מכבי,,6580-1085-39,6580/1085,25124.777183600712,32.1836877338,34.8802879686,2014
2014-12-16,2014-12-16,"ברנדייס 23, רעננה",ברנדייס 23,6583-379-6,דירה בבית קומות,3.0,ראשונה,68.47,1635000,,,1970.0,,3.0,8510020350,1,6583379,False,92% ב 9.3 שנים,רעננה,ברנדיס,9.89,6583-379-6,6583/379,23879.0711260406,32.1782145802,34.8723853009,2014
2014-12-15,2014-12-15,"חנקין 38, רעננה",חנקין 38,6580-71-5,דירה בבית קומות,2.5,ראשונה,57.5,1370000,,,1983.0,,5.0,8453010158,1,658071,False,63% ב 7 שנים,רעננה,חנקין,9.0,6580-71-5,6580/71,23826.08695652174,32.1831503188,34.8780514662,2014
2014-12-14,2014-12-14,"אהוד מנור 11, רעננה",אהוד מנור 11,7661-169-3,דירה בבית קומות,5.0,ראשונה,127.74,2391000,,,2014.0,,5.0,8510179080,1,7661169,False,,רעננה,אהוד מנור,,7661-169-3,7661/169,18717.707844058245,32.1948996711,34.8674885174,2014
2014-12-12,2014-12-12,"רבקה גובר 12, רעננה",רבקה גובר 12,7649-198-19,דירה בבית קומות,3.5,שניה,80.81,1640000,,,1995.0,,3.0,8453339162,1,7649198,False,24% ב 6 שנים,רעננה,גובר רבקה,4.0,7649-198-19,7649/198,20294.518005197377,32.1953011394,34.8505746699,2014
2014-12-12,2014-12-12,"המייסדים 3, רעננה",המייסדים 3,6587-95-6,דירה בבית קומות,5.0,שניה,144.0,2913000,,,2015.0,,6.0,8511225440,1,658795,False,,רעננה,המיסדים,,6587-95-6,6587/95,20229.166666666668,32.1781109896,34.8826771039,2014
2014-12-11,2014-11-12,"פרדס משותף 50, רעננה",פרדס משותף 50,6583-459-2,קוטג' דו משפחתי,6.0,קרקע +ראשונה,199.0,3485000,,,1978.0,,2.0,8451347600,1,6583459,False,,רעננה,פרדס משותף,,6583-459-2,6583/459,17512.562814070352,32.1755568708,34.8663982747,2014
2014-12-11,2014-11-12,"קלאוזנר 19, רעננה",קלאוזנר 19,6586-451-12,דירה בבית קומות,5.0,שלישית,101.9,1900000,,,1970.0,,8.0,8451927686,1,6586451,False,,רעננה,קלאוזנר,,6586-451-12,6586/451,18645.73110893032,32.1777771065,34.8752068767,2014
2014-12-09,2014-09-12,"בורוכוב 35, רעננה",בורוכוב 35,6580-648-15,דירה בבית קומות,3.0,שניה,69.34,1400000,,,1970.0,,3.0,8450187946,1,6580648,False,23% ב 6 שנים,רעננה,בורוכוב,3.83,6580-648-15,6580/648,20190.36631093164,32.1839479,34.8768501447,2014
2014-12-08,2014-08-12,"ויצמן 228, רעננה",ויצמן 228,7649-196-5,דירה בבית קומות,3.5,ראשונה,81.02,1635000,,,1995.0,,2.0,8449234234,1,7649196,False,70% ב 7.2 שנים,רעננה,ויצמן,9.72,7649-196-5,7649/196,20180.202419155765,32.1926477217,34.8495126359,2014
2014-12-08,2014-08-12,"הגדוד העברי 4, רעננה",הגדוד העברי 4,6579-409-27,דירה בבית קומות,5.0,חמישית,145.0,2610000,1.0,הגדוד העברי,1970.0,2014.0,2.0,8447662178,1,6579409,False,,רעננה,הגדוד העברי,,6579-409-27,6579/409,18000.0,32.1834012466,34.8658088684,2014
2014-12-06,2014-06-12,"הגדוד העברי 5, רעננה",הגדוד העברי 5,6579-506-9,דירה בבית קומות,6.0,שלישית + גג,119.09,2345000,,,1980.0,,4.0,8445174446,1,6579506,False,,רעננה,הגדוד העברי,,6579-506-9,6579/506,19690.99000755731,32.1836033154,34.8651209291,2014
2014-12-06,2014-06-12,"שברץ 13, רעננה",שברץ 13,6581-378-9,דירה בבית קומות,3.0,א',73.7,1500000,,,2023.0,,3.0,8445075434,1,6581378,False,96% ב 14.5 שנים,רעננה,שברץ,6.62,6581-378-9,6581/378,20352.7815468114,32.1805901283,34.8813297877,2014
2014-12-06,2014-06-12,"שבזי 5, רעננה",שבזי 5,7654-35-1,קרקע למגורים,,,997.0,6000000,,,,,,8446798302,1,765435,False,,רעננה,שבזי,,7654-35-1,7654/35,6018.054162487462,32.1897415156,34.8700472258,2014
2014-12-05,2014-05-12,"מכבי 50, רעננה",מכבי 50,6580-1085-32,דירה בבית קומות,5.0,קומה ‎5‏,112.7,2900000,,,2015.0,,7.0,8443557620,1,65801085,False,,רעננה,מכבי,,6580-1085-32,6580/1085,25732.031943212067,32.1836877338,34.8802879686,2014
2014-12-05,2014-05-12,"מכבי 50, רעננה",מכבי 50,6580-1085-41,דירה בבית קומות,5.0,קומה ‎4‏,113.1,2875000,,,2015.0,,7.0,8443558952,1,65801085,False,,רעננה,מכבי,,6580-1085-41,6580/1085,25419.98231653404,32.1836877338,34.8802879686,2014
2014-12-04,2014-04-12,"ביאליק 36, רעננה",ביאליק 36,6586-866-3,דירה בבית קומות,4.0,קרקע + שניה,90.4,1825000,,,1990.0,,3.0,8441820248,1,6586866,False,,רעננה,ביאליק,,6586-866-3,6586/866,20188.05309734513,32.1759886337,34.8790728752,2014
2014-12-03,2014-03-12,"תל חי 26, רעננה",תל חי 26,6580-444-6,דירה בבית קומות,4.0,שניה,98.96,1770000,,,1970.0,,3.0,8440740884,1,6580444,False,21% ב 3.6 שנים,רעננה,תל חי,5.83,6580-444-6,6580/444,17886.014551333872,32.185521044,34.8741688113,2014
2014-12-02,2014-02-12,"הסחלב 9, רעננה",הסחלב 9,7651-517-7,דירה בבית קומות,3.5,שניה,77.0,1750000,,,2000.0,,3.0,8439236020,1,7651517,False,,רעננה,הסחלב,,7651-517-7,7651/517,22727.272727272728,32.1793461442,34.8575210455,2014
2014-12-02,2014-02-12,"הלוטוס 14, רעננה",הלוטוס 14,7651-536-18,דירה בבית קומות,5.5,ק.תחתונה+רביעית+גג,128.5,3125000,,,2000.0,,1.0,8439098084,1,7651536,False,111% ב 13.5 שנים,רעננה,הלוטוס,8.22,7651-536-18,7651/536,24319.06614785992,32.1804792194,34.8558663039,2014
2014-12-02,2014-02-12,"אלי כהן 12, רעננה",אלי כהן 12,7654-121-18,דירה בבית קומות,4.0,רביעית,100.0,1500000,1.0,אלי כהן 12 רעננה,1970.0,2014.0,4.0,8439688974,1,7654121,False,,רעננה,אלי כהן,,7654-121-18,7654/121,15000.0,32.187129827,34.8674539134,2014
2014-12-01,2014-01-12,"הנשיאים 48, רעננה",הנשיאים 48,7654-441-11,דירה בבית קומות,5.0,ראשונה,113.6,2325000,,,1997.0,,3.0,8437309800,1,7654441,False,,רעננה,הנשיאים,,7654-441-11,7654/441,20466.54929577465,32.1912857328,34.863943317,2014
2014-11-30,2014-11-30,"הפרחים 13, רעננה",הפרחים 13,7651-623-149,דירה בבית קומות,2.5,שניה,67.0,1440000,,,2000.0,,7.0,8510065046,1,7651623,False,,רעננה,הפרחים,,7651-623-149,7651/623,21492.53731343284,32.1799646053,34.8536566781,2014
2014-11-30,2014-11-30,"סשה ארגוב 20, רעננה",סשה ארגוב 20,7661-127-20,דירה בבית קומות,5.0,קומה ‎1‏,119.7,2590000,,,2016.0,,7.0,8453454528,1,7661127,False,,רעננה,יעקב אורלנד,,7661-127-20,7661/127,21637.4269005848,32.1941667225,34.8656310391,2014
2014-11-28,2014-11-28,"הסחלב 9, רעננה",הסחלב 9,7651-517-9,דירה בבית קומות,4.0,שניה,96.0,2120000,,,2000.0,,3.0,8451880696,1,7651517,False,51% ב 8.2 שנים,רעננה,הסחלב,6.22,7651-517-9,7651/517,22083.33333333333,32.1793461442,34.8575210455,2014
2014-11-27,2014-11-27,"שברץ 3, רעננה",שברץ 3,6581-373-15,דירה בבית קומות,6.0,שישית,192.0,3850000,1.0,שברץ 3 רעננה,1970.0,2015.0,3.0,8510602212,1,6581373,False,,רעננה,שברץ,,6581-373-15,6581/373,20052.08333333333,32.1797166424,34.8810560721,2014
2014-11-27,2014-11-27,"השומר 14, רעננה",השומר 14,7655-148-1,קרקע למגורים,,,806.0,8750000,,,1950.0,,1.0,8510299922,1,7655148,False,,רעננה,השומר,,7655-148-1,7655/148,10856.079404466502,32.1875321852,34.8776604166,2014
2014-11-27,2014-11-27,"אחוזה 120, רעננה",אחוזה 120,6580-954-21,משרד,,ראשונה,,241000,,,1991.0,,3.0,8510417286,1,6580954,False,,רעננה,אחוזה,,6580-954-21,6580/954,,32.1809562401,34.8743790795,2014
2014-11-27,2014-11-27,"שברץ 3, רעננה",שברץ 3,6581-373-14,דירה בבית קומות,5.0,שלישית,137.0,2370000,1.0,שברץ 3 רעננה,1970.0,2015.0,3.0,8452634682,1,6581373,False,258% ב 9.6 שנים,רעננה,שברץ,26.88,6581-373-14,6581/373,17299.270072992702,32.1797166424,34.8810560721,2014
2014-11-27,2014-11-27,"קלאוזנר 6, רעננה",קלאוזנר 6,6586-515-3,דירה בבית קומות,3.0,ב,76.8,1340000,,,1960.0,,3.0,8453342788,1,6586515,False,70% ב 9.4 שנים,רעננה,קלאוזנר,7.45,6586-515-3,6586/515,17447.916666666668,32.1797295057,34.8754164579,2014
2014-11-26,2014-11-26,"בר-אילן 18, רעננה",בר-אילן 18,6580-322-36,דירה בבית קומות,4.0,רביעית,100.0,1850000,1.0,בר אילן 18,1970.0,2014.0,6.0,8451788492,1,6580322,False,,רעננה,בר אילן,,6580-322-36,6580/322,18500.0,32.1821149325,34.874314717,2014
2014-11-26,2014-11-26,"חפץ חיים 15, רעננה",חפץ חיים 15,6580-1030-6,דירת גג,5.0,שלישית+גג,127.0,1150000,,,1998.0,,3.0,8453544808,1,65801030,True,-15% ב 15.6 שנים,רעננה,חפץ חיים,-0.96,6580-1030-6,6580/1030,9055.11811023622,32.1842285046,34.867445748,2014
2014-11-25,2014-11-25,"נחשון 21, רעננה",נחשון 21,6581-743-1,קוטג' טורי,7.0,קרקע+ראשונה+גג,196.88,4950000,,,1978.0,,2.0,8452860604,1,6581743,False,,רעננה,נחשון,,6581-743-1,6581/743,25142.218610321008,32.1856219498,34.8813700236,2014
2014-11-25,2014-11-25,"אנילביץ 15, רעננה",אנילביץ 15,7654-115-76,דירה בבית קומות,4.0,חמישית,100.0,1727000,1.0,אנילביץ',1970.0,2013.0,8.0,8452306122,1,7654115,False,,רעננה,אנילביץ,,7654-115-76,7654/115,17270.0,32.1876799243,34.8675115019,2014
2014-11-25,2014-11-25,"אריה 1, רעננה",אריה 1,7654-411-3,קרקע למגורים,,קרקע,113.2,4599000,,,1950.0,,,8453064400,1,7654411,False,,רעננה,אריה,,7654-411-3,7654/411,40627.20848056537,32.1870870951,34.8695158238,2014
2014-11-25,2014-11-25,"הרדוף 96, רעננה",הרדוף 96,6578-473-12,דירה בבית קומות,5.0,ראשונה,108.0,2280000,,,1997.0,,,8453587580,1,6578473,False,,רעננה,הרדוף,,6578-473-12,6578/473,21111.11111111111,32.1900729447,34.8838253565,2014
2014-11-25,2014-11-25,"יערה 2, רעננה",יערה 2,6578-561-14,דירה בבית קומות,5.0,רביעית,107.0,2260000,,,2014.0,,5.0,8452050452,1,6578561,False,,רעננה,יערה,,6578-561-14,6578/561,21121.495327102803,32.1851397576,34.8888159999,2014
2014-11-25,2014-11-25,"אוסטרובסקי 32, רעננה",אוסטרובסקי 32,6583-670-14,דירה בבית קומות,5.0,רביעית,100.07,2200000,,,1984.0,,5.0,8451682894,1,6583670,False,,רעננה,אוסטרובסקי,,6583-670-14,6583/670,21984.61077245928,32.1781092354,34.8717051283,2014
2014-11-24,2014-11-24,"המעלות 3, רעננה",המעלות 3,6586-470-9,דירה בבית קומות,3.0,ג',77.4,1700000,,,2021.0,,3.0,8453224388,1,6586470,False,119% ב 8.2 שנים,רעננה,המעלות,14.51,6586-470-9,6586/470,21963.82428940568,32.1797623465,34.875142466,2014
2014-11-24,2014-11-24,"בורוכוב 33, רעננה",בורוכוב 33,6580-546-5,דירה בבית קומות,4.0,שניה,102.91,1775000,,,1980.0,,4.0,8513032668,1,6580546,False,195% ב 1.9 שנים,רעננה,בורוכוב,102.63,6580-546-5,6580/546,17248.08084734234,32.1837096127,34.8768015658,2014
2014-11-24,2014-11-24,"השחפים 58, רעננה",השחפים 58,7651-409-4,קוטג' דו משפחתי,5.0,קרקע+ראשונה,163.5,3680000,,,1995.0,,3.0,8451628504,1,7651409,False,,רעננה,השחפים,,7651-409-4,7651/409,22507.64525993884,32.1920627897,34.8529898141,2014
2014-11-24,2014-11-24,"משה סנה 18, רעננה",משה סנה 18,7649-184-17,דירה בבית קומות,5.5,שניה + שלישית,128.04,3350000,,,1995.0,,2.0,8453466738,1,7649184,False,148% ב 12.9 שנים,רעננה,סנה משה,11.47,7649-184-17,7649/184,26163.69884411121,32.194769299,34.8495948993,2014
2014-11-23,2014-11-23,"הגלים 6, רעננה",הגלים 6,6579-726-1,קוטג' טורי,5.0,"מרתף, קרקע, ראשונה, שניה",172.7,3355000,,,1998.0,,2.0,8453342196,1,6579726,False,,רעננה,הגלים,,6579-726-1,6579/726,19426.75159235669,32.1881128125,34.8575697866,2014
2014-11-23,2014-11-23,"מכבי 50, רעננה",מכבי 50,6580-1085-7,דירה בבית קומות,5.0,קומה ‎3‏,113.4,2849000,,,2015.0,,7.0,8452054670,1,65801085,False,,רעננה,מכבי,,6580-1085-7,6580/1085,25123.45679012345,32.1836877338,34.8802879686,2014
2014-11-20,2014-11-20,"בר אילן 19, רעננה",בר אילן 19,6580-796-7,דירה בבית קומות,3.0,ראשונה,71.04,1580000,,,1979.0,,3.0,8451398290,1,6580796,False,126% ב 15.1 שנים,רעננה,בר אילן,8.34,6580-796-7,6580/796,22240.990990990987,32.1827824491,34.8737534813,2014
2014-11-20,2014-11-20,"התקווה 13, רעננה",התקווה 13,7652-289-48,דירה בבית קומות,5.0,חמישית,125.0,2000000,1.0,התקווה 13-15-17,2013.0,,4.0,8511936062,1,7652289,False,,רעננה,התקוה,,7652-289-48,7652/289,16000.0,32.1948008563,34.8575139439,2014
2014-11-19,2014-11-19,"ביאליק 13, רעננה",ביאליק 13,6586-732-6,דירה בבית קומות,3.0,שלישית+גג,96.25,1660000,,,1975.0,,3.0,8510017908,1,6586732,False,,רעננה,ביאליק,,6586-732-6,6586/732,17246.753246753247,32.1778899873,34.8800433759,2014
2014-11-19,2014-11-19,"התחיה 5, רעננה",התחיה 5,8573-3-14,דירה בבית קומות,4.0,קרקע,79.8,1800000,,,1991.0,,3.0,8451418492,1,85733,False,92% ב 13.9 שנים,רעננה,התחיה,6.62,8573-3-14,8573/3,22556.39097744361,32.1951717007,34.8526491519,2014
2014-11-19,2014-11-19,"מכבי 1, רעננה",מכבי 1,6580-1071-51,דירה בבית קומות,2.5,רביעית,52.45,1320000,,,2001.0,,9.0,8453403838,1,65801071,False,,רעננה,מכבי,,6580-1071-51,6580/1071,25166.825548141085,32.1800820199,34.8783805061,2014
2014-11-18,2014-11-18,"הקדושים 3, רעננה",הקדושים 3,7655-37-1,קרקע למגורים,,,597.0,5500000,,,0.0,,,8452250622,1,765537,False,,רעננה,הקדושים,,7655-37-1,7655/37,9212.730318257956,32.1874710542,34.8733320651,2014
2014-11-18,2014-11-18,"רבוצקי 1, רעננה",רבוצקי 1,6581-580-4,דירה בבית קומות,4.0,שניה,106.58,1790000,,,1984.0,,3.0,8452425854,1,6581580,False,98% ב 8.6 שנים,רעננה,רבוצקי,11.4,6581-580-4,6581/580,16794.895852880465,32.1786652944,34.8843171224,2014
2014-11-18,2014-11-18,"היובל 7, רעננה",היובל 7,6580-863-38,דירה בבית קומות,5.0,רביעית,115.84,1880000,,,1980.0,,5.0,8451706574,1,6580863,False,,רעננה,היובל,,6580-863-38,6580/863,16229.2817679558,32.1823447889,34.8715839164,2014
2014-11-18,2014-11-18,"שרה אהרונסון 16, רעננה",שרה אהרונסון 16,6582-352-28,דירת גג,5.0,שניה+שלישית+ק.תחתונה,149.0,2800000,,,2000.0,,2.0,8451231716,1,6582352,False,,רעננה,אהרונסון שרה,,6582-352-28,6582/352,18791.946308724837,32.1787254513,34.8609302045,2014
2014-11-17,2014-11-17,"אלי כהן 12, רעננה",אלי כהן 12,7654-121-41,דירה בבית קומות,4.0,שישית,100.0,1250000,1.0,אלי כהן 12 רעננה,1970.0,2014.0,4.0,8453246366,1,7654121,False,,רעננה,אלי כהן,,7654-121-41,7654/121,12500.0,32.187129827,34.8674539134,2014
2014-11-16,2014-11-16,"שושנה דמארי 20, רעננה",שושנה דמארי 20,7661-163-33,דירה בבית קומות,5.0,קרקע,117.37,2956000,,,2014.0,,5.0,8451095630,1,7661163,False,,רעננה,שושנה דמארי,,7661-163-33,7661/163,25185.311408366702,32.1955520357,34.8718946024,2014
2014-11-16,2014-11-16,"משה וילנסקי 3, רעננה",משה וילנסקי 3,7661-111-6,דירה בבית קומות,4.0,שלישית,99.4,2101000,,,2016.0,,5.0,8451203004,1,7661111,False,,רעננה,משה וילנסקי,,7661-111-6,7661/111,21136.82092555332,32.1942340165,34.8707581507,2014
2014-11-16,2014-11-16,"הפרחים 40, רעננה",הפרחים 40,7651-533-18,דירה בבית קומות,4.0,ק. תחתונה+רביעית+גג,126.0,3060000,,,2000.0,,4.0,8453069358,1,7651533,False,117% ב 13.5 שנים,רעננה,הפרחים,8.67,7651-533-18,7651/533,24285.714285714286,32.180608248,34.8545773412,2014
2014-11-16,2014-11-16,"קרן היסוד 12, רעננה",קרן היסוד 12,6580-853-8,דירה בבית קומות,4.0,שלישית,88.51,1400000,,,1980.0,,5.0,8452424152,1,6580853,False,,רעננה,קרן היסוד,,6580-853-8,6580/853,15817.421760253075,32.1833966845,34.8713481013,2014
2014-11-16,2014-11-16,"הגליל 17, רעננה",הגליל 17,6580-200-2,דירה בבית קומות,5.0,ראשונה,113.0,2085000,,,1990.0,,4.0,8451617552,1,6580200,False,19% ב 4.4 שנים,רעננה,הגליל,4.32,6580-200-2,6580/200,18451.32743362832,32.1812715261,34.8781048007,2014
2014-11-15,2014-11-15,"אוסטרובסקי 23, רעננה",אוסטרובסקי 23,6586-840-13,דירה בבית קומות,5.0,שלישית,113.35,2525000,,,1980.0,,4.0,8453341086,1,6586840,False,,רעננה,אוסטרובסקי,,6586-840-13,6586/840,22276.135862373183,32.1771652895,34.8739537788,2014
2014-11-13,2014-11-13,"הל""ה 8, רעננה","הל""ה 8",6579-493-35,דירה בבית קומות,4.0,רביעית,100.57,2125000,,,1995.0,,7.0,8453520462,1,6579493,False,,רעננה,"הל""ה",,6579-493-35,6579/493,21129.56149945312,32.1842594884,34.862621595,2014
2014-11-13,2014-11-13,"ביל""ו 6, רעננה","ביל""ו 6",6583-558-3,קוטג' דו משפחתי,7.0,"מרתף,קרקע א'",154.0,3750000,,,1985.0,,3.0,8451406800,1,6583558,False,33% ב 5.7 שנים,רעננה,"ביל""ו",5.79,6583-558-3,6583/558,24350.64935064935,32.1794486234,34.8672381505,2014
2014-11-13,2014-11-13,"יהודה הלוי 83, רעננה",יהודה הלוי 83,6583-36-2,קוטג' חד משפחתי,5.0,ראשונה,190.0,4700000,,,1990.0,,2.0,8452703650,1,658336,False,,רעננה,יהודה הלוי,,6583-36-2,6583/36,24736.84210526316,,,2014
2014-11-13,2014-11-13,"בורוכוב 30, רעננה",בורוכוב 30,6580-53-11,דירה בבית קומות,4.0,שלישית,96.06,1670000,,,1980.0,,5.0,8453065732,1,658053,False,,רעננה,בורוכוב,,6580-53-11,6580/53,17384.96772850302,32.1839531158,34.8776122719,2014
2014-11-13,2014-11-13,"קרן היסוד 25, רעננה",קרן היסוד 25,6580-725-31,דירה בבית קומות,3.0,רביעית,65.4,1465000,,,1983.0,,5.0,8519168230,1,6580725,False,,רעננה,קרן היסוד,,6580-725-31,6580/725,22400.611620795105,32.184984115,34.8710249873,2014
2014-11-12,2014-12-11,"פרדס משותף 17, רעננה",פרדס משותף 17,6584-83-2,קוטג' טורי,5.0,"מרתף,קרקע,ראשונה",218.0,4085000,,,1989.0,,2.0,8453129150,1,658483,False,,רעננה,פרדס משותף,,6584-83-2,6584/83,18738.532110091743,32.174074368,34.870614311,2014
2014-11-12,2014-12-11,"מוצקין 27, רעננה",מוצקין 27,6580-159-1,בית בודד,6.0,שניה,348.0,4800000,,,1998.0,,1.0,8511041772,1,6580159,False,,רעננה,מוצקין,,6580-159-1,6580/159,13793.103448275862,32.1858806413,34.8690979553,2014
2014-11-12,2014-12-11,"מבצע קדש 19, רעננה",מבצע קדש 19,7654-126-1,דירה בבית קומות,3.0,ראשונה,75.0,925000,,,1970.0,,7.0,8453463186,1,7654126,False,,רעננה,מבצע קדש,,7654-126-1,7654/126,12333.333333333334,32.186723749,34.8662840095,2014
2014-11-11,2014-11-11,"עקיבא 23, רעננה",עקיבא 23,6581-593-4,דירה בבית קומות,5.0,ראשונה,105.0,1865000,,,1980.0,,6.0,8452276966,1,6581593,False,,רעננה,עקיבא,,6581-593-4,6581/593,17761.904761904763,32.1819399179,34.880695573,2014
2014-11-11,2014-11-11,"הפרחים 10, רעננה",הפרחים 10,6582-291-11,דירה בבית קומות,4.5,שלישית,93.5,2300000,,,1997.0,,4.0,8453421598,1,6582291,False,43% ב 5.2 שנים,רעננה,הפרחים,8.27,6582-291-11,6582/291,24598.930481283423,32.1780667645,34.8600677168,2014
2014-11-09,2014-09-11,"הגליל 57, רעננה",הגליל 57,6580-235-10,דירה בבית קומות,5.0,חמישית,125.0,3002000,1.0,הגליל 57 רעננה,2015.0,,2.0,8449633538,1,6580235,False,,רעננה,הגליל,,6580-235-10,6580/235,24016.0,32.1846837656,34.8791620499,2014
2014-11-08,2014-08-11,"עקיבא 79, רעננה",עקיבא 79,6578-262-1,קוטג' דו משפחתי,5.0,ראשונה,250.0,5900000,,,1982.0,,1.0,8449071286,1,6578262,False,,רעננה,עקיבא,,6578-262-1,6578/262,23600.0,32.1865546396,34.8824186649,2014
2014-11-08,2014-08-11,"יאיר 7, רעננה",יאיר 7,7649-309-5,דירה בבית קומות,5.0,ראשונה,132.0,2525000,,,2013.0,,5.0,8447844588,1,7649309,False,,רעננה,יאיר,,7649-309-5,7649/309,19128.78787878788,32.195301106,34.8471958649,2014
2014-11-08,2014-08-11,"קלאוזנר 19, רעננה",קלאוזנר 19,6586-451-11,דירה בבית קומות,4.5,שלישית,101.9,1900000,,,1970.0,,8.0,8447579668,1,6586451,False,163% ב 9.6 שנים,רעננה,קלאוזנר,16.98,6586-451-11,6586/451,18645.73110893032,32.1777771065,34.8752068767,2014
2014-11-07,2014-07-11,"אחד העם 16, רעננה",אחד העם 16,6581-833-2,קוטג' דו משפחתי,7.0,ראשונה,243.0,4300000,,,2006.0,,1.0,8447782354,1,6581833,False,,רעננה,אחד העם,,6581-833-2,6581/833,17695.473251028805,32.1803610378,34.8834400758,2014
2014-11-06,2014-06-11,"החרצית 8, רעננה",החרצית 8,6582-396-8,דירה בבית קומות,3.0,שניה,77.0,1800000,,,1997.0,,3.0,8444945416,1,6582396,False,63% ב 11.9 שנים,רעננה,החרצית,5.29,6582-396-8,6582/396,23376.623376623374,32.1788558529,34.8595116011,2014
2014-11-06,2014-06-11,"בן-גוריון 13, רעננה",בן-גוריון 13,6583-608-17,דירה בבית קומות,4.0,חמישית,118.3,1670000,,,1980.0,,7.0,8446381312,1,6583608,False,,רעננה,בן גוריון,,6583-608-17,6583/608,14116.65257819104,32.178750132,34.8712233992,2014
2014-11-06,2014-06-11,"הלוטוס 22, רעננה",הלוטוס 22,7651-628-50,דירה בבית קומות,4.0,שלישית,78.2,1990000,,,2004.0,,4.0,8445781172,1,7651628,False,35% ב 6 שנים,רעננה,הלוטוס,5.83,7651-628-50,7651/628,25447.570332480816,32.1797855537,34.8556348927,2014
2014-11-05,2014-05-11,"הלוטוס 16, רעננה",הלוטוס 16,7651-627-14,דירה בבית קומות,5.0,שלישית,102.0,2450000,,,2002.0,,4.0,8443536900,1,7651627,False,,רעננה,הלוטוס,,7651-627-14,7651/627,24019.60784313725,32.1802196954,34.8557994544,2014
2014-11-05,2014-05-11,"אסתר המלכה 5, רעננה",אסתר המלכה 5,7656-114-2,קרקע למגורים,,ראשונה,77.0,2675000,,,,,1.0,8444918480,1,7656114,False,,רעננה,אסתר המלכה,,7656-114-2,7656/114,34740.25974025974,32.1971266617,34.8753552581,2014
2014-11-05,2014-05-11,"הדליה 7, רעננה",הדליה 7,7652-146-2,קרקע למגורים,,ראשונה,60.4,2400000,,,1978.0,,1.0,8446441696,1,7652146,False,,רעננה,הדליה,,7652-146-2,7652/146,39735.09933774835,32.1941579515,34.8594558256,2014
2014-11-05,2014-05-11,"הגליל 59, רעננה",הגליל 59,6580-752-5,דירה בבית קומות,4.0,שלישית,78.1,2200000,,,1970.0,,3.0,8444126088,1,6580752,False,,רעננה,הגליל,,6580-752-5,6580/752,28169.014084507045,32.1849147777,34.8792104232,2014
2014-11-03,2014-03-11,"שושנה דמארי 16, רעננה",שושנה דמארי 16,7661-163-30,דירת גג,5.0,חמישית,144.58,4500000,,,2014.0,,6.0,8441244010,1,7661163,False,,רעננה,שושנה דמארי,,7661-163-30,7661/163,31124.636879236405,32.1955520357,34.8718946024,2014
2014-11-02,2014-02-11,"שושנה דמארי 1, רעננה",שושנה דמארי 1,7661-114-20,דירה בבית קומות,6.0,רביעית,160.4,2800000,,,2016.0,,5.0,8439481404,1,7661114,False,,רעננה,שושנה דמארי,,7661-114-20,7661/114,17456.359102244387,32.1937397116,34.8712390742,2014
2014-10-30,2014-10-30,"חייקה גרוסמן 7, רעננה",חייקה גרוסמן 7,7649-308-47,דירה בבית קומות,6.0,"חמישית, שישית",194.52,4000000,,,2011.0,,5.0,8450758042,1,7649308,True,-11% ב 2.7 שנים,רעננה,חייקה גרוסמן,-4.07,7649-308-47,7649/308,20563.438206868188,32.1955212038,34.8466109512,2014
2014-10-30,2014-10-30,"הדס 3, רעננה",הדס 3,6578-484-19,דירה בבית קומות,4.0,ראשונה + קרקע,92.05,2065000,,,1997.0,,,8450549214,1,6578484,False,7% ב 1.9 שנים,רעננה,הדס,3.68,6578-484-19,6578/484,22433.460076045627,32.1896802121,34.8848158509,2014
2014-10-30,2014-10-30,"רבוצקי 80, רעננה",רבוצקי 80,6581-611-5,דירה בבית קומות,6.0,מרתף+קרקע+ראשונה,167.7,3200000,,,1988.0,,2.0,8450375906,1,6581611,False,118% ב 16.2 שנים,רעננה,רבוצקי,7.28,6581-611-5,6581/611,19081.69350029815,32.1842850704,34.8866451791,2014
2014-10-30,2014-10-30,"אלי כהן 16, רעננה",אלי כהן 16,7654-120-32,דירה בבית קומות,4.0,חמישית,100.0,1300000,1.0,אלי כהן 16,1970.0,2014.0,4.0,8451915328,1,7654120,False,,רעננה,אלי כהן,,7654-120-32,7654/120,13000.0,32.1873035556,34.8669370065,2014
2014-10-29,2014-10-29,"רבוצקי 102, רעננה",רבוצקי 102,6578-557-2,דירה בבית קומות,5.0,קרקע,120.0,2720000,,,2005.0,,2.0,8451262722,1,6578557,False,2% ב 3.9 שנים,רעננה,רבוצקי,0.51,6578-557-2,6578/557,22666.666666666668,32.1859093418,34.8868906724,2014
2014-10-28,2014-10-28,"משה סנה 18, רעננה",משה סנה 18,7649-184-10,דירה בבית קומות,4.0,קרקע,81.56,1780000,,,1995.0,,2.0,8452240188,1,7649184,False,45% ב 7.9 שנים,רעננה,סנה משה,5.7,7649-184-10,7649/184,21824.42373712604,32.194769299,34.8495948993,2014
2014-10-27,2014-10-27,"השלום 47, רעננה",השלום 47,6579-330-1,בית בודד,5.0,קרקע ראשונה,167.91,4400000,,,1980.0,,2.0,8452280518,1,6579330,False,,רעננה,השלום,,6579-330-1,6579/330,26204.514323149306,32.187488425,34.8606633376,2014
2014-10-27,2014-10-27,"אחוזה 68, רעננה",אחוזה 68,6581-371-30,דירה בבית קומות,5.0,שניה,120.8,1610000,,,1993.0,,9.0,8451740318,1,6581371,False,62% ב 13.5 שנים,רעננה,אחוזה,4.59,6581-371-30,6581/371,13327.814569536424,32.17948859,34.8808288351,2014
2014-10-27,2014-10-27,"שמריהו לוין 7, רעננה",שמריהו לוין 7,6583-147-1,קוטג' טורי,6.0,"מרתף,קרקע,א'",205.2,5000000,,,1990.0,,2.0,8451723150,1,6583147,False,,רעננה,שמריהו לוין,,6583-147-1,6583/147,24366.471734892788,32.1756164248,34.8707342676,2014
2014-10-27,2014-10-27,"טרומפלדור 13, רעננה",טרומפלדור 13,7655-298-2,קרקע למגורים,,,560.0,5999000,,,,,,8451124194,1,7655298,False,,רעננה,טרומפלדור,,7655-298-2,7655/298,10712.5,32.1904219071,34.8797863256,2014
2014-10-26,2014-10-26,"ארלוזורוב 20, רעננה",ארלוזורוב 20,6586-357-9,דירה בבית קומות,5.0,שלישית + גג,130.24,2680000,,,1985.0,,3.0,8450377090,1,6586357,False,113% ב 14 שנים,רעננה,ארלוזורוב,8.07,6586-357-9,6586/357,20577.39557739557,32.1768845294,34.8779679386,2014
2014-10-26,2014-10-26,"ההגנה 17, רעננה",ההגנה 17,7655-91-1,קרקע למגורים,,,793.0,9500000,,,1980.0,,1.0,8452054152,1,765591,False,,רעננה,ההגנה,,7655-91-1,7655/91,11979.82345523329,32.1877425191,34.8762903555,2014
2014-10-24,2014-10-24,"ביל""ו 4, רעננה","ביל""ו 4",6583-559-4,דירה בבית קומות,4.0,שניה,89.6,1725000,,,1984.0,,2.0,8450376498,1,6583559,False,7% ב 4 שנים,רעננה,"ביל""ו",1.75,6583-559-4,6583/559,19252.232142857145,32.1793780732,34.8675450003,2014
2014-10-22,2014-10-22,"אחוזה 43, רעננה",אחוזה 43,6587-372-1,דירה בבית קומות,3.0,קרקע,76.0,1825000,,,2001.0,,4.0,8450254472,1,6587372,False,45% ב 6.5 שנים,רעננה,אחוזה,6.92,6587-372-1,6587/372,24013.157894736843,32.1782275267,34.883438565,2014
2014-10-19,2014-10-19,"המעלות 4, רעננה",המעלות 4,6586-487-5,דירה בבית קומות,3.5,ג',83.12,1650000,,,1969.0,,3.0,8450017524,1,6586487,False,,רעננה,המעלות,,6586-487-5,6586/487,19850.81809432146,32.1798278934,34.8747754614,2014
2014-10-19,2014-10-19,"חייקה גרוסמן 5, רעננה",חייקה גרוסמן 5,7649-308-27,דירה בבית קומות,5.0,שלישית,144.52,2575000,,,2013.0,,5.0,8450386932,1,7649308,False,,רעננה,חייקה גרוסמן,,7649-308-27,7649/308,17817.603099916967,32.1955212038,34.8466109512,2014
2014-10-17,2014-10-17,"סעדיה גאון 8, רעננה",סעדיה גאון 8,7656-148-3,בית בודד,7.0,שניה,334.0,7500000,,,1952.0,2012.0,1.0,8451223206,1,7656148,False,,רעננה,סעדיה גאון,,7656-148-3,7656/148,22455.08982035928,32.1935088762,34.8740900164,2014
2014-10-13,2014-10-13,"ברנדייס 51, רעננה",ברנדייס 51,6583-285-2,בית בודד,1.0,שלישית,465.0,10500000,,,2004.0,,2.0,8451002760,1,6583285,False,,רעננה,ברנדיס,,6583-285-2,6583/285,22580.64516129032,32.1751209933,34.8716441112,2014
2014-10-12,2014-12-10,"בן-גוריון 6, רעננה",בן-גוריון 6,6583-611-2,דירה בבית קומות,4.5,ראשונה,115.0,1970000,,,1979.0,,6.0,8510019758,1,6583611,False,88% ב 12 שנים,רעננה,בן גוריון,7.33,6583-611-2,6583/611,17130.434782608696,32.17964088,34.8707654969,2014
2014-10-11,2014-11-10,"החומה 2, רעננה",החומה 2,7654-453-11,דירה בבית קומות,5.0,שניה,127.5,2610000,,,1998.0,,3.0,8450868524,1,7654453,False,99% ב 16 שנים,רעננה,החומה,6.19,7654-453-11,7654/453,20470.58823529412,32.1906311841,34.865621252,2014
2014-10-10,2014-10-10,"היובל 4, רעננה",היובל 4,6580-600-13,חנות,,ראשונה+ביניים ראשונה,69.4,800000,,,1990.0,,11.0,8450265424,1,6580600,False,,רעננה,היובל,,6580-600-13,6580/600,11527.377521613833,32.182121968,34.8709925826,2014
2014-10-09,2014-09-10,"רימלט אלימלך 5, רעננה",רימלט אלימלך 5,7649-201-5,דירה בבית קומות,5.5,שניה + שלישית,131.14,2750000,,,1995.0,,2.0,8449019412,1,7649201,False,61% ב 7.3 שנים,רעננה,רימלט אלימלך,8.36,7649-201-5,7649/201,20969.95577245692,32.1955099783,34.851720744,2014
2014-10-09,2014-09-10,"גולומב 9, רעננה",גולומב 9,6580-776-3,דירה בבית קומות,4.0,ראשונה,76.62,1565000,,,1970.0,,4.0,8450897088,1,6580776,False,,רעננה,גולומב,,6580-776-3,6580/776,20425.47637692508,32.1822991781,34.8745411639,2014
2014-10-08,2014-08-10,"בן-יהודה 18, רעננה",בן-יהודה 18,6578-92-1,קוטג' דו משפחתי,6.0,ק. תחתונה+ק.עליונה+,250.0,4020000,,,1997.0,,1.0,8448406322,1,657892,False,5% ב 7 שנים,רעננה,בן יהודה,0.71,6578-92-1,6578/92,16080.0,32.1872029523,34.8850214328,2014
2014-10-08,2014-08-10,"ברל כצנלסון 5, רעננה",ברל כצנלסון 5,7655-258-2,קרקע למגורים,,ראשונה,41.4,2350000,,,1960.0,,1.0,8447656628,1,7655258,False,,רעננה,כצנלסון ברל,,7655-258-2,7655/258,56763.28502415459,32.191756498,34.8806327326,2014
2014-10-07,2014-07-10,"ביאליק 8, רעננה",ביאליק 8,6586-588-10,דירה בבית קומות,6.0,חמישית,168.0,3405000,1.0,,1974.0,2014.0,3.0,8446146140,1,6586588,False,,רעננה,ביאליק,,6586-588-10,6586/588,20267.85714285714,32.1783000788,34.8797796399,2014
2014-10-07,2014-07-10,"ויצמן 251, רעננה",ויצמן 251,7650-299-5,דירה בבית קומות,4.5,ראשונה,103.88,1900000,,,1994.0,,4.0,8446897758,1,7650299,False,60% ב 14.1 שנים,רעננה,ויצמן,4.26,7650-299-5,7650/299,18290.335001925298,32.1922270081,34.8513409704,2014
2014-10-06,2014-06-10,"אוסטרובסקי 30, רעננה",אוסטרובסקי 30,6583-501-3,דירה בבית קומות,5.5,שניה,134.77,2225000,,,1980.0,,4.0,8444432596,1,6583501,False,,רעננה,אוסטרובסקי,,6583-501-3,6583/501,16509.608963419156,32.1779505605,34.8722482874,2014
2014-10-04,2014-04-10,"סשה ארגוב 16, רעננה",סשה ארגוב 16,7661-167-38,דירה בבית קומות,4.0,קרקע,84.4,2380000,,,2014.0,,6.0,8443306316,1,7661167,False,,רעננה,סשה ארגוב,,7661-167-38,7661/167,28199.05213270142,32.1938025935,34.8665569746,2014
2014-10-04,2014-04-10,"ציפמן 30, רעננה",ציפמן 30,6578-344-2,קוטג' דו משפחתי,6.0,"מרתף,ק,א'",220.0,4400000,,,1980.0,,1.0,8443867162,1,6578344,False,,רעננה,ציפמן,,6578-344-2,6578/344,20000.0,32.1857032224,34.8837807498,2014
2014-10-04,2014-04-10,"השיטה 5, רעננה",השיטה 5,6578-534-2,קוטג' דו משפחתי,5.0,"מרתף,קרקע,ראשנה,שניה",228.9,3200000,,,1999.0,,4.0,8443771332,1,6578534,False,,רעננה,השיטה,,6578-534-2,6578/534,13979.903888160768,32.190780921,34.8852100577,2014
2014-10-03,2014-03-10,"שברץ 22, רעננה",שברץ 22,6581-555-37,דירה בבית קומות,4.0,שלישית,102.26,1520000,,,1984.0,,6.0,8440880744,1,6581555,False,,רעננה,שברץ,,6581-555-37,6581/555,14864.071973401136,32.1823935963,34.8826055936,2014
2014-10-03,2014-03-10,"רמב""ם 17, רעננה","רמב""ם 17",6586-973-1,דירה בבית קומות,6.0,ראשונה,146.1,2807000,,,2013.0,,5.0,8441704216,1,6586973,False,,רעננה,"רמב""ם",,6586-973-1,6586/973,19212.86789869952,32.1783214799,34.8772711346,2014
2014-10-03,2014-03-10,"עגנון 4, רעננה",עגנון 4,6583-601-11,דירה בבית קומות,4.0,שלישית,95.0,2000000,,,1987.0,,6.0,8440381910,1,6583601,False,109% ב 12.7 שנים,רעננה,עגנון,8.58,6583-601-11,6583/601,21052.63157894737,32.1776391741,34.8703473146,2014
2014-09-30,2014-09-30,"בן-גוריון 6, רעננה",בן-גוריון 6,6583-611-6,דירה בבית קומות,4.0,שניה,115.0,1700000,,,1979.0,,6.0,8449795228,1,6583611,False,,רעננה,בן גוריון,,6583-611-6,6583/611,14782.608695652174,32.17964088,34.8707654969,2014
2014-09-30,2014-09-30,"פרדס משותף 65, רעננה",פרדס משותף 65,6588-3-4,קרקע למגורים,,,61.0,119999,,,1990.0,,1.0,8451084086,1,65883,False,,רעננה,פרדס משותף,,6588-3-4,6588/3,1967.1967213114756,32.1754550162,34.8653642399,2014
2014-09-29,2014-09-29,"הגליל 41, רעננה",הגליל 41,6580-243-14,דירה בבית קומות,5.0,רביעית+גג,109.3,2300000,,,1984.0,,4.0,8450244038,1,6580243,False,62% ב 8.8 שנים,רעננה,הגליל,7.05,6580-243-14,6580/243,21043.00091491309,32.1832932372,34.8787264209,2014
2014-09-29,2014-09-29,"הגליל 10, רעננה",הגליל 10,6580-264-22,דירה בבית קומות,3.0,ג',80.73,1450000,,,1965.0,,3.0,8449697474,1,6580264,False,,רעננה,הגליל,,6580-264-22,6580/264,17961.104917626657,32.1807464347,34.8786409314,2014
2014-09-23,2014-09-23,"חפץ חיים 48, רעננה",חפץ חיים 48,6580-531-1,קוטג' דו משפחתי,6.0,מרתף+קרקע+ראשונה,159.5,3873000,,,2000.0,,,8449281224,1,6580531,False,,רעננה,חפץ חיים,,6580-531-1,6580/531,24282.131661442007,32.1861138202,34.8687342884,2014
2014-09-23,2014-09-23,"הגליל 59, רעננה",הגליל 59,6580-752-8,דירה בבית קומות,3.0,ראשונה,64.54,1465000,,,1970.0,,3.0,8449540742,1,6580752,False,,רעננה,הגליל,,6580-752-8,6580/752,22699.10133250697,32.1849147777,34.8792104232,2014
2014-09-23,2014-09-23,"אחוזה 102, רעננה",אחוזה 102,6580-590-21,דירה בבית קומות,3.0,ג',72.58,1370000,,,1970.0,,3.0,8450042536,1,6580590,False,128% ב 5 שנים,רעננה,אחוזה,25.6,6580-590-21,6580/590,18875.72333976302,32.1802763152,34.8772285936,2014
2014-09-22,2014-09-22,"סשה ארגוב 16, רעננה",סשה ארגוב 16,7661-167-19,דירה בבית קומות,5.0,קרקע,122.15,2850000,,,2014.0,,6.0,8449621180,1,7661167,False,,רעננה,סשה ארגוב,,7661-167-19,7661/167,23331.968890708144,32.1938025935,34.8665569746,2014
2014-09-22,2014-09-22,"חנקין 30, רעננה",חנקין 30,6580-271-4,דירה בבית קומות,3.5,שניה,71.15,1562000,,,1979.0,,5.0,8449543110,1,6580271,False,,רעננה,חנקין,,6580-271-4,6580/271,21953.61911454673,32.1824546195,34.8778352856,2014
2014-09-22,2014-09-22,"קזן 4, רעננה",קזן 4,6586-900-3,דירה בבית קומות,4.0,ראשונה,112.5,1719000,,,1996.0,,7.0,8451255988,1,6586900,False,26% ב 8.3 שנים,רעננה,קזן,3.13,6586-900-3,6586/900,15280.0,32.1783835177,34.8806174861,2014
2014-09-21,2014-09-21,"מנדלי 5, רעננה",מנדלי 5,6583-436-1,בית בודד,8.0,קרקע+ראשונה,150.6,4350000,,,1979.0,,,8449773250,1,6583436,False,,רעננה,מנדלי,,6583-436-1,6583/436,28884.462151394426,32.1771234884,34.8661015526,2014
2014-09-21,2014-09-21,"אהוד מנור 11, רעננה",אהוד מנור 11,7661-169-17,דירה בבית קומות,4.0,קרקע,82.19,2390000,,,2014.0,,5.0,8450690924,1,7661169,False,0% ב 0.3 שנים,רעננה,אהוד מנור,0.0,7661-169-17,7661/169,29078.963377539847,32.1948996711,34.8674885174,2014
2014-09-21,2014-09-21,"הסייפן 7, רעננה",הסייפן 7,7650-327-13,דירה בבית קומות,4.0,שלישית,85.2,2025000,,,1998.0,,4.0,8449354484,1,7650327,False,59% ב 9.6 שנים,רעננה,הסייפן,6.15,7650-327-13,7650/327,23767.605633802817,32.1908378022,34.8496699919,2014
2014-09-18,2014-09-18,"הפלמ""ח 4, רעננה","הפלמ""ח 4",7655-387-2,קרקע למגורים,,,60007.0,65450000,,,,,,8452146134,1,7655387,False,,רעננה,"הפלמ""ח",,7655-387-2,7655/387,1090.7060842901662,32.1894597439,34.8766009822,2014
2014-09-17,2014-09-17,"הזהב 4, רעננה",הזהב 4,6578-549-41,דירה בבית קומות,5.0,אחת עשרה,103.65,2700000,,,2002.0,,15.0,8451516246,1,6578549,False,87% ב 8.5 שנים,רעננה,הזהב,10.24,6578-549-41,6578/549,26049.20405209841,32.1858330799,34.8883861687,2014
2014-09-17,2014-09-17,"שברץ 3, רעננה",שברץ 3,6581-373-11,דירה בבית קומות,5.0,חמישית,152.0,2555000,1.0,שברץ 3 רעננה,1970.0,2015.0,3.0,8450317890,1,6581373,False,,רעננה,שברץ,,6581-373-11,6581/373,16809.21052631579,32.1797166424,34.8810560721,2014
2014-09-16,2014-09-16,"עקיבא 86, רעננה",עקיבא 86,6578-475-20,דירה בבית קומות,4.0,ראשונה,108.0,2090000,,,1990.0,,4.0,8449959508,1,6578475,False,,רעננה,עקיבא,,6578-475-20,6578/475,19351.85185185185,32.1886558809,34.8837177949,2014
2014-09-15,2014-09-15,"שלום עליכם 21, רעננה",שלום עליכם 21,6583-395-1,בית בודד,7.0,"מרתף,קר,א,ב",171.23,4450000,,,1979.0,,2.0,8450021742,1,6583395,False,86% ב 7.8 שנים,רעננה,שלום עליכם,11.03,6583-395-1,6583/395,25988.436605734976,32.1764660516,34.8723794679,2014
2014-09-15,2014-09-15,"המחתרות 4, רעננה",המחתרות 4,7654-456-18,דירה בבית קומות,5.0,קרקע + רביעית,107.7,2720000,,,2004.0,,6.0,8449314228,1,7654456,False,84% ב 10.6 שנים,רעננה,המחתרות,7.92,7654-456-18,7654/456,25255.338904363973,32.1898151454,34.865308899,2014
2014-09-14,2014-09-14,"גורדון 34, רעננה",גורדון 34,6582-116-1,דירה בבית קומות,6.0,קרקע וראשונה,156.87,4500000,,,1970.0,,,8449184654,1,6582116,False,,רעננה,גורדון,,6582-116-1,6582/116,28686.173264486515,32.1779914669,34.863922801,2014
2014-09-14,2014-09-14,"החורשה 28, רעננה",החורשה 28,6586-577-2,דירה בבית קומות,9.0,ראשונה,285.0,4200000,,,1979.0,,1.0,8449631022,1,6586577,False,,רעננה,החורשה,,6586-577-2,6586/577,14736.842105263158,32.1746874442,34.8793512498,2014
2014-09-14,2014-09-14,"רבקה גובר 12, רעננה",רבקה גובר 12,7649-198-9,דירה בבית קומות,4.0,שניה,102.23,2120000,,,1995.0,,3.0,8449005870,1,7649198,False,83% ב 10.3 שנים,רעננה,גובר רבקה,8.06,7649-198-9,7649/198,20737.552577521277,32.1953011394,34.8505746699,2014
2014-09-14,2014-09-14,"משה וילנסקי 60, רעננה",משה וילנסקי 60,7661-144-38,דירה בבית קומות,5.0,שניה,130.4,2763000,,,2014.0,,6.0,8449469258,1,7661144,False,,רעננה,משה וילנסקי,,7661-144-38,7661/144,21188.650306748463,32.1951570135,34.863156203,2014
2014-09-12,2014-12-09,"שבזי 21, רעננה",שבזי 21,7654-29-1,קרקע למגורים,,,493.0,1333000,,,,,,8453026586,1,765429,False,,רעננה,שבזי,,7654-29-1,7654/29,2703.853955375253,32.1899963763,34.8680029106,2014
2014-09-11,2014-11-09,"מכבי 50, רעננה",מכבי 50,6580-1085-16,דירה בבית קומות,4.0,קומה ‎2‏,93.2,2371000,,,2015.0,,7.0,8451686520,1,65801085,False,,רעננה,מכבי,,6580-1085-16,6580/1085,25439.91416309013,32.1836877338,34.8802879686,2014
2014-09-11,2014-11-09,"הגליל 41, רעננה",הגליל 41,6580-243-10,דירה בבית קומות,4.0,שלישית,99.6,1650000,,,1984.0,,4.0,8451148688,1,6580243,False,,רעננה,הגליל,,6580-243-10,6580/243,16566.265060240963,32.1832932372,34.8787264209,2014
2014-09-11,2014-11-09,"מוצקין 10, רעננה",מוצקין 10,6580-171-2,קוטג' טורי,4.0,קרקע+א+ב+גג,113.37,2734000,,,1976.0,,2.0,8452481428,1,6580171,False,,רעננה,מוצקין,,6580-171-2,6580/171,24115.72726470848,32.1833723782,34.8687046125,2014
2014-09-11,2014-11-09,"הר סיני 16, רעננה",הר סיני 16,6580-676-9,דירה בבית קומות,4.0,שלישית,101.08,2100000,,,1980.0,,4.0,8453290322,1,6580676,False,116% ב 11.5 שנים,רעננה,הר סיני,10.09,6580-676-9,6580/676,20775.623268698066,32.1842078265,34.8701914017,2014
2014-09-11,2014-11-09,"היובל 26, רעננה",היובל 26,6580-821-27,דירה בבית קומות,4.0,שניה,75.4,1635000,,,1983.0,,8.0,8450966648,1,6580821,False,60% ב 6.9 שנים,רעננה,היובל,8.7,6580-821-27,6580/821,21684.350132625998,32.185471701,34.8733370082,2014
2014-09-09,2014-09-09,"מכבי 1, רעננה",מכבי 1,6580-1071-12,חנות,,קרקע,21.3,800000,,,2001.0,,9.0,8449155498,1,65801071,False,5% ב 14.1 שנים,רעננה,מכבי,0.35,6580-1071-12,6580/1071,37558.68544600939,32.1800820199,34.8783805061,2014
2014-09-09,2014-09-09,"לוי אשכול 15, רעננה",לוי אשכול 15,6586-814-3,דירה בבית קומות,2.0,ראשונה,56.3,1280000,,,1970.0,,3.0,8448818428,1,6586814,False,47% ב 6.3 שנים,רעננה,אשכול לוי,7.46,6586-814-3,6586/814,22735.346358792187,32.1768779441,34.8790625497,2014
2014-09-09,2014-09-09,"שברץ 14, רעננה",שברץ 14,6581-550-26,דירה בבית קומות,4.0,שניה,97.88,1840000,,,1980.0,,6.0,8450080350,1,6581550,False,10% ב 2.8 שנים,רעננה,שברץ,3.57,6581-550-26,6581/550,18798.52881078872,32.1812522046,34.8823157848,2014
2014-09-07,2014-07-09,"ויצמן 220, רעננה",ויצמן 220,7649-216-1,דירה בבית קומות,4.0,קרקע,81.38,1735000,,,1995.0,,3.0,8447815432,1,7649216,False,62% ב 9 שנים,רעננה,ויצמן,6.89,7649-216-1,7649/216,21319.73457852052,32.192953952,34.8514525904,2014
2014-09-07,2014-07-09,"יהודה הלוי 5, רעננה",יהודה הלוי 5,6583-709-1,בית בודד,7.0,קרקע+ראשונה,200.02,6000000,,,1990.0,,2.0,8446723932,1,6583709,False,,רעננה,יהודה הלוי,,6583-709-1,6583/709,29997.00029997,32.1814774952,34.8666178256,2014
2014-09-07,2014-07-09,"עקיבא 25, רעננה",עקיבא 25,6581-593-71,דירה בבית קומות,5.0,שניה,113.0,1870000,,,1980.0,,5.0,8445675500,1,6581593,False,102% ב 15 שנים,רעננה,עקיבא,6.8,6581-593-71,6581/593,16548.672566371682,32.1819399179,34.880695573,2014
2014-09-06,2014-06-09,"קרן היסוד 12, רעננה",קרן היסוד 12,6580-853-21,דירה בבית קומות,4.0,שלישית,88.51,1570000,,,1980.0,,5.0,8444955702,1,6580853,False,8% ב 3.5 שנים,רעננה,קרן היסוד,2.29,6580-853-21,6580/853,17738.10868828381,32.1833966845,34.8713481013,2014
2014-09-06,2014-06-09,"הגפן 2, רעננה",הגפן 2,7651-267-3,קוטג' דו משפחתי,6.0,ראשונה,285.0,9300000,,,1989.0,,1.0,8445535122,1,7651267,False,,רעננה,הגפן,,7651-267-3,7651/267,32631.57894736842,32.1911296083,34.8590964192,2014
2014-09-04,2014-04-09,"חנקין 6, רעננה",חנקין 6,6580-589-58,דירה בבית קומות,4.0,ג',71.5,1300000,,,1960.0,,4.0,8443709098,1,6580589,False,,רעננה,חנקין,,6580-589-58,6580/589,18181.81818181818,32.1805482406,34.8772887568,2014
2014-09-04,2014-04-09,"בר אילן 19, רעננה",בר אילן 19,6580-796-3,דירה בבית קומות,4.0,שניה,109.36,1650000,,,1979.0,,3.0,8442485804,1,6580796,False,10% ב 1.1 שנים,רעננה,בר אילן,9.09,6580-796-3,6580/796,15087.783467446963,32.1827824491,34.8737534813,2014
2014-09-04,2014-04-09,"שושנה דמארי 16, רעננה",שושנה דמארי 16,7661-163-46,דירה בבית קומות,5.0,קרקע,119.35,2937000,,,2014.0,,6.0,8441861170,1,7661163,False,,רעננה,שושנה דמארי,,7661-163-46,7661/163,24608.294930875574,32.1955520357,34.8718946024,2014
2014-09-04,2014-04-09,"משה וילנסקי 58, רעננה",משה וילנסקי 58,7661-144-56,דירה בבית קומות,4.0,שלישית,95.87,2090000,,,2014.0,,6.0,8442521102,1,7661144,False,,רעננה,משה וילנסקי,,7661-144-56,7661/144,21800.3546469177,32.1951570135,34.863156203,2014
2014-09-03,2014-03-09,"אחד העם 16, רעננה",אחד העם 16,6581-833-1,קוטג' דו משפחתי,7.0,ראשונה,270.0,4500000,,,2006.0,,1.0,8441241568,1,6581833,False,,רעננה,אחד העם,,6581-833-1,6581/833,16666.666666666668,32.1803610378,34.8834400758,2014
2014-09-03,2014-03-09,"עקיבא 85, רעננה",עקיבא 85,6578-594-1,בית בודד,5.0,שניה,160.0,4000000,,,1999.0,,1.0,8440689010,1,6578594,False,,רעננה,עקיבא,,6578-594-1,6578/594,25000.0,32.1871038567,34.8826437781,2014
2014-09-03,2014-03-09,"ארלוזורוב 19, רעננה",ארלוזורוב 19,6586-526-3,דירה בבית קומות,3.5,שניה,70.5,1370000,,,1975.0,,4.0,8441035108,1,6586526,False,,רעננה,ארלוזורוב,,6586-526-3,6586/526,19432.624113475176,32.177769262,34.8786355617,2014
2014-09-02,2014-02-09,"קרן היסוד 15, רעננה",קרן היסוד 15,6580-721-40,דירה בבית קומות,6.0,שישית,197.0,3552000,1.0,קרן היסוד 15 רעננה,1970.0,2013.0,4.0,8439030966,1,6580721,False,,רעננה,קרן היסוד,,6580-721-40,6580/721,18030.45685279188,32.1836137221,34.8705730636,2014
2014-09-01,2014-01-09,"ההגנה 95, רעננה",ההגנה 95,7654-111-44,דירה בבית קומות,4.0,חמישית,95.0,1750000,1.0,ההגנה 95-97 רעננה,1970.0,2014.0,6.0,8437123542,1,7654111,False,,רעננה,ההגנה,,7654-111-44,7654/111,18421.052631578947,32.1888717056,34.8668030242,2014
2014-08-31,2014-08-31,"הטייסים 15, רעננה",הטייסים 15,6578-162-2,קוטג' דו משפחתי,5.0,מרתף + קרקע + ראשונה,218.92,4800000,,,1978.0,,2.0,8448451462,1,6578162,False,52% ב 9.1 שנים,רעננה,הטייסים,5.71,6578-162-2,6578/162,21925.81765028321,32.1878116052,34.8811304114,2014
2014-08-31,2014-08-31,"גולומב 23, רעננה",גולומב 23,6580-827-19,דירה בבית קומות,4.0,חמישית,95.9,1665000,,,1985.0,,7.0,8448474772,1,6580827,False,68% ב 12.5 שנים,רעננה,גולומב,5.44,6580-827-19,6580/827,17361.83524504692,32.1826588265,34.8724579856,2014
2014-08-29,2014-08-29,"הרקפת 3, רעננה",הרקפת 3,6578-495-33,דירה בבית קומות,4.0,שניה,86.0,1800000,,,1998.0,,3.0,8449007054,1,6578495,False,,רעננה,הרקפת,,6578-495-33,6578/495,20930.23255813953,32.1893717708,34.8868308617,2014
2014-08-28,2014-08-28,"רבוצקי 89, רעננה",רבוצקי 89,6578-495-17,דירה בבית קומות,5.0,ראשונה,115.0,1800000,,,1997.0,,3.0,8448904564,1,6578495,False,,רעננה,רבוצקי,,6578-495-17,6578/495,15652.173913043478,32.1893717708,34.8868308617,2014
2014-08-28,2014-08-28,"הזמיר 9, רעננה",הזמיר 9,7651-387-2,בית בודד,6.0,שניה,200.0,8050000,,,1994.0,,1.0,8449142622,1,7651387,False,,רעננה,הזמיר,,7651-387-2,7651/387,40250.0,32.1905875493,34.8540896225,2014
2014-08-26,2014-08-26,"זבוטינסקי 5, רעננה",זבוטינסקי 5,6583-658-42,משרד,,ראשונה,,120000,,,2000.0,,3.0,8448549808,1,6583658,False,,רעננה,ז'בוטינסקי,,6583-658-42,6583/658,,32.1798183167,34.8743224017,2014
2014-08-25,2014-08-25,"עקיבא 75, רעננה",עקיבא 75,6578-22-1,קוטג' דו משפחתי,5.0,שלישית,344.0,6400000,,,1980.0,,1.0,8449826456,1,657822,False,,רעננה,עקיבא,,6578-22-1,6578/22,18604.6511627907,32.1863362047,34.882449312,2014
2014-08-25,2014-08-25,"חנקין 16, רעננה",חנקין 16,6580-192-2,דירה בבית קומות,5.0,קרקע,95.42,2365000,,,2013.0,,4.0,8448992994,1,6580192,False,,רעננה,חנקין,,6580-192-2,6580/192,24785.16034374345,32.1813335441,34.8774922072,2014
2014-08-24,2014-08-24,"הדוכיפת 19, רעננה",הדוכיפת 19,7651-431-1,דירה בבית קומות,5.0,מרתף+קרקע,184.0,3500000,,,1981.0,,1.0,8448503484,1,7651431,False,51% ב 7.1 שנים,רעננה,דוכיפת,7.18,7651-431-1,7651/431,19021.739130434784,32.1909610851,34.85284375,2014
2014-08-24,2014-08-24,"שברץ 14, רעננה",שברץ 14,6581-550-34,דירה בבית קומות,4.0,רביעית,95.35,1700000,,,1980.0,,6.0,8449911260,1,6581550,False,,רעננה,שברץ,,6581-550-34,6581/550,17829.050865233352,32.1812522046,34.8823157848,2014
2014-08-22,2014-08-22,"לוי אשכול 15, רעננה",לוי אשכול 15,6586-814-7,דירה בבית קומות,3.0,שלישית,72.37,1400000,,,1970.0,,3.0,8448164638,1,6586814,False,,רעננה,אשכול לוי,,6586-814-7,6586/814,19345.032472018796,32.1768779441,34.8790625497,2014
2014-08-22,2014-08-22,"רמב""ם 54, רעננה","רמב""ם 54",6586-33-2,קוטג' חד משפחתי,5.0,ראשונה,250.0,4198000,,,1980.0,,1.0,8449120644,1,658633,False,,רעננה,"רמב""ם",,6586-33-2,6586/33,16792.0,32.1761841161,34.875865092,2014
2014-08-21,2014-08-21,"התחייה 8, רעננה",התחייה 8,7649-112-2,קרקע למגורים,,ראשונה,53.4,2450000,,,1970.0,,1.0,8448815320,1,7649112,False,,רעננה,התחיה,,7649-112-2,7649/112,45880.14981273408,32.1949254307,34.8537137339,2014
2014-08-21,2014-08-21,"עגנון 14, רעננה",עגנון 14,6583-591-14,דירה בבית קומות,4.0,רביעית,92.7,1648000,,,1985.0,,5.0,8447935608,1,6583591,False,,רעננה,עגנון,,6583-591-14,6583/591,17777.777777777777,32.1764626685,34.8699878394,2014
2014-08-21,2014-08-21,"אשכול 2, רעננה",אשכול 2,6586-531-11,חנות,,קרקע + ביניים,61.0,1080000,,,1995.0,,3.0,8450253140,1,6586531,False,51% ב 8.7 שנים,רעננה,אשכול לוי,5.86,6586-531-11,6586/531,17704.918032786885,32.1789859099,34.8792684786,2014
2014-08-21,2014-08-21,"העפרוני 2, רעננה",העפרוני 2,7651-433-1,קוטג' דו משפחתי,7.0,,999.0,7640000,,,1994.0,,2.0,8448387452,1,7651433,False,,רעננה,העפרוני,,7651-433-1,7651/433,7647.647647647647,32.1905780137,34.8526498823,2014
2014-08-21,2014-08-21,"אחוזה 100, רעננה",אחוזה 100,6580-590-44,משרד,,ביניים,53.99,500000,,,1996.0,,4.0,8449300760,1,6580590,False,,רעננה,אחוזה,,6580-590-44,6580/590,9260.974254491572,32.1802763152,34.8772285936,2014
2014-08-21,2014-08-21,"הנשר 11, רעננה",הנשר 11,7651-484-5,דירה בבית קומות,4.0,ראשונה,99.5,2087000,,,1999.0,,2.0,8448453386,1,7651484,False,,רעננה,הנשר,,7651-484-5,7651/484,20974.874371859296,32.1897899249,34.8541217796,2014
2014-08-20,2014-08-20,"הארז 10, רעננה",הארז 10,6578-457-2,קוטג' דו משפחתי,6.0,קרקע+ראשונה,173.3,3750000,,,1995.0,,2.0,8448013160,1,6578457,False,84% ב 14.9 שנים,רעננה,הארז,5.64,6578-457-2,6578/457,21638.776687824586,32.1863929749,34.8859940631,2014
2014-08-20,2014-08-20,"רימלט אלימלך 20, רעננה",רימלט אלימלך 20,7649-259-7,דירה בבית קומות,4.0,שניה,86.45,1640000,,,1998.0,,4.0,8447953960,1,7649259,False,6% ב 3.1 שנים,רעננה,רימלט אלימלך,1.94,7649-259-7,7649/259,18970.503181029497,32.1956476914,34.8493186177,2014
2014-08-19,2014-08-19,"קצין 16, רעננה",קצין 16,6587-304-4,קוטג' טורי,5.0,מרתף+קרקע+ראשונה,132.0,2720000,,,1970.0,,2.0,8447925174,1,6587304,False,,רעננה,קצין,,6587-304-4,6587/304,20606.060606060608,32.1768597217,34.8831097856,2014
2014-08-18,2014-08-18,"תל חי 25, רעננה",תל חי 25,6580-428-11,דירה בבית קומות,3.0,שלישית,62.4,1510000,,,1975.0,,3.0,8447846512,1,6580428,False,99% ב 12.3 שנים,רעננה,תל חי,8.05,6580-428-11,6580/428,24198.71794871795,32.185567821,34.8737812062,2014
2014-08-18,2014-08-18,"הל""ה 13, רעננה","הל""ה 13",6579-591-2,דירת גן,5.0,קרקע+ראשונה,124.31,2950000,,,1988.0,,1.0,8447885066,1,6579591,False,42% ב 5.5 שנים,רעננה,"הל""ה",7.64,6579-591-2,6579/591,23730.99509291288,32.1849449493,34.8623043793,2014
2014-08-18,2014-08-18,"אנילביץ 33, רעננה",אנילביץ 33,7654-113-48,דירה בבית קומות,5.0,שישית,154.0,3460000,1.0,ההגנה 87,2013.0,,4.0,8447869082,1,7654113,False,,רעננה,אנילביץ,,7654-113-48,7654/113,22467.532467532463,32.1886170169,34.8681203309,2014
2014-08-17,2014-08-17,"הפרחים 38, רעננה",הפרחים 38,7651-535-9,דירה בבית קומות,4.0,קרקע תחתונה+שניה,99.5,2160000,,,2000.0,,1.0,8447833784,1,7651535,False,88% ב 14 שנים,רעננה,הפרחים,6.29,7651-535-9,7651/535,21708.54271356784,32.1805315709,34.8551888583,2014
2014-08-17,2014-08-17,"המלאכה 18, רעננה",המלאכה 18,7656-343-48,מלאכה,,ראשונה,116.56,775000,,,1980.0,,2.0,8448571194,1,7656343,False,,רעננה,המלאכה,,7656-343-48,7656/343,6648.936170212766,32.1980304085,34.8775863636,2014
2014-08-14,2014-08-14,"המחתרות 24, רעננה",המחתרות 24,7654-404-3,דירה בבית קומות,4.0,שניה,103.36,1950000,,,1997.0,,4.0,8447649894,1,7654404,False,57% ב 13.9 שנים,רעננה,המחתרות,4.1,7654-404-3,7654/404,18866.09907120743,32.190897558,34.8607802538,2014
2014-08-14,2014-08-14,"החרושת 19, רעננה",החרושת 19,8981-48-9,תעשיה,,קרקע,119.0,1449000,,,1990.0,,2.0,8448447244,1,898148,False,,רעננה,החרושת,,8981-48-9,8981/48,12176.470588235294,32.1952381421,34.8800817105,2014
2014-08-14,2014-08-14,"חייקה גרוסמן 5, רעננה",חייקה גרוסמן 5,7649-308-1,דירת גן,5.0,קרקע,129.6,3000000,,,2012.0,,5.0,8447847104,1,7649308,False,,רעננה,צביה לובטקין,,7649-308-1,7649/308,23148.14814814815,32.1955212038,34.8466109512,2014
2014-08-14,2014-08-14,"הגלבוע 3, רעננה",הגלבוע 3,7649-267-20,דירה בבית קומות,3.0,חמישית,72.4,1545000,,,1997.0,,6.0,8447913778,1,7649267,False,,רעננה,הגלבוע,,7649-267-20,7649/267,21339.77900552486,32.1960333557,34.8492383324,2014
2014-08-12,2014-12-08,"מכבי 50, רעננה",מכבי 50,6580-1085-6,דירה בבית קומות,4.0,קומה ‎2‏,93.2,2367000,,,2015.0,,7.0,8453468440,1,65801085,False,,רעננה,מכבי,,6580-1085-6,6580/1085,25396.995708154507,32.1836877338,34.8802879686,2014
2014-08-12,2014-12-08,"הגדוד העברי 4, רעננה",הגדוד העברי 4,6579-409-4,דירה בבית קומות,4.0,ראשונה,87.0,2150000,,,1970.0,,2.0,8511671808,1,6579409,False,,רעננה,הגדוד העברי,,6579-409-4,6579/409,24712.64367816092,32.1834012466,34.8658088684,2014
2014-08-10,2014-10-08,"ארלוזורוב 12, רעננה",ארלוזורוב 12,6586-264-2,דירה בבית קומות,4.0,ראשונה,107.0,2100000,,,1999.0,,4.0,8449986296,1,6586264,False,,רעננה,ארלוזורוב,,6586-264-2,6586/264,19626.168224299065,32.1778001957,34.8782456974,2014
2014-08-10,2014-10-08,"הרצוג 11, רעננה",הרצוג 11,6583-416-37,דירה בבית קומות,5.0,רביעית,125.0,2700000,1.0,הרצוג,1960.0,2011.0,5.0,8451245036,1,6583416,False,,רעננה,הרצוג,,6583-416-37,6583/416,21600.0,32.1795194853,34.8732657479,2014
2014-08-09,2014-09-08,"מגדל 22, רעננה",מגדל 22,6579-500-3,דירה בבית קומות,5.0,"מרתף,ק,א'",205.0,3220000,,,1982.0,,2.0,8449309344,1,6579500,False,,רעננה,מגדל,,6579-500-3,6579/500,15707.317073170732,32.1848505388,34.8650648788,2014
2014-08-09,2014-09-08,"אחוזה 51, רעננה",אחוזה 51,6587-412-0,קומבינציה,,,619.0,5432000,,,0.0,,7.0,8450050454,1,6587412,False,,רעננה,אחוזה,,6587-412-0,6587/412,8775.444264943457,32.178396945,34.882759165,2014
2014-08-09,2014-09-08,"לוי אשכול 14, רעננה",לוי אשכול 14,6586-612-17,דירה בבית קומות,5.0,רביעית,136.0,2550000,1.0,לוי אשכול 14 רעננה,2014.0,,3.0,8450249440,1,6586612,False,,רעננה,אשכול לוי,,6586-612-17,6586/612,18750.0,32.1768600143,34.878630144,2014
2014-08-08,2014-08-08,"שברץ 2, רעננה",שברץ 2,6581-546-48,דירה בבית קומות,4.0,שישית,89.88,1499000,,,1987.0,,7.0,8449136480,1,6581546,False,,רעננה,שברץ,,6581-546-48,6581/546,16677.792612372054,32.1794981351,34.8817851,2014
2014-08-07,2014-07-08,"השקד 4, רעננה",השקד 4,6578-491-26,דירה בבית קומות,4.0,קרקע תחתונה+ראשונה,92.0,2000000,,,1997.0,,1.0,8447778654,1,6578491,False,48% ב 8.7 שנים,רעננה,השקד,5.52,6578-491-26,6578/491,21739.130434782608,32.1888633038,34.8857851468,2014
2014-08-07,2014-07-08,"אליעזר יפה 22, רעננה",אליעזר יפה 22,6580-615-33,דירה בבית קומות,5.0,חמישית,118.0,2467000,,,2014.0,,3.0,8447628508,1,6580615,False,,רעננה,יפה אליעזר,,6580-615-33,6580/615,20906.77966101695,32.184613825,34.8764666187,2014
2014-08-07,2014-07-08,"מכבי 50, רעננה",מכבי 50,6580-1085-12,דירה בבית קומות,7.0,"קומה ‎5‏, קומה ‎6‏",202.7,5800000,,,2015.0,,7.0,8446308052,1,65801085,False,,רעננה,מכבי,,6580-1085-12,6580/1085,28613.71484953133,32.1836877338,34.8802879686,2014
2014-08-06,2014-06-08,"הפרחים 13, רעננה",הפרחים 13,7651-623-164,דירה בבית קומות,2.5,קרקע ורביעית,71.0,1420000,,,2000.0,,7.0,8445330586,1,7651623,False,,רעננה,הפרחים,,7651-623-164,7651/623,20000.0,32.1799646053,34.8536566781,2014
2014-08-05,2014-05-08,"סשה ארגוב 16, רעננה",סשה ארגוב 16,7661-167-29,דירה בבית קומות,4.0,שלישית,95.46,2001000,,,2014.0,,6.0,8443327554,1,7661167,False,,רעננה,סשה ארגוב,,7661-167-29,7661/167,20961.65933375236,32.1938025935,34.8665569746,2014
2014-08-05,2014-05-08,"רמב""ם 71, רעננה","רמב""ם 71",6586-95-2,קוטג' דו משפחתי,6.0,שניה,248.0,9000000,,,1990.0,,1.0,8444213408,1,658695,False,,רעננה,"רמב""ם",,6586-95-2,6586/95,36290.32258064516,32.1744538618,34.8760615138,2014
2014-08-05,2014-05-08,"זבוטינסקי 9, רעננה",זבוטינסקי 9,6583-640-33,דירה בבית קומות,5.0,רביעית חמישית,95.0,2230000,,,1981.0,,5.0,8443842224,1,6583640,False,52% ב 5.7 שנים,רעננה,ז'בוטינסקי,9.12,6583-640-33,6583/640,23473.68421052632,32.1792739906,34.8741550976,2014
2014-08-05,2014-05-08,"היובל 24, רעננה",היובל 24,6580-822-4,דירה בבית קומות,5.0,ראשונה,101.6,1790000,,,2000.0,,7.0,8443849994,1,6580822,False,,רעננה,היובל,,6580-822-4,6580/822,17618.110236220473,32.1849604081,34.8731452787,2014
2014-08-05,2014-05-08,"מכבי 32, רעננה",מכבי 32,6580-128-3,דירה בבית קומות,4.0,שניה,96.05,1635000,,,1982.0,,4.0,8443355082,1,6580128,False,,רעננה,מכבי,,6580-128-3,6580/128,17022.3841749089,32.1821522579,34.8797924676,2014
2014-08-04,2014-04-08,"בר-אילן 28, רעננה",בר-אילן 28,6580-660-38,דירה בבית קומות,5.0,רביעית,123.0,2200000,1.0,בר אילן 28 רעננה,1970.0,2013.0,4.0,8441521140,1,6580660,False,,רעננה,בר אילן,,6580-660-38,6580/660,17886.17886178862,32.1829830374,34.8746058511,2014
2014-08-04,2014-04-08,"סשה ארגוב 16, רעננה",סשה ארגוב 16,7661-167-20,דירה בבית קומות,4.0,קרקע,84.4,2325000,,,2014.0,,6.0,8442872306,1,7661167,False,,רעננה,סשה ארגוב,,7661-167-20,7661/167,27547.393364928907,32.1938025935,34.8665569746,2014
2014-08-04,2014-04-08,"אסתר המלכה 12, רעננה",אסתר המלכה 12,7656-112-2,קרקע למגורים,,ראשונה,31.7,2672000,,,1960.0,,1.0,8443253702,1,7656112,False,48% ב 1.7 שנים,רעננה,אסתר המלכה,28.24,7656-112-2,7656/112,84290.22082018928,32.1975186192,34.8754925564,2014
2014-08-01,2014-01-08,"ארלוזורוב 30, רעננה",ארלוזורוב 30,6586-482-2,דירה בבית קומות,5.0,ראשונה,116.0,2490000,,,2000.0,,2.0,8436709068,1,6586482,False,51% ב 7.6 שנים,רעננה,ארלוזורוב,6.71,6586-482-2,6586/482,21465.51724137931,32.1753501292,34.8774931862,2014
2014-07-31,2014-07-31,"אליעזר יפה 22, רעננה",אליעזר יפה 22,6580-615-5,דירה בבית קומות,4.0,חמישית,115.0,2611000,1.0,אליעזר יפה,2014.0,,3.0,8448651780,1,6580615,False,,רעננה,יפה אליעזר,,6580-615-5,6580/615,22704.34782608696,32.184613825,34.8764666187,2014
2014-07-31,2014-07-31,"אליעזר יפה 22, רעננה",אליעזר יפה 22,6580-615-18,דירה בבית קומות,5.0,רביעית,133.0,2029000,,,2014.0,,3.0,8448654740,1,6580615,False,,רעננה,יפה אליעזר,,6580-615-18,6580/615,15255.63909774436,32.184613825,34.8764666187,2014
2014-07-31,2014-07-31,"עקיבא 25, רעננה",עקיבא 25,6581-593-67,דירה בבית קומות,5.0,ראשונה,113.0,1870000,,,1980.0,,5.0,8448311676,1,6581593,False,,רעננה,עקיבא,,6581-593-67,6581/593,16548.672566371682,32.1819399179,34.880695573,2014
2014-07-30,2014-07-30,"אליעזר יפה 22, רעננה",אליעזר יפה 22,6580-615-2,דירה,5.0,חמישית,133.0,2000000,1.0,אליעזר יפה,2014.0,,3.0,11181281251,1,6580615,False,,רעננה,יפה אליעזר,,6580-615-2,6580/615,15037.593984962406,32.184613825,34.8764666187,2014
2014-07-30,2014-07-30,"אליעזר יפה 22, רעננה",אליעזר יפה 22,6580-615-4,דירת גג (פנטהאוז),5.0,רביעית,141.0,2965750,1.0,אליעזר יפה,2014.0,,3.0,11181281253,1,6580615,False,,רעננה,יפה אליעזר,,6580-615-4,6580/615,21033.68794326241,32.184613825,34.8764666187,2014
2014-07-30,2014-07-30,"יגאל ידין 8, רעננה",יגאל ידין 8,6582-181-7,דירה בבית קומות,6.0,מרתף+קרקע+ראשונה,207.57,3700000,,,1986.0,,2.0,8447987630,1,6582181,False,,רעננה,ידין יגאל,,6582-181-7,6582/181,17825.311942959,32.182726082,34.8623140762,2014
2014-07-27,2014-07-27,"הברוש 10, רעננה",הברוש 10,7651-171-1,בית בודד,7.0,א',95.0,7500000,,,1990.0,,1.0,8446825090,1,7651171,False,,רעננה,הברוש,,7651-171-1,7651/171,78947.36842105263,32.1902639137,34.8565767015,2014
2014-07-27,2014-07-27,"אחד העם 3, רעננה",אחד העם 3,6581-803-1,דירה בבית קומות,1.0,ראשונה,27.47,930000,,,2002.0,,7.0,8447234236,1,6581803,False,24% ב 3.6 שנים,רעננה,אחד העם,6.67,6581-803-1,6581/803,33855.114670549694,32.1793555109,34.8821482038,2014
2014-07-27,2014-07-27,"ביל""ו 52, רעננה","ביל""ו 52",6582-250-3,קוטג' דו משפחתי,7.0,קרקע + ראשונה,176.68,3750000,,,1987.0,,1.0,8446674426,1,6582250,False,,רעננה,"ביל""ו",,6582-250-3,6582/250,21224.81322164365,32.1807234465,34.8623941793,2014
2014-07-27,2014-07-27,"הצנחנים 1, רעננה",הצנחנים 1,6578-414-2,בית בודד,7.0,שלישית,400.0,10075000,,,2013.0,,1.0,8448010792,1,6578414,False,,רעננה,הצנחנים,,6578-414-2,6578/414,25187.5,32.1882456781,34.8808997729,2014
2014-07-27,2014-07-27,"קרן היסוד 18, רעננה",קרן היסוד 18,6580-852-12,דירה בבית קומות,4.0,רביעית,88.5,1700000,,,1986.0,,5.0,8448287256,1,6580852,False,0% ב 1.8 שנים,רעננה,קרן היסוד,0.0,6580-852-12,6580/852,19209.0395480226,32.1837711266,34.8714615291,2014
2014-07-27,2014-07-27,"החי""ל 3, רעננה","החי""ל 3",6580-723-42,דירה בבית קומות,5.0,שישית,125.0,2200000,1.0,קרן היסוד,1980.0,2014.0,4.0,8448423490,1,6580723,False,,רעננה,"החי""ל",,6580-723-42,6580/723,17600.0,32.1843020559,34.8706840135,2014
2014-07-24,2014-07-24,"לוי אשכול 14, רעננה",לוי אשכול 14,6586-612-15,דירה בבית קומות,4.0,רביעית,97.0,1875000,1.0,לוי אשכול 14 רעננה,2014.0,,3.0,8447334284,1,6586612,False,,רעננה,אשכול לוי,,6586-612-15,6586/612,19329.89690721649,32.1768600143,34.878630144,2014
2014-07-24,2014-07-24,"מכבי 66, רעננה",מכבי 66,6580-561-3,דירה בבית קומות,8.0,ראשונה,253.0,4550000,,,1980.0,,3.0,8447052196,1,6580561,False,51% ב 3.3 שנים,רעננה,מכבי,15.45,6580-561-3,6580/561,17984.18972332016,32.1854534823,34.8809801328,2014
2014-07-23,2014-07-23,"אליעזר יפה 22, רעננה",אליעזר יפה 22,6580-615-21,מגורים,,,21.0,5305000,,,0.0,,3.0,8448224948,1,6580615,False,,רעננה,יפה אליעזר,,6580-615-21,6580/615,252619.04761904763,32.184613825,34.8764666187,2014
2014-07-22,2014-07-22,"גאולה 12, רעננה",גאולה 12,7652-91-19,דירה בבית קומות,4.0,שישית,100.0,1373000,1.0,גאולה 12,1970.0,2014.0,3.0,8447276860,1,765291,False,,רעננה,גאולה,,7652-91-19,7652/91,13730.0,32.1946040631,34.8563274056,2014
2014-07-22,2014-07-22,"עקיבא 23, רעננה",עקיבא 23,6581-593-37,דירה בבית קומות,5.0,רביעית,114.0,2112000,,,1980.0,,6.0,8447165194,1,6581593,False,,רעננה,עקיבא,,6581-593-37,6581/593,18526.315789473683,32.1819399179,34.880695573,2014
2014-07-22,2014-07-22,"עגנון 13, רעננה",עגנון 13,6583-592-4,קוטג' טורי,6.0,"מרתף , קרקע, ראשונה",199.5,3840000,,,1990.0,,,8447234828,1,6583592,False,,רעננה,עגנון,,6583-592-4,6583/592,19248.12030075188,32.1763581032,34.8705732874,2014
2014-07-20,2014-07-20,"יעקב אורלנד 6, רעננה",יעקב אורלנד 6,7661-167-56,דירה בבית קומות,5.0,קרקע,112.23,2896000,,,2014.0,,6.0,8447145732,1,7661167,False,,רעננה,סשה ארגוב,,7661-167-56,7661/167,25804.152187472155,32.1938025935,34.8665569746,2014
2014-07-17,2014-07-17,"הפרחים 16, רעננה",הפרחים 16,6582-386-2,דירה בבית קומות,4.0,קרקע,91.42,2330000,,,2000.0,,4.0,8446198754,1,6582386,False,89% ב 12.8 שנים,רעננה,הפרחים,6.95,6582-386-2,6582/386,25486.76438416101,32.1785825631,34.8582578533,2014
2014-07-16,2014-07-16,"ההגנה 95, רעננה",ההגנה 95,7654-111-53,דירה בבית קומות,3.0,חמישית,90.0,1679000,1.0,ההגנה 95-97 רעננה,1970.0,2014.0,6.0,8446809846,1,7654111,False,,רעננה,ההגנה,,7654-111-53,7654/111,18655.555555555555,32.1888717056,34.8668030242,2014
2014-07-16,2014-07-16,"ההגנה 83, רעננה",ההגנה 83,7654-51-3,קוטג' דו משפחתי,6.0,ראשונה,228.0,2401000,,,1970.0,,2.0,8446934980,1,765451,False,,רעננה,ההגנה,,7654-51-3,7654/51,10530.701754385966,32.1886407325,34.8685883561,2014
2014-07-15,2014-07-15,"מאפו 11, רעננה",מאפו 11,6578-391-2,דירה בבית קומות,6.0,ראשונה,215.43,4825000,,,2000.0,,1.0,8447550956,1,6578391,False,,רעננה,מאפו,,6578-391-2,6578/391,22397.066332451377,32.1863560074,34.8832266468,2014
2014-07-14,2014-07-14,"אלי כהן 11, רעננה",אלי כהן 11,7654-123-14,דירה בבית קומות,4.0,א,78.0,1680000,,,2015.0,,3.0,8447447282,1,7654123,False,148% ב 12.9 שנים,רעננה,אלי כהן,11.47,7654-123-14,7654/123,21538.46153846154,32.1866379678,34.867515306,2014
2014-07-14,2014-07-14,"אחוזה 100, רעננה",אחוזה 100,6580-590-32,מחסנים,,מרתף תחתון,629.88,750000,,,1996.0,,4.0,8447313638,1,6580590,False,,רעננה,אחוזה,,6580-590-32,6580/590,1190.7029910459134,32.1802763152,34.8772285936,2014
2014-07-13,2014-07-13,"בר-אילן 18, רעננה",בר-אילן 18,6580-322-33,דירה בבית קומות,5.0,רביעית,150.0,3256000,1.0,בר אילן 18,1970.0,2014.0,6.0,8446151098,1,6580322,False,,רעננה,בר אילן,,6580-322-33,6580/322,21706.666666666668,32.1821149325,34.874314717,2014
2014-07-13,2014-07-13,"הבנים 3, רעננה",הבנים 3,6583-613-26,דירה בבית קומות,5.0,חמישית+שישית,157.85,2720000,,,1990.0,,7.0,8446315378,1,6583613,False,,רעננה,הבנים,,6583-613-26,6583/613,17231.548938866013,32.1799787373,34.8707511044,2014
2014-07-13,2014-07-13,"הזהב 4, רעננה",הזהב 4,6578-549-42,דירה בבית קומות,5.5,אחת עשרה,113.5,2500000,,,2002.0,,15.0,8447779986,1,6578549,False,58% ב 11.5 שנים,רעננה,הזהב,5.04,6578-549-42,6578/549,22026.431718061674,32.1858330799,34.8883861687,2014
2014-07-13,2014-07-13,"החי""ל 51, רעננה","החי""ל 51",6579-488-11,דירה בבית קומות,5.0,שלישית,117.64,1125000,,,1990.0,,6.0,8445904604,1,6579488,False,,רעננה,"החי""ל",,6579-488-11,6579/488,9563.073784427066,32.1857955637,34.8631217645,2014
2014-07-12,2014-12-07,"משה וילנסקי 3, רעננה",משה וילנסקי 3,7661-111-9,דירה בבית קומות,5.0,רביעית,133.3,2856000,,,2016.0,,5.0,8452491788,1,7661111,False,,רעננה,משה וילנסקי,,7661-111-9,7661/111,21425.35633908477,32.1942340165,34.8707581507,2014
2014-07-10,2014-10-07,"שושנה דמארי 1, רעננה",שושנה דמארי 1,7661-114-1,דירה בבית קומות,5.0,קרקע,139.95,2823000,,,2016.0,,5.0,8449931314,1,7661114,False,,רעננה,שושנה דמארי,,7661-114-1,7661/114,20171.48981779207,32.1937397116,34.8712390742,2014
2014-07-10,2014-10-07,"המעלות 9, רעננה",המעלות 9,6586-585-7,דירה בבית קומות,4.0,רביעית,100.0,2289000,1.0,המעלות 9 רעננה,2015.0,,2.0,8450961838,1,6586585,False,227% ב 16 שנים,רעננה,המעלות,14.19,6586-585-7,6586/585,22890.0,32.1789011634,34.8748664569,2014
2014-07-10,2014-10-07,"שושנה דמארי 1, רעננה",שושנה דמארי 1,7661-114-16,דירה בבית קומות,6.0,שניה,158.7,2660000,,,2016.0,,5.0,8449907042,1,7661114,False,,רעננה,שושנה דמארי,,7661-114-16,7661/114,16761.184625078768,32.1937397116,34.8712390742,2014
2014-07-10,2014-10-07,"אחד העם 5, רעננה",אחד העם 5,6581-828-2,דירה בבית קומות,5.0,"מרתף, קרקע, ראשונה",140.7,3100000,,,2012.0,,3.0,8450719044,1,6581828,False,,רעננה,אחד העם,,6581-828-2,6581/828,22032.693674484723,32.1799781399,34.8827800684,2014
2014-07-10,2014-10-07,"לוי אשכול 20, רעננה",לוי אשכול 20,6586-614-44,דירה בבית קומות,3.0,ראשונה,55.0,413000,,,2020.0,,6.0,8450259282,1,6586614,False,,רעננה,אשכול לוי,,6586-614-44,6586/614,7509.090909090909,32.1757099742,34.8782788594,2014
2014-07-09,2014-09-07,"הפעמונים 17, רעננה",הפעמונים 17,7651-643-12,דירה בבית קומות,5.0,רביעית+ חמישית,118.6,3100000,,,1999.0,,4.0,8449016896,1,7651643,False,,רעננה,הפעמונים,,7651-643-12,7651/643,26138.27993254637,32.1812326024,34.8572610791,2014
2014-07-08,2014-08-07,"קרן היסוד 15, רעננה",קרן היסוד 15,6580-721-12,דירה בבית קומות,4.0,שלישית,100.0,1750000,,,1970.0,,4.0,8448113948,1,6580721,False,,רעננה,קרן היסוד,,6580-721-12,6580/721,17500.0,32.1836137221,34.8705730636,2014
2014-07-08,2014-08-07,"מכבי 50, רעננה",מכבי 50,6580-1085-30,דירה בבית קומות,5.0,קומה ‎4‏,113.1,2819000,,,2015.0,,7.0,8447570566,1,65801085,False,,רעננה,מכבי,,6580-1085-30,6580/1085,24924.845269672856,32.1836877338,34.8802879686,2014
2014-07-08,2014-08-07,"אשכול 3, רעננה",אשכול 3,6586-854-3,דירה בבית קומות,3.0,שניה,100.0,1400000,,,1990.0,,4.0,8447896018,1,6586854,False,,רעננה,אשכול לוי,,6586-854-3,6586/854,14000.0,32.178647736,34.879612077,2014
2014-07-08,2014-08-07,"הכלנית 24, רעננה",הכלנית 24,6578-598-66,דירה בבית קומות,4.0,רביעית,87.7,1870000,,,2006.0,,6.0,8448627360,1,6578598,False,44% ב 7 שנים,רעננה,הכלנית,6.29,6578-598-66,6578/598,21322.690992018244,32.1908881241,34.8842313801,2014
2014-07-07,2014-07-07,"אליעזר יפה 22, רעננה",אליעזר יפה 22,6580-615-1,דירה,5.0,שישית,115.0,2425000,1.0,אליעזר יפה,2014.0,,3.0,11181281249,1,6580615,False,,רעננה,יפה אליעזר,,6580-615-1,6580/615,21086.95652173913,32.184613825,34.8764666187,2014
2014-07-05,2014-05-07,"משה וילנסקי 56, רעננה",משה וילנסקי 56,7661-144-27,דירה בבית קומות,4.0,שלישית,95.86,2093000,,,2014.0,,5.0,8443181034,1,7661144,False,,רעננה,משה וילנסקי,,7661-144-27,7661/144,21833.92447319007,32.1951570135,34.863156203,2014
2014-07-04,2014-04-07,"חטיבת גבעתי 1, רעננה",חטיבת גבעתי 1,6579-639-11,דירה בבית קומות,4.0,רביעית,96.97,1850000,,,1990.0,,9.0,8441629772,1,6579639,False,67% ב 13.5 שנים,רעננה,חטיבת גבעתי,4.96,6579-639-11,6579/639,19078.06538104569,32.1846420035,34.8633889443,2014
2014-07-04,2014-04-07,"משה וילנסקי 60, רעננה",משה וילנסקי 60,7661-144-37,דירה בבית קומות,4.0,שניה,95.39,2062000,,,2014.0,,6.0,8442453392,1,7661144,False,,רעננה,משה וילנסקי,,7661-144-37,7661/144,21616.521647971484,32.1951570135,34.863156203,2014
2014-07-04,2014-04-07,"מכבי 16, רעננה",מכבי 16,6580-939-7,דירה בבית קומות,6.0,רביעית+גג,118.98,2540000,,,1989.0,,5.0,8441756238,1,6580939,False,,רעננה,מכבי,,6580-939-7,6580/939,21348.12573541772,32.1809843845,34.8793592333,2014
2014-07-04,2014-04-07,"גאולה 12, רעננה",גאולה 12,7652-91-14,דירה בבית קומות,4.0,שישית,93.0,1400000,1.0,גאולה 12,1970.0,2014.0,3.0,8442632916,1,765291,False,,רעננה,גאולה,,7652-91-14,7652/91,15053.763440860215,32.1946040631,34.8563274056,2014
2014-07-01,2014-01-07,"בורוכוב 27, רעננה",בורוכוב 27,6580-33-9,דירה בבית קומות,5.0,שלישית,115.0,2250000,,,1988.0,,5.0,8437279312,1,658033,False,111% ב 14.7 שנים,רעננה,בורוכוב,7.55,6580-33-9,6580/33,19565.217391304348,32.1830370473,34.8766041447,2014
2014-06-30,2014-06-30,"אסירי ציון 25, רעננה",אסירי ציון 25,7652-290-1,דירה בבית קומות,3.0,ראשונה,60.5,1390000,,,2024.0,,4.0,8447271458,1,7652290,False,,רעננה,אסירי ציון,,7652-290-1,7652/290,22975.206611570247,32.1944465531,34.8574562065,2014
2014-06-30,2014-06-30,"המעלות 9, רעננה",המעלות 9,6586-585-23,קרקע למגורים,,,,55555000,,,0.0,,2.0,8450402768,1,6586585,False,,רעננה,המעלות,,6586-585-23,6586/585,,32.1789011634,34.8748664569,2014
2014-06-30,2014-06-30,"לוי אשכול 14, רעננה",לוי אשכול 14,6586-612-1,דירה בבית קומות,3.5,קומה ‎1‏,82.5,1560000,,,1970.0,,3.0,8445419090,1,6586612,False,52% ב 5.3 שנים,רעננה,אשכול לוי,9.81,6586-612-1,6586/612,18909.090909090908,32.1768600143,34.878630144,2014
2014-06-30,2014-06-30,"משה דיין 9, רעננה",משה דיין 9,6582-206-1,קוטג' טורי,5.0,קרקע+ראשונה,128.82,3390000,,,2006.0,,,8446497344,1,6582206,False,79% ב 9.2 שנים,רעננה,דיין משה,8.59,6582-206-1,6582/206,26315.789473684214,32.1804846354,34.8633758094,2014
2014-06-30,2014-06-30,"קזן 5, רעננה",קזן 5,6586-402-6,דירה בבית קומות,4.0,שניה,71.0,1505000,,,1970.0,,3.0,8445956996,1,6586402,False,107% ב 9.5 שנים,רעננה,קזן,11.26,6586-402-6,6586/402,21197.183098591548,32.1782184272,34.881178818,2014
2014-06-29,2014-06-29,"תל חי 20, רעננה",תל חי 20,6580-447-6,דירה בבית קומות,5.0,שניה,115.1,1920000,,,1984.0,,3.0,8445112656,1,6580447,False,,רעננה,תל חי,,6580-447-6,6580/447,16681.146828844485,32.1845269635,34.8738561111,2014
2014-06-29,2014-06-29,"הנשר 55, רעננה",הנשר 55,7650-332-4,דירה בבית קומות,5.0,ראשונה,105.1,2220000,,,1995.0,,3.0,8445508926,1,7650332,False,,רעננה,הנשר,,7650-332-4,7650/332,21122.740247383445,32.1904357668,34.8508178593,2014
2014-06-29,2014-06-29,"היובל 4, רעננה",היובל 4,6580-600-3,חנות,,"קרקע,מרתף שני(עליון)",70.4,990000,,,1990.0,,11.0,8446765890,1,6580600,False,55% ב 14.5 שנים,רעננה,היובל,3.79,6580-600-3,6580/600,14062.499999999998,32.182121968,34.8709925826,2014
2014-06-29,2014-06-29,"הגדוד העברי 4, רעננה",הגדוד העברי 4,6579-409-38,דירה בבית קומות,5.0,רביעית,150.0,2600000,,,1970.0,2014.0,2.0,8445601648,1,6579409,False,,רעננה,הגדוד העברי,,6579-409-38,6579/409,17333.333333333332,32.1834012466,34.8658088684,2014
2014-06-29,2014-06-29,"הגליל 50, רעננה",הגליל 50,6580-1026-5,דירה בבית קומות,5.0,שלישית,97.5,1770000,,,1986.0,,4.0,8446312270,1,65801026,False,,רעננה,הגליל,,6580-1026-5,6580/1026,18153.846153846152,32.1838586774,34.8794610777,2014
2014-06-28,2014-06-28,"המעלות 20, רעננה",המעלות 20,6586-675-10,דירה בבית קומות,5.0,ראשונה,104.37,1840000,,,1981.0,,5.0,8445347014,1,6586675,False,31% ב 5.5 שנים,רעננה,המעלות,5.64,6586-675-10,6586/675,17629.58704608604,32.1779106486,34.8741722802,2014
2014-06-26,2014-06-26,"רמב""ם 85, רעננה","רמב""ם 85",6586-944-5,קוטג' טורי,5.0,שלישית,200.0,3450000,,,2005.0,,1.0,8446645640,1,6586944,False,,רעננה,"רמב""ם",,6586-944-5,6586/944,17250.0,32.1734737524,34.8757804733,2014
2014-06-25,2014-06-25,"אחוזה 124, רעננה",אחוזה 124,6580-1054-25,חנות,,קרקע,32.4,700000,,,1990.0,,7.0,8445546000,1,65801054,False,,רעננה,אחוזה,,6580-1054-25,6580/1054,21604.93827160494,32.1811611659,34.8740474632,2014
2014-06-24,2014-06-24,"התמר 9, רעננה",התמר 9,7651-127-1,קוטג' דו משפחתי,9.0,ראשונה,478.0,7800000,,,1996.0,,1.0,8445961288,1,7651127,False,,רעננה,התמר,,7651-127-1,7651/127,16317.991631799165,32.1902225923,34.8586620508,2014
2014-06-24,2014-06-24,"הרב נסים יצחק 4, רעננה",הרב נסים יצחק 4,6581-604-2,קוטג' דו משפחתי,5.0,קרקע+ראשונה,207.24,5350000,,,1988.0,,,8446150506,1,6581604,False,,רעננה,הרב נסים יצחק,,6581-604-2,6581/604,25815.47963713569,32.1784498494,34.8866692588,2014
2014-06-24,2014-06-24,"הסחלב 1, רעננה",הסחלב 1,7651-671-1,דירה בבית קומות,4.0,שניה,117.0,1940000,,,2014.0,,3.0,8447079206,1,7651671,False,,רעננה,הסחלב,,7651-671-1,7651/671,16581.196581196582,32.1789245983,34.856801539,2014
2014-06-24,2014-06-24,"הסייפן 4, רעננה",הסייפן 4,7650-304-13,דירה בבית קומות,4.5,ראשונה,104.68,1950000,,,1994.0,,2.0,8444914188,1,7650304,False,55% ב 9.1 שנים,רעננה,הסייפן,6.04,7650-304-13,7650/304,18628.200229270155,32.1914816953,34.8506414035,2014
2014-06-24,2014-06-24,"ביאליק 8, רעננה",ביאליק 8,6586-588-9,דירה בבית קומות,4.0,רביעית,105.0,1885000,1.0,,1974.0,2014.0,3.0,8446227466,1,6586588,False,,רעננה,ביאליק,,6586-588-9,6586/588,17952.380952380954,32.1783000788,34.8797796399,2014
2014-06-24,2014-06-24,"בר-אילן 42, רעננה",בר-אילן 42,6580-310-8,דירה בבית קומות,7.0,שישית,220.0,4500000,1.0,תמא 38 בבניין ברחוב בר אילן 42,2016.0,,6.0,8447052788,1,6580310,False,,רעננה,בר אילן,,6580-310-8,6580/310,20454.545454545456,32.1842085137,34.8749570288,2014
2014-06-23,2014-06-23,"עגנון 20, רעננה",עגנון 20,6583-713-28,דירה בבית קומות,4.0,רביעית,90.0,1840000,,,1992.0,,7.0,8444930172,1,6583713,False,,רעננה,עגנון,,6583-713-28,6583/713,20444.444444444445,32.1757521644,34.8697639897,2014
2014-06-23,2014-06-23,"ביל""ו 47, רעננה","ביל""ו 47",6582-231-2,קוטג' טורי,5.0,"מרתף,קרקע,ראשונה",231.0,3650000,,,1997.0,,2.0,8445683566,1,6582231,False,88% ב 13.6 שנים,רעננה,"ביל""ו",6.47,6582-231-2,6582/231,15800.8658008658,32.1799726771,34.8627716806,2014
2014-06-23,2014-06-23,"דיין משה 44, רעננה",דיין משה 44,6582-278-1,דירת גן,5.0,קרקע,106.1,3000000,,,1997.0,,3.0,8444942900,1,6582278,False,106% ב 10.5 שנים,רעננה,דיין משה,10.1,6582-278-1,6582/278,28275.212064090483,32.1783374722,34.8621413966,2014
2014-06-23,2014-06-23,"ארלוזורוב 4, רעננה",ארלוזורוב 4,6586-932-10,דירה בבית קומות,3.0,חמישית,73.0,1720000,,,2004.0,,6.0,8446535158,1,6586932,False,,רעננה,ארלוזורוב,,6586-932-10,6586/932,23561.64383561644,32.1789675476,34.8785990671,2014
2014-06-22,2014-06-22,"הלוטוס 7, רעננה",הלוטוס 7,7651-564-2,דירה בבית קומות,5.0,ק. תחתונה+קרקע,97.2,2592000,,,2001.0,,5.0,8445756160,1,7651564,False,0% ב 3.3 שנים,רעננה,הלוטוס,0.0,7651-564-2,7651/564,26666.666666666664,32.180664193,34.8571860854,2014
2014-06-22,2014-06-22,"ההגנה 95, רעננה",ההגנה 95,7654-111-51,דירה בבית קומות,4.0,חמישית,86.0,1664000,1.0,ההגנה 95-97 רעננה,1970.0,2014.0,6.0,8444872156,1,7654111,False,,רעננה,ההגנה,,7654-111-51,7654/111,19348.837209302324,32.1888717056,34.8668030242,2014
2014-06-19,2014-06-19,"מכבי 50, רעננה",מכבי 50,6580-1085-2,דירה בבית קומות,5.0,קומה ‎1‏,114.0,3373000,,,2015.0,,7.0,8444850178,1,65801085,False,,רעננה,מכבי,,6580-1085-2,6580/1085,29587.71929824561,32.1836877338,34.8802879686,2014
2014-06-19,2014-06-19,"חנקין 18, רעננה",חנקין 18,6580-875-1,דירה בבית קומות,4.0,ראשונה,95.1,1925000,,,1986.0,,4.0,8445618224,1,6580875,False,14% ב 2.5 שנים,רעננה,חנקין,5.6,6580-875-1,6580/875,20241.850683491062,32.1814922421,34.8775165087,2014
2014-06-19,2014-06-19,"עגנון 20, רעננה",עגנון 20,6583-713-21,דירה בבית קומות,4.0,שניה,94.5,1550000,,,1992.0,,7.0,8444851954,1,6583713,False,,רעננה,עגנון,,6583-713-21,6583/713,16402.1164021164,32.1757521644,34.8697639897,2014
2014-06-18,2014-06-18,"הלוטוס 22, רעננה",הלוטוס 22,7651-628-52,בית בודד,4.5,"רביעית, חמישית",140.3,3170000,,,2004.0,,4.0,8445035696,1,7651628,False,,רעננה,הלוטוס,,7651-628-52,7651/628,22594.44048467569,32.1797855537,34.8556348927,2014
2014-06-18,2014-06-18,"משה וילנסקי 56, רעננה",משה וילנסקי 56,7661-144-26,דירה בבית קומות,5.0,שלישית,127.46,2738000,,,2014.0,,5.0,8444823242,1,7661144,False,,רעננה,משה וילנסקי,,7661-144-26,7661/144,21481.24901930017,32.1951570135,34.863156203,2014
2014-06-18,2014-06-18,"היקינטון 4, רעננה",היקינטון 4,7651-647-3,דירה בבית קומות,4.0,ראשונה,92.3,2175000,,,1999.0,,4.0,8445582778,1,7651647,False,3% ב 3 שנים,רעננה,היקינטון,1.0,7651-647-3,7651/647,23564.46370530877,32.18143717,34.8555353183,2014
2014-06-17,2014-06-17,"שושנה דמארי 16, רעננה",שושנה דמארי 16,7661-163-20,דירה בבית קומות,4.0,ראשונה,95.11,2026000,,,2014.0,,6.0,8444783652,1,7661163,False,,רעננה,שושנה דמארי,,7661-163-20,7661/163,21301.65072021869,32.1955520357,34.8718946024,2014
2014-06-17,2014-06-17,"הסחלב 2, רעננה",הסחלב 2,7651-668-15,דירה בבית קומות,5.0,"רביעית, חמישית",117.84,3591000,,,2015.0,,3.0,8445621776,1,7651668,False,,רעננה,הסחלב,,7651-668-15,7651/668,30473.523421588598,32.1788601932,34.8573820411,2014
2014-06-17,2014-06-17,"הפרחים 42, רעננה",הפרחים 42,7651-533-4,דירה בבית קומות,3.0,ק. תחתונה+ראשונה,96.5,2110000,,,2001.0,,3.0,8445138260,1,7651533,False,99% ב 13.5 שנים,רעננה,הפרחים,7.33,7651-533-4,7651/533,21865.284974093265,32.180608248,34.8545773412,2014
2014-06-16,2014-06-16,"הזהב 3, רעננה",הזהב 3,6578-550-29,דירה בבית קומות,4.0,שמינית,98.7,2175000,,,2008.0,,14.0,8444990556,1,6578550,False,35% ב 6 שנים,רעננה,הזהב,5.83,6578-550-29,6578/550,22036.47416413374,32.1859523546,34.8874676243,2014
2014-06-16,2014-06-16,"בורוכוב 31, רעננה",בורוכוב 31,6580-547-7,דירה בבית קומות,3.0,ב',73.78,1400000,,,1970.0,,3.0,8445046648,1,6580547,False,,רעננה,בורוכוב,,6580-547-7,6580/547,18975.3320683112,,,2014
2014-06-16,2014-06-16,"ברנר 30, רעננה",ברנר 30,6586-313-0,קרקע למגורים,,,500.0,674000,,,0.0,,3.0,8446328846,1,6586313,False,,רעננה,ברנר,,6586-313-0,6586/313,1348.0,32.1770323794,34.8773350111,2014
2014-06-15,2014-06-15,"רמב""ם 20, רעננה","רמב""ם 20",6586-17-18,דירת גג,4.5,שישית וגג,112.99,2380000,,,1970.0,2009.0,6.0,8445192650,1,658617,False,28% ב 4.8 שנים,רעננה,"רמב""ם",5.83,6586-17-18,6586/17,21063.810956721834,32.178656591,34.8766278694,2014
2014-06-15,2014-06-15,"היובל 23, רעננה",היובל 23,6580-884-23,דירה בבית קומות,4.5,שניה,107.05,1900000,,,1980.0,,5.0,8445108956,1,6580884,False,86% ב 10.8 שנים,רעננה,היובל,7.96,6580-884-23,6580/884,17748.715553479684,32.1847170859,34.8723290825,2014
2014-06-15,2014-06-15,"המחתרות 4, רעננה",המחתרות 4,7654-456-14,דירה בבית קומות,5.0,קרקע + שניה,108.0,2670000,,,2004.0,,6.0,8445189542,1,7654456,False,73% ב 9.2 שנים,רעננה,המחתרות,7.93,7654-456-14,7654/456,24722.222222222223,32.1898151454,34.865308899,2014
2014-06-11,2014-11-06,"הזהב 4, רעננה",הזהב 4,6578-549-37,דירה בבית קומות,5.0,עשירית,98.7,2480000,,,2002.0,,15.0,8451240892,1,6578549,False,75% ב 9.1 שנים,רעננה,הזהב,8.24,6578-549-37,6578/549,25126.646403242143,32.1858330799,34.8883861687,2014
2014-06-10,2014-10-06,"ארלוזורוב 58, רעננה",ארלוזורוב 58,6586-728-1,בית בודד,5.0,שניה,286.0,3330000,,,1990.0,,1.0,8450258098,1,6586728,False,,רעננה,ארלוזורוב,,6586-728-1,6586/728,11643.356643356645,32.1736017106,34.8769490017,2014
2014-06-10,2014-10-06,"יאיר 7, רעננה",יאיר 7,7649-309-6,דירה בבית קומות,5.0,ראשונה,132.0,3175000,,,2013.0,,5.0,8449779392,1,7649309,False,,רעננה,יאיר,,7649-309-6,7649/309,24053.030303030304,32.195301106,34.8471958649,2014
2014-06-10,2014-10-06,"יערה 20, רעננה",יערה 20,6578-564-1,מחסנים,,,40.0,771000,,,2014.0,,1.0,8451077870,1,6578564,False,,רעננה,יערה,,6578-564-1,6578/564,19275.0,32.1851557126,34.8866907398,2014
2014-06-10,2014-10-06,"יערה 20, רעננה",יערה 20,6578-564-2,משרד,,ראשונה,40.0,136000,,,2014.0,,1.0,8510041144,1,6578564,False,,רעננה,יערה,,6578-564-2,6578/564,3400.0,32.1851557126,34.8866907398,2014
2014-06-10,2014-10-06,"ציפמן 77, רעננה",ציפמן 77,6581-2-2,קוטג' דו משפחתי,8.0,"א,ב,ג,",272.49,6100000,,,1975.0,,1.0,8451298834,1,65812,False,118% ב 7.7 שנים,רעננה,ציפמן,15.32,6581-2-2,6581/2,22386.142610738007,32.1857502281,34.8818504769,2014
2014-06-10,2014-10-06,"בן-גוריון 9, רעננה",בן-גוריון 9,6583-612-1,דירה בבית קומות,5.0,ראשונה,115.0,1810000,,,1980.0,,7.0,8449894832,1,6583612,False,,רעננה,בן גוריון,,6583-612-1,6583/612,15739.130434782608,32.179535966,34.8716205537,2014
2014-06-08,2014-08-06,"קרן היסוד 48, רעננה",קרן היסוד 48,7655-373-17,דירה בבית קומות,4.0,שניה,110.0,1965000,,,1995.0,,3.0,8447537636,1,7655373,False,35% ב 6.5 שנים,רעננה,קרן היסוד,5.38,7655-373-17,7655/373,17863.636363636364,32.1897392233,34.8736081073,2014
2014-06-08,2014-08-06,"ברנר 16, רעננה",ברנר 16,6586-306-1,דירה בבית קומות,3.0,ראשונה,70.81,1450000,,,1977.0,,3.0,8448369692,1,6586306,False,74% ב 8 שנים,רעננה,ברנר,9.25,6586-306-1,6586/306,20477.33370992797,32.178158256,34.8776754333,2014
2014-06-08,2014-08-06,"חנקין 39, רעננה",חנקין 39,6580-566-6,דירה בבית קומות,3.0,שניה,62.5,1595000,,,1970.0,,3.0,8449053526,1,6580566,False,,רעננה,חנקין,,6580-566-6,6580/566,25520.0,,,2014
2014-06-07,2014-07-06,"קצין 10, רעננה",קצין 10,6587-303-6,בית בודד,5.0,מרתף+קרקע+ראשונה,132.0,2790000,,,1975.0,,2.0,8446796526,1,6587303,False,,רעננה,קצין,,6587-303-6,6587/303,21136.36363636364,32.1772684584,34.8832332661,2014
2014-06-07,2014-07-06,"יעקב חזן 1, רעננה",יעקב חזן 1,6579-856-1,קוטג' דו משפחתי,8.0,ראשונה,296.0,5800000,,,2011.0,,1.0,8446257954,1,6579856,False,,רעננה,חזן יעקב,,6579-856-1,6579/856,19594.594594594597,32.1894130105,34.860602344,2014
2014-06-07,2014-07-06,"הטללים 6, רעננה",הטללים 6,6579-728-2,קוטג' דו משפחתי,5.0,קרקע + ראשונה,194.02,4250000,,,1993.0,,4.0,8445778730,1,6579728,False,,רעננה,הטללים,,6579-728-2,6579/728,21904.958251726624,32.1875233233,34.8573884434,2014
2014-06-06,2014-06-06,"הפרחים 13, רעננה",הפרחים 13,7651-623-156,דירה בבית קומות,2.5,שלישית,67.0,1400000,,,2000.0,,7.0,8444589920,1,7651623,False,86% ב 13 שנים,רעננה,הפרחים,6.62,7651-623-156,7651/623,20895.5223880597,32.1799646053,34.8536566781,2014
2014-06-03,2014-03-06,"גורדון 41, רעננה",גורדון 41,6582-131-2,קוטג' דו משפחתי,6.0,שניה,208.0,5400000,,,1983.0,,2.0,8440818954,1,6582131,False,,רעננה,גורדון,,6582-131-2,6582/131,25961.53846153846,32.1771979372,34.8640664518,2014
2014-06-03,2014-03-06,"האשד 3, רעננה",האשד 3,7651-486-2,דירה בבית קומות,6.0,מרתף+קרקע+ראשונה,215.0,5830000,,,1999.0,,2.0,8440468046,1,7651486,False,,רעננה,האשד,,7651-486-2,7651/486,27116.279069767443,32.1822782572,34.8547685739,2014
2014-06-03,2014-03-06,"הבריכה 10, רעננה",הבריכה 10,7651-495-2,קוטג' דו משפחתי,6.0,"מרתף,קרקע,ראשונה",266.0,5450000,,,2000.0,,,8441872714,1,7651495,False,,רעננה,הבריכה,,7651-495-2,7651/495,20488.72180451128,32.1823395802,34.8564082493,2014
2014-06-03,2014-03-06,"יאנוש קורצ'אק 18, רעננה",יאנוש קורצ'אק 18,6587-253-2,דירה בבית קומות,6.0,מרתף+קרקע+ראשונה,237.86,4100000,,,1992.0,,,8440337362,1,6587253,False,,רעננה,קורצ'ק ינוש,,6587-253-2,6587/253,17237.030185823594,32.1752221128,34.8839819828,2014
2014-06-02,2014-02-06,"בורוכוב 58, רעננה",בורוכוב 58,6578-285-1,קרקע למגורים,,,707.0,3700000,,,,,,8440475372,1,6578285,False,,רעננה,בורוכוב,,6578-285-1,6578/285,5233.3804809052335,32.1867819243,34.878668648,2014
2014-06-02,2014-02-06,"ניל""י 28, רעננה","ניל""י 28",6587-258-1,בית בודד,6.0,מרתף+קרקע+ראשונה,247.6,4266000,,,1992.0,,2.0,8439501606,1,6587258,False,,רעננה,"ניל""י",,6587-258-1,6587/258,17229.40226171244,32.1746916229,34.8844428148,2014
2014-06-01,2014-01-06,"אנילביץ 15, רעננה",אנילביץ 15,7654-115-71,דירה בבית קומות,5.0,שישית,194.0,2400000,1.0,אנילביץ',1970.0,2014.0,8.0,8436929440,1,7654115,False,,רעננה,אנילביץ,,7654-115-71,7654/115,12371.134020618556,32.1876799243,34.8675115019,2014
2014-06-01,2014-01-06,"סוקולוב 3, רעננה",סוקולוב 3,6583-242-2,דירה בבית קומות,6.0,קרקע+א'+ב',132.07,2675000,,,1974.0,,3.0,8437259110,1,6583242,False,,רעננה,סוקולוב,,6583-242-2,6583/242,20254.410539865225,32.1812431581,34.8678592756,2014
2014-05-29,2014-05-29,"משה וילנסקי 56, רעננה",משה וילנסקי 56,7661-144-24,דירה בבית קומות,4.0,שניה,95.86,2067000,,,2014.0,,5.0,8444372730,1,7661144,False,,רעננה,משה וילנסקי,,7661-144-24,7661/144,21562.695597746715,32.1951570135,34.863156203,2014
2014-05-29,2014-05-29,"המלאכה 18, רעננה",המלאכה 18,7656-343-7,מלאכה,,קרקע,87.9,800000,,,1980.0,,2.0,8444617448,1,7656343,False,,רעננה,המלאכה,,7656-343-7,7656/343,9101.251422070534,32.1980304085,34.8775863636,2014
2014-05-29,2014-05-29,"הגדוד העברי 4, רעננה",הגדוד העברי 4,6579-409-24,דירה בבית קומות,4.0,חמישית,113.0,2747000,1.0,הגדוד העברי,1970.0,2015.0,2.0,8446273938,1,6579409,False,,רעננה,הגדוד העברי,,6579-409-24,6579/409,24309.734513274336,32.1834012466,34.8658088684,2014
2014-05-28,2014-05-28,"אנילביץ 15, רעננה",אנילביץ 15,7654-115-73,דירה בבית קומות,5.0,שישית,125.0,2435000,1.0,אנילביץ',1970.0,2014.0,8.0,8444745098,1,7654115,False,,רעננה,אנילביץ,,7654-115-73,7654/115,19480.0,32.1876799243,34.8675115019,2014
2014-05-27,2014-05-27,"בר אילן 43, רעננה",בר אילן 43,6580-712-14,דירה בבית קומות,4.5,שלישית,76.06,1790000,,,1970.0,,5.0,8445129750,1,6580712,False,110% ב 6.9 שנים,רעננה,בר אילן,15.94,6580-712-14,6580/712,23534.052064159878,32.1848569839,34.8743968825,2014
2014-05-27,2014-05-27,"ההגנה 32, רעננה",ההגנה 32,7655-171-1,קוטג' דו משפחתי,7.0,מרתף א + ב,182.81,5719000,,,1973.0,,2.0,8446461898,1,7655171,False,214% ב 16.3 שנים,רעננה,ההגנה,13.13,7655-171-1,7655/171,31283.84661670587,32.18836016,34.875350593,2014
2014-05-25,2014-05-25,"הל""ה 2, רעננה","הל""ה 2",6579-497-8,דירה בבית קומות,5.0,רביעית+גג,124.81,2250000,,,1994.0,,4.0,8444296954,1,6579497,False,53% ב 9.9 שנים,רעננה,"הל""ה",5.35,6579-497-8,6579/497,18027.40165050877,32.1836596713,34.8623472024,2014
2014-05-25,2014-05-25,"רבוצקי 102, רעננה",רבוצקי 102,6578-557-6,דירה בבית קומות,5.0,ראשונה,121.0,2750000,,,2005.0,,2.0,8443865978,1,6578557,False,,רעננה,רבוצקי,,6578-557-6,6578/557,22727.272727272728,32.1859093418,34.8868906724,2014
2014-05-22,2014-05-22,"בר-אילן 3, רעננה",בר-אילן 3,6580-1068-5,משרד,,שניה,405.0,20379000,,,2000.0,,2.0,8445240972,1,65801068,False,,רעננה,בר אילן,,6580-1068-5,6580/1068,50318.51851851852,32.1813132074,34.8732997742,2014
2014-05-22,2014-05-22,"אהוד מנור 11, רעננה",אהוד מנור 11,7661-169-27,דירה בבית קומות,4.0,שלישית,96.29,2001000,,,2014.0,,5.0,8444442290,1,7661169,False,,רעננה,אהוד מנור,,7661-169-27,7661/169,20780.974140616887,32.1948996711,34.8674885174,2014
2014-05-22,2014-05-22,"גאולה 12, רעננה",גאולה 12,7652-91-8,דירה בבית קומות,3.0,שלישית,65.0,1350000,,,1970.0,,3.0,8444030850,1,765291,False,,רעננה,גאולה,,7652-91-8,7652/91,20769.23076923077,32.1946040631,34.8563274056,2014
2014-05-22,2014-05-22,"גורדון 12, רעננה",גורדון 12,6582-29-4,דירה בבית קומות,5.0,קרקע א' ו-ב',119.79,2990000,,,1975.0,,3.0,8443865386,1,658229,False,,רעננה,גורדון,,6582-29-4,6582/29,24960.34727439686,32.1810428491,34.8648681264,2014
2014-05-22,2014-05-22,"ברל כצנלסון 45, רעננה",ברל כצנלסון 45,7655-204-1,קוטג' דו משפחתי,5.0,ראשונה,227.0,2301000,,,1970.0,,1.0,8443960624,1,7655204,False,,רעננה,כצנלסון ברל,,7655-204-1,7655/204,10136.563876651982,32.1918758948,34.8774485858,2014
2014-05-21,2014-05-21,"משה וילנסקי 54, רעננה",משה וילנסקי 54,7661-144-10,דירה בבית קומות,4.0,שלישית,95.86,2047000,,,2014.0,,5.0,8443925178,1,7661144,False,,רעננה,משה וילנסקי,,7661-144-10,7661/144,21354.058001251826,32.1951570135,34.863156203,2014
2014-05-21,2014-05-21,"הגליל 17, רעננה",הגליל 17,6580-200-7,דירה בבית קומות,5.0,רביעית,139.0,2900000,,,1990.0,,4.0,8443890472,1,6580200,False,,רעננה,הגליל,,6580-200-7,6580/200,20863.309352517987,32.1812715261,34.8781048007,2014
2014-05-21,2014-05-21,"משה וילנסקי 54, רעננה",משה וילנסקי 54,7661-144-15,דירה בבית קומות,7.0,"חמישית, שישית",170.24,4070000,,,2014.0,,5.0,8443928878,1,7661144,False,,רעננה,משה וילנסקי,,7661-144-15,7661/144,23907.424812030076,32.1951570135,34.863156203,2014
2014-05-21,2014-05-21,"בר-אילן 18, רעננה",בר-אילן 18,6580-322-31,דירה בבית קומות,5.0,רביעית,123.0,2192000,1.0,בר אילן 18,1970.0,2014.0,6.0,8444077100,1,6580322,False,,רעננה,בר אילן,,6580-322-31,6580/322,17821.138211382113,32.1821149325,34.874314717,2014
2014-05-21,2014-05-21,"המלאכה 18, רעננה",המלאכה 18,7656-343-54,מלאכה,,שניה,94.92,700000,,,1980.0,,2.0,8445168896,1,7656343,False,107% ב 11.4 שנים,רעננה,המלאכה,9.39,7656-343-54,7656/343,7374.631268436578,32.1980304085,34.8775863636,2014
2014-05-20,2014-05-20,"התפוז 19, רעננה",התפוז 19,6579-427-1,בית בודד,7.0,קרקע וראשונה,162.42,4175000,,,1979.0,,2.0,8445527278,1,6579427,False,,רעננה,התפוז,,6579-427-1,6579/427,25704.962443048888,32.189791877,34.8580747713,2014
2014-05-17,2014-05-17,"יצחק טבנקין 13, רעננה",יצחק טבנקין 13,6579-867-1,קוטג' דו משפחתי,6.0,ראשונה,300.0,5000000,,,2001.0,,2.0,8444037584,1,6579867,False,,רעננה,טבנקין יצחק,,6579-867-1,6579/867,16666.666666666668,32.1881401237,34.8604395884,2014
2014-05-15,2014-05-15,"שפינוזה 20, רעננה",שפינוזה 20,6579-795-2,דירה בבית קומות,4.0,קרקע,99.7,2350000,,,1994.0,,3.0,8444218810,1,6579795,False,,רעננה,שפינוזה ברוך,,6579-795-2,6579/795,23570.712136409227,32.1894278291,34.8645358829,2014
2014-05-15,2014-05-15,"שושנה דמארי 16, רעננה",שושנה דמארי 16,7661-163-59,דירה בבית קומות,4.0,רביעית,95.84,2098000,,,2014.0,,6.0,8443571680,1,7661163,False,,רעננה,שושנה דמארי,,7661-163-59,7661/163,21890.6510851419,32.1955520357,34.8718946024,2014
2014-05-15,2014-05-15,"הל""ה 10, רעננה","הל""ה 10",6579-491-3,דירה בבית קומות,5.0,ראשונה,120.16,2020000,,,1996.0,,7.0,8443873896,1,6579491,False,,רעננה,"הל""ה",,6579-491-3,6579/491,16810.91877496671,32.1847866148,34.8628436333,2014
2014-05-14,2014-05-14,"הרדוף 94, רעננה",הרדוף 94,6578-473-2,דירה בבית קומות,4.0,קרקע,124.0,2300000,,,1996.0,,,8444524726,1,6578473,False,,רעננה,הרדוף,,6578-473-2,6578/473,18548.387096774197,32.1900729447,34.8838253565,2014
2014-05-14,2014-05-14,"גאולה 10, רעננה",גאולה 10,7652-92-14,דירה בבית קומות,2.0,רביעית,36.4,1130000,,,2021.0,,4.0,8443834898,1,765292,False,,רעננה,גאולה,,7652-92-14,7652/92,31043.956043956045,32.1943662325,34.8562989312,2014
2014-05-14,2014-05-14,"שושנה דמארי 16, רעננה",שושנה דמארי 16,7661-163-17,דירה בבית קומות,5.0,קרקע,84.33,2630000,,,2014.0,,6.0,8443611492,1,7661163,False,,רעננה,שושנה דמארי,,7661-163-17,7661/163,31187.003438871103,32.1955520357,34.8718946024,2014
2014-05-14,2014-05-14,"שושנה דמארי 16, רעננה",שושנה דמארי 16,7661-163-12,דירה בבית קומות,4.0,רביעית,84.29,2093000,,,2014.0,,6.0,8443740326,1,7661163,False,,רעננה,שושנה דמארי,,7661-163-12,7661/163,24830.940799620355,32.1955520357,34.8718946024,2014
2014-05-13,2014-05-13,"ההגנה 95, רעננה",ההגנה 95,7654-111-17,דירה בבית קומות,3.0,שניה,90.0,1580000,,,1970.0,,6.0,8443706064,1,7654111,False,110% ב 8.8 שנים,רעננה,ההגנה,12.5,7654-111-17,7654/111,17555.555555555555,32.1888717056,34.8668030242,2014
2014-05-12,2014-12-05,"המעלות 11, רעננה",המעלות 11,6586-584-6,דירה בבית קומות,5.0,שניה,94.72,2050000,,,1980.0,,3.0,8452413718,1,6586584,False,169% ב 13 שנים,רעננה,המעלות,13.0,6586-584-6,6586/584,21642.736486486487,32.1786322326,34.874784447,2014
2014-05-11,2014-11-05,"קלאוזנר 19, רעננה",קלאוזנר 19,6586-451-1,דירה בבית קומות,3.0,ראשונה,106.75,2165000,,,1970.0,,8.0,8450537078,1,6586451,False,200% ב 15.4 שנים,רעננה,קלאוזנר,12.99,6586-451-1,6586/451,20281.030444964872,32.1777771065,34.8752068767,2014
2014-05-10,2014-10-05,"יאיר 7, רעננה",יאיר 7,7649-309-32,דירה בבית קומות,5.0,ראשונה,136.0,2530000,,,2013.0,,5.0,8449778060,1,7649309,False,,רעננה,יאיר,,7649-309-32,7649/309,18602.941176470587,32.195301106,34.8471958649,2014
2014-05-10,2014-10-05,"בורוכוב 9, רעננה",בורוכוב 9,6580-40-1,דירה בבית קומות,3.5,ראשונה,80.89,1500000,,,1970.0,,3.0,8451650482,1,658040,False,41% ב 7.2 שנים,רעננה,בורוכוב,5.69,6580-40-1,6580/40,18543.70132278403,32.1812551485,34.8760560804,2014
2014-05-09,2014-09-05,"קלאוזנר 20, רעננה",קלאוזנר 20,6586-595-9,דירה בבית קומות,5.0,3וגג,103.69,2200000,,,1975.0,,4.0,8449457048,1,6586595,False,133% ב 8.5 שנים,רעננה,קלאוזנר,15.65,6586-595-9,6586/595,21217.08940109943,32.1777738134,34.8748012542,2014
2014-05-08,2014-08-05,"הלוטוס 3, רעננה",הלוטוס 3,7651-540-7,דירה בבית קומות,4.0,שניה,126.0,2370000,,,1997.0,,3.0,8447151134,1,7651540,False,67% ב 7.7 שנים,רעננה,הלוטוס,8.7,7651-540-7,7651/540,18809.52380952381,32.1810065596,34.8568329806,2014
2014-05-06,2014-06-05,"מכבי 50, רעננה",מכבי 50,6580-1085-14,דירה בבית קומות,5.0,קומה ‎1‏,125.2,3470000,,,2015.0,,7.0,8444632100,1,65801085,False,,רעננה,מכבי,,6580-1085-14,6580/1085,27715.65495207668,32.1836877338,34.8802879686,2014
2014-05-03,2014-03-05,"המייסדים 3, רעננה",המייסדים 3,6587-95-8,דירה בבית קומות,5.0,שלישית,144.0,2775000,,,2015.0,,6.0,8439962626,1,658795,False,,רעננה,המיסדים,,6587-95-8,6587/95,19270.83333333333,32.1781109896,34.8826771039,2014
2014-05-02,2014-02-05,"הפעמונים 18, רעננה",הפעמונים 18,6582-415-10,דירה בבית קומות,4.0,שלישית,86.21,2085000,,,2002.0,,4.0,8440862466,1,6582415,False,,רעננה,הפעמונים,,6582-415-10,6582/415,24185.12933534393,32.1815453365,34.8582033102,2014
2014-05-02,2014-02-05,"אחוזה 68, רעננה",אחוזה 68,6581-371-35,דירה בבית קומות,4.0,רביעית,92.0,1515000,,,1993.0,,9.0,8439903944,1,6581371,False,89% ב 10 שנים,רעננה,אחוזה,8.9,6581-371-35,6581/371,16467.391304347828,32.17948859,34.8808288351,2014
2014-05-01,2014-01-05,"הר סיני 11, רעננה",הר סיני 11,6580-841-5,דירה בבית קומות,5.0,שניה,102.31,1830000,,,1986.0,,3.0,8436588892,1,6580841,False,56% ב 11.4 שנים,רעננה,הר סיני,4.91,6580-841-5,6580/841,17886.814583129704,32.1828585956,34.8689218048,2014
2014-04-30,2014-04-30,"שלום עליכם 26, רעננה",שלום עליכם 26,6583-395-8,דירה בבית קומות,6.0,ראשונה,171.9,3400000,,,1982.0,,2.0,8444358226,1,6583395,False,159% ב 15.7 שנים,רעננה,שלום עליכם,10.13,6583-395-8,6583/395,19778.94124490983,32.1764660516,34.8723794679,2014
2014-04-30,2014-04-30,"החורשה 11, רעננה",החורשה 11,6587-113-2,קוטג' דו משפחתי,7.0,ראשונה,375.0,12053000,,,2000.0,,2.0,8444071698,1,6587113,False,,רעננה,החורשה,,6587-113-2,6587/113,32141.33333333333,32.1738593657,34.8814428422,2014
2014-04-30,2014-04-30,"משה וילנסקי 56, רעננה",משה וילנסקי 56,7661-144-21,דירה בבית קומות,4.0,ראשונה,95.86,2042000,,,2014.0,,5.0,8443165938,1,7661144,False,,רעננה,משה וילנסקי,,7661-144-21,7661/144,21301.898602128105,32.1951570135,34.863156203,2014
2014-04-30,2014-04-30,"ויצמן 86, רעננה",ויצמן 86,7656-155-1,בית בודד,3.0,קרקע,93.0,2000000,,,1960.0,,1.0,8443490502,1,7656155,False,,רעננה,ויצמן,,7656-155-1,7656/155,21505.37634408602,32.192752747,34.8739253829,2014
2014-04-29,2014-04-29,"הל""ה 8, רעננה","הל""ה 8",6579-493-33,דירה בבית קומות,4.0,שלישית,106.31,2060000,,,1995.0,,7.0,8443054124,1,6579493,False,26% ב 5.2 שנים,רעננה,"הל""ה",5.0,6579-493-33,6579/493,19377.29282287649,32.1842594884,34.862621595,2014
2014-04-29,2014-04-29,"משה שפירא 19, רעננה",משה שפירא 19,7649-197-5,דירה בבית קומות,5.0,שניה שלישית,125.32,2870000,,,1995.0,,2.0,8443303800,1,7649197,False,94% ב 9.2 שנים,רעננה,שפירא משה,10.22,7649-197-5,7649/197,22901.372486434728,32.192946417,34.8494551425,2014
2014-04-29,2014-04-29,"יאיר 7, רעננה",יאיר 7,7649-309-9,דירה בבית קומות,5.0,שניה,132.0,2595000,,,2013.0,,5.0,8442869864,1,7649309,False,,רעננה,יאיר,,7649-309-9,7649/309,19659.090909090908,32.195301106,34.8471958649,2014
2014-04-29,2014-04-29,"משה וילנסקי 54, רעננה",משה וילנסקי 54,7661-144-14,דירה בבית קומות,5.0,רביעית,119.55,2666000,,,2014.0,,5.0,8442520510,1,7661144,False,,רעננה,משה וילנסקי,,7661-144-14,7661/144,22300.292764533668,32.1951570135,34.863156203,2014
2014-04-27,2014-04-27,"סשה ארגוב 16, רעננה",סשה ארגוב 16,7661-167-32,דירה בבית קומות,4.0,רביעית,95.46,2006000,,,2014.0,,6.0,8443328886,1,7661167,False,,רעננה,סשה ארגוב,,7661-167-32,7661/167,21014.037293107063,32.1938025935,34.8665569746,2014
2014-04-24,2014-04-24,"משה וילנסקי 58, רעננה",משה וילנסקי 58,7661-144-33,דירה בבית קומות,5.0,קרקע,116.8,3019000,,,2014.0,,6.0,8442529020,1,7661144,False,,רעננה,משה וילנסקי,,7661-144-33,7661/144,25847.60273972603,32.1951570135,34.863156203,2014
2014-04-24,2014-04-24,"סשה ארגוב 16, רעננה",סשה ארגוב 16,7661-167-49,דירה בבית קומות,4.0,רביעית,95.46,2021000,,,2014.0,,6.0,8443329996,1,7661167,False,,רעננה,סשה ארגוב,,7661-167-49,7661/167,21171.17117117117,32.1938025935,34.8665569746,2014
2014-04-23,2014-04-23,"משה וילנסקי 60, רעננה",משה וילנסקי 60,7661-144-58,דירה בבית קומות,4.0,רביעית,95.87,2108000,,,2014.0,,6.0,8442523544,1,7661144,False,,רעננה,משה וילנסקי,,7661-144-58,7661/144,21988.10889746532,32.1951570135,34.863156203,2014
2014-04-14,2014-04-14,"שושנה דמארי 1, רעננה",שושנה דמארי 1,7661-114-14,דירה בבית קומות,6.0,ראשונה,159.22,2673000,,,2016.0,,5.0,8442853288,1,7661114,False,,רעננה,שושנה דמארי,,7661-114-14,7661/114,16788.091948247707,32.1937397116,34.8712390742,2014
2014-04-13,2014-04-13,"שושנה דמארי 20, רעננה",שושנה דמארי 20,7661-163-45,דירה בבית קומות,5.0,חמישית,144.69,4900000,,,2014.0,,5.0,8442635358,1,7661163,False,,רעננה,שושנה דמארי,,7661-163-45,7661/163,33865.50556361877,32.1955520357,34.8718946024,2014
2014-04-13,2014-04-13,"אליעזר יפה 7, רעננה",אליעזר יפה 7,6580-946-21,משרד,,ראשונה,36.0,767000,,,1990.0,,7.0,8443341614,1,6580946,False,97% ב 6.4 שנים,רעננה,יפה אליעזר,15.16,6580-946-21,6580/946,21305.555555555555,32.1812041733,34.8746356017,2014
2014-04-13,2014-04-13,"משה וילנסקי 56, רעננה",משה וילנסקי 56,7661-144-17,דירה בבית קומות,5.0,קרקע,113.95,2978000,,,2014.0,,5.0,8531213432,1,7661144,False,,רעננה,משה וילנסקי,,7661-144-17,7661/144,26134.269416410705,32.1951570135,34.863156203,2014
2014-04-13,2014-04-13,"משה וילנסקי 58, רעננה",משה וילנסקי 58,7661-144-41,דירה בבית קומות,5.0,שלישית,130.4,2740000,,,2014.0,,6.0,8442475370,1,7661144,False,,רעננה,משה וילנסקי,,7661-144-41,7661/144,21012.269938650305,32.1951570135,34.863156203,2014
2014-04-13,2014-04-13,"משה וילנסקי 54, רעננה",משה וילנסקי 54,7661-144-7,דירה בבית קומות,4.0,שניה,95.86,2006000,,,2014.0,,5.0,8442469820,1,7661144,False,,רעננה,משה וילנסקי,,7661-144-7,7661/144,20926.350928437303,32.1951570135,34.863156203,2014
2014-04-12,2014-12-04,"משה וילנסקי 58, רעננה",משה וילנסקי 58,7661-144-45,דירה בבית קומות,5.0,רביעית,124.71,2804000,,,2014.0,,6.0,8510355644,1,7661144,False,,רעננה,משה וילנסקי,,7661-144-45,7661/144,22484.163258760324,32.1951570135,34.863156203,2014
2014-04-12,2014-12-04,"בורוכוב 39, רעננה",בורוכוב 39,6580-28-3,מחסנים,,קרקע תחתונה,20.41,150000,,,1973.0,,3.0,8453437434,1,658028,False,36% ב 7.9 שנים,רעננה,בורוכוב,4.56,6580-28-3,6580/28,7349.338559529642,32.1844499541,34.8770344402,2014
2014-04-12,2014-12-04,"גאולה 3, רעננה",גאולה 3,7652-66-2,קרקע למגורים,,,656.0,2665000,,,1980.0,,1.0,8510598512,1,765266,False,,רעננה,גאולה,,7652-66-2,7652/66,4062.5,32.1938191449,34.8557817031,2014
2014-04-11,2014-11-04,"העפרוני 17, רעננה",העפרוני 17,7651-419-1,בית בודד,6.0,שלישית,220.0,4690000,,,1995.0,,1.0,8453111464,1,7651419,False,,רעננה,העפרוני,,7651-419-1,7651/419,21318.18181818182,32.1915715475,34.8526395065,2014
