DEALDATE,DEALDATETIME,FULLADRESS,DISPLAYADRESS,GUSH,DEALNATUREDESCRIPTION,ASSETROOMNUM,FLOORNO,DEALNATURE,DEALAMOUNT,NEWPROJECTTEXT,PROJECTNAME,BUILDINGYEAR,YEARBUILT,BUILDINGFLOORS,KEYVALUE,TYPE,POLYGON_ID,TREND_IS_NEGATIVE,TREND_FORMAT,city_name,street,presentage per year,GUSH - Copy,Gush_Helka,Price per sqm,lat,lon,Year
1998-12-31,1998-12-31,"מלצ'ט 47, תל אביב -יפו",מלצ'ט 47,6904-133-12,,2.0,רביעית + גג,58.79,1102000,,,1996.0,,4.0,4950376400,1,6904133,False,,תל אביב -יפו,מלצ'ט,,6904-133-12,6904/133,18744.684470147982,32.071991113,34.7764795595,1998
1998-12-31,1998-12-31,"ההגנה 37, תל אביב -יפו",ההגנה 37,7068-79-16,,,ראשונה,48.0,366000,,,1950.0,,3.0,4951319350,1,706879,False,,תל אביב -יפו,ההגנה,,7068-79-16,7068/79,7625.0,32.0543848898,34.7871146231,1998
1998-12-31,1998-12-31,"סוטין 11, תל אביב -יפו",סוטין 11,6217-138-4,,2.0,ראשונה,65.88,769000,,,1950.0,,3.0,4950704700,1,6217138,False,,תל אביב -יפו,סוטין,,6217-138-4,6217/138,11672.738312082574,32.0825493816,34.7846165384,1998
1998-12-31,1998-12-31,"בני דן 2, תל אביב -יפו",בני דן 2,6212-998-39,,1.0,שלישית,22.0,376000,,,1950.0,,4.0,4950432050,1,6212998,False,,תל אביב -יפו,בני דן,,6212-998-39,6212/998,17090.909090909092,32.0951835562,34.7840846043,1998
1998-12-31,1998-12-31,"אלון יגאל 74, תל אביב -יפו",אלון יגאל 74,7096-38-12,,2.0,שניה,58.0,580000,,,1950.0,,3.0,4950288950,1,709638,False,,תל אביב -יפו,אלון יגאל,,7096-38-12,7096/38,10000.0,32.0646696532,34.7926508,1998
1998-12-31,1998-12-31,"רדינג 49, תל אביב -יפו",רדינג 49,6768-11-13,,3.0,שלישית,53.6,852000,,,1960.0,,4.0,4950052100,1,676811,False,,תל אביב -יפו,רדינג,,6768-11-13,6768/11,15895.5223880597,32.1101080009,34.7960882888,1998
1998-12-31,1998-12-31,"יוסף אשרמן 5, תל אביב -יפו",יוסף אשרמן 5,6163-36-17,,3.0,שלישית,49.0,657000,,,1955.0,,3.0,4950004650,1,616336,False,,תל אביב -יפו,אשרמן יוסף,,6163-36-17,6163/36,13408.163265306122,32.0573898808,34.807588023,1998
1998-12-31,1998-12-31,"עמישב 58, תל אביב -יפו",עמישב 58,6163-157-22,,3.0,רביעית,48.0,489000,,,1960.0,,4.0,4950160600,1,6163157,False,,תל אביב -יפו,עמישב,,6163-157-22,6163/157,10187.5,32.0597318571,34.8088918606,1998
1998-12-31,1998-12-31,"רכטר זאב 6, תל אביב -יפו",רכטר זאב 6,6623-935-30,,5.0,ראשונה,124.2,1620000,,,1998.0,,5.0,4950198600,1,6623935,False,,תל אביב -יפו,רכטר זאב,,6623-935-30,6623/935,13043.478260869564,32.1152935259,34.8302560552,1998
1998-12-31,1998-12-31,"לאן א 6, תל אביב -יפו",לאן א 6,7437-7-5,,3.0,ראשונה,43.64,956000,,,1999.0,,4.0,4950276500,1,74377,False,,תל אביב -יפו,לאן א,,7437-7-5,7437/7,21906.50779101741,32.0698623423,34.7765213895,1998
1998-12-31,1998-12-31,"רכטר זאב 8, תל אביב -יפו",רכטר זאב 8,6623-935-8,,5.0,ראשונה,123.4,1570000,,,1998.0,,5.0,4950199900,1,6623935,False,,תל אביב -יפו,רכטר זאב,,6623-935-8,6623/935,12722.85251215559,32.1152935259,34.8302560552,1998
1998-12-30,1998-12-30,"ג'ורג' אליוט 14, תל אביב -יפו",ג'ורג' אליוט 14,7431-8-19,,2.0,,41.0,445000,,,1940.0,,4.0,4950135950,1,74318,False,,תל אביב -יפו,אליוט ג'ורג',,7431-8-19,7431/8,10853.658536585366,32.0679380725,34.7748460614,1998
1998-12-30,1998-12-30,"דיזנגוף 289, תל אביב -יפו",דיזנגוף 289,6962-167-17,,2.0,שלישית,48.89,624000,,,1960.0,,4.0,4950158100,1,6962167,False,,תל אביב -יפו,דיזנגוף,,6962-167-17,6962/167,12763.346287584372,32.096512069,34.7757693898,1998
1998-12-30,1998-12-30,"ישראל גורי 55, תל אביב -יפו",ישראל גורי 55,6983-70-1,,2.0,קרקע,51.5,299000,,,1950.0,,1.0,4950095950,1,698370,False,,תל אביב -יפו,גורי ישראל,,6983-70-1,6983/70,5805.825242718447,32.0458924113,34.7804342823,1998
1998-12-30,1998-12-30,"אדוארד ברנשטיין 11, תל אביב -יפו",אדוארד ברנשטיין 11,6902-36-3,,2.0,קרקע,34.67,607000,,,1962.0,,2.0,4950132550,1,690236,False,,תל אביב -יפו,ברנשטיין אדוארד,,6902-36-3,6902/36,17507.93192962215,32.0865605304,34.772004886,1998
1998-12-30,1998-12-30,"מוצא 8, תל אביב -יפו",מוצא 8,7241-26-4,,3.0,שניה,60.6,516000,,,1970.0,,4.0,4950141700,1,724126,False,,תל אביב -יפו,מוצא,,7241-26-4,7241/26,8514.851485148514,32.0500107087,34.8109107529,1998
1998-12-30,1998-12-30,"חכמי אתונה 4, תל אביב -יפו",חכמי אתונה 4,6971-14-17,,2.0,שניה,56.0,362000,,,1950.0,,3.0,4950678750,1,697114,False,,תל אביב -יפו,חכמי אתונה,,6971-14-17,6971/14,6464.285714285715,32.0504380354,34.7749348428,1998
1998-12-30,1998-12-30,"פראג 13, תל אביב -יפו",פראג 13,6901-140-5,,2.0,שניה,57.0,895000,,,1960.0,,4.0,4950119800,1,6901140,False,,תל אביב -יפו,פראג,,6901-140-5,6901/140,15701.754385964912,32.0893379189,34.7742202635,1998
1998-12-30,1998-12-30,"יגור 16, תל אביב -יפו",יגור 16,6133-923-16,,3.0,שניה,56.0,499000,,,2022.0,,4.0,4950357750,1,6133923,False,,תל אביב -יפו,יגור,,6133-923-16,6133/923,8910.714285714286,32.0582025757,34.7967492475,1998
1998-12-30,1998-12-30,"שלמה אבן גבירול 94, תל אביב -יפו",שלמה אבן גבירול 94,6217-319-4,,,קרקע,21.0,749000,,,1960.0,,4.0,4951203850,1,6217319,False,,תל אביב -יפו,אבן גבירול,,6217-319-4,6217/319,35666.666666666664,32.0830149539,34.7815918476,1998
1998-12-29,1998-12-29,"ראובן רובין 1, תל אביב -יפו",ראובן רובין 1,6625-1131-46,,,שש עשרה,150.0,4371000,,,1999.0,,17.0,4950651950,1,66251131,False,,תל אביב -יפו,רובין ראובן,,6625-1131-46,6625/1131,29140.0,32.1172317601,34.8230629807,1998
1998-12-29,1998-12-29,"גרשון (גגה) שץ 16, תל אביב -יפו",גרשון (גגה) שץ 16,7109-306-2,,,מרתף,67.68,250000,,,1935.0,,4.0,4950224150,1,7109306,False,,תל אביב -יפו,שץ גגה גרשון,,7109-306-2,7109/306,3693.853427895981,32.0688693527,34.7890658157,1998
1998-12-29,1998-12-29,"גרשון (גגה) שץ 16, תל אביב -יפו",גרשון (גגה) שץ 16,7109-306-3,,,מרתף,90.14,330000,,,1935.0,,4.0,4950224550,1,7109306,False,,תל אביב -יפו,שץ גגה גרשון,,7109-306-3,7109/306,3660.971821610828,32.0688693527,34.7890658157,1998
1998-12-29,1998-12-29,"לבנון חיים 97, תל אביב -יפו",לבנון חיים 97,6630-673-13,,4.0,שביעית,114.0,1498000,,,1980.0,,9.0,4950019100,1,6630673,False,,תל אביב -יפו,לבנון חיים,,6630-673-13,6630/673,13140.350877192985,32.1208998696,34.8017642448,1998
1998-12-29,1998-12-29,"חובבי ציון 18, תל אביב -יפו",חובבי ציון 18,6907-90-12,,2.0,שלישית,50.0,653000,,,1940.0,,4.0,4950151100,1,690790,False,,תל אביב -יפו,חובבי ציון,,6907-90-12,6907/90,13060.0,32.0758097626,34.769304257,1998
1998-12-29,1998-12-29,"אב""א אחימאיר 1, תל אביב -יפו","אב""א אחימאיר 1",6631-129-1,,,ראשונה,813.0,26954000,,,2021.0,,17.0,4951281450,1,6631129,False,,תל אביב -יפו,אחימאיר אבא,,6631-129-1,6631/129,33153.751537515374,32.125370851,34.7984732195,1998
1998-12-28,1998-12-28,"עירית 5, תל אביב -יפו",עירית 5,7075-58-8,,3.0,שניה,58.71,496000,,,1960.0,,8.0,4950009200,1,707558,False,,תל אביב -יפו,עירית,,7075-58-8,7075/58,8448.305229092148,32.0351628732,34.7499133044,1998
1998-12-28,1998-12-28,"בוגרשוב 36, תל אביב -יפו",בוגרשוב 36,6907-103-6,,2.0,ראשונה,65.0,690000,,,1960.0,,4.0,4950059500,1,6907103,False,,תל אביב -יפו,בוגרשוב,,6907-103-6,6907/103,10615.384615384615,32.076356379,34.770538655,1998
1998-12-28,1998-12-28,"אבן גבירול 163, תל אביב -יפו",אבן גבירול 163,6212-428-11,,2.0,שניה,29.0,542000,,,1957.0,,5.0,4950340050,1,6212428,False,,תל אביב -יפו,אבן גבירול,,6212-428-11,6212/428,18689.655172413797,32.0921805092,34.7828300555,1998
1998-12-28,1998-12-28,"מורדי הגטאות 29, תל אביב -יפו",מורדי הגטאות 29,7068-280-17,,2.0,שניה,36.9,386000,,,1960.0,,4.0,4950046450,1,7068280,False,,תל אביב -יפו,מורדי הגטאות,,7068-280-17,7068/280,10460.704607046073,32.0562403188,34.7883693197,1998
1998-12-28,1998-12-28,"רש""י 45, תל אביב -יפו","רש""י 45",7448-28-2,,1.0,שניה,30.0,492000,,,1947.0,,1.0,4950941500,1,744828,False,,תל אביב -יפו,"רש""י",,7448-28-2,7448/28,16400.0,32.0710138511,34.7756654771,1998
1998-12-28,1998-12-28,"ירושלים 94, תל אביב -יפו",ירושלים 94,7024-117-1,,,החנויות,87.0,635000,,,1960.0,,5.0,4950571950,1,7024117,False,,תל אביב -יפו,ירושלים,,7024-117-1,7024/117,7298.850574712644,32.0460620444,34.758024055,1998
1998-12-27,1998-12-27,"ברכה פולד 3, תל אביב -יפו",ברכה פולד 3,7085-30-8,,2.0,שניה,46.68,666000,,,1950.0,,4.0,4950973650,1,708530,False,,תל אביב -יפו,פולד ברכה,,7085-30-8,7085/30,14267.352185089974,32.0719873697,34.7814240599,1998
1998-12-27,1998-12-27,"ירמיהו 34, תל אביב -יפו",ירמיהו 34,6959-2-1,,,מרתף,55.67,376000,,,1950.0,,5.0,4951109800,1,69592,False,,תל אביב -יפו,ירמיהו,,6959-2-1,6959/2,6754.086581641817,32.0946941744,34.7770157167,1998
1998-12-27,1998-12-27,"פרחי אביב 10, תל אביב -יפו",פרחי אביב 10,7093-366-21,,3.0,חמישית,61.73,940000,,,1970.0,,5.0,4908387600,1,7093366,False,,תל אביב -יפו,פרחי אביב,,7093-366-21,7093/366,15227.60408229386,32.0752601522,34.7975398783,1998
1998-12-25,1998-12-25,"יהושע בן-נון 33, תל אביב -יפו",יהושע בן-נון 33,6214-466-12,,,שניה,50.0,712000,,,1950.0,,2.0,4908370300,1,6214466,False,,תל אביב -יפו,יהושע בן נון,,6214-466-12,6214/466,14240.0,32.0890084004,34.7803393905,1998
1998-12-25,1998-12-25,"בני משה 17, תל אביב -יפו",בני משה 17,6212-1258-6,,2.0,ראשונה,70.0,940000,,,1957.0,,3.0,4950330150,1,62121258,False,,תל אביב -יפו,בני משה,,6212-1258-6,6212/1258,13428.57142857143,32.0923798875,34.7921394858,1998
1998-12-25,1998-12-25,"משה שרת 21, תל אביב -יפו",משה שרת 21,6213-1192-10,,3.0,שלישית,63.0,1191000,,,1960.0,,4.0,4950600750,1,62131192,False,,תל אביב -יפו,שרת משה,,6213-1192-10,6213/1192,18904.761904761905,32.0869182826,34.7873602646,1998
1998-12-25,1998-12-25,"אליעזר קשאני 3, תל אביב -יפו",אליעזר קשאני 3,6628-798-37,,4.0,עשירית,124.05,1797000,,,1986.0,,14.0,4950824750,1,6628798,False,,תל אביב -יפו,קשאני אליעזר,,6628-798-37,6628/798,14486.09431680774,32.1254294991,34.8040013349,1998
1998-12-25,1998-12-25,"נחל עוז 11, תל אביב -יפו",נחל עוז 11,7074-26-49,,3.0,ראשונה,58.0,474000,,,1960.0,,4.0,4951121400,1,707426,False,0% ב 0.4 שנים,תל אביב -יפו,נחל עוז,0.0,7074-26-49,7074/26,8172.413793103448,32.0395192197,34.758519049,1998
1998-12-25,1998-12-25,"רוטנשטרייך 22, תל אביב -יפו",רוטנשטרייך 22,7243-8-18,,2.0,ראשונה,36.3,355000,,,1970.0,,4.0,4950906850,1,72438,False,,תל אביב -יפו,רוטנשטרייך,,7243-8-18,7243/8,9779.614325068873,32.0461142938,34.8128660977,1998
1998-12-25,1998-12-25,"הרצפלד אברהם 6, תל אביב -יפו",הרצפלד אברהם 6,7243-13-22,,3.0,שלישית,62.6,484000,,,1970.0,,4.0,4908476750,1,724313,False,,תל אביב -יפו,הרצפלד אברהם,,7243-13-22,7243/13,7731.629392971246,32.0450343542,34.8116783414,1998
1998-12-24,1998-12-24,"כרמי 1, תל אביב -יפו",כרמי 1,6979-5-309,,2.0,ראשונה,38.0,501000,,,1950.0,,3.0,4908547700,1,69795,False,,תל אביב -יפו,כרמי,,6979-5-309,6979/5,13184.21052631579,32.0511089979,34.7880002518,1998
1998-12-24,1998-12-24,"נחמה 7, תל אביב -יפו",נחמה 7,7016-23-11,,4.0,שניה,130.0,668000,,,1950.0,,3.0,4950098800,1,701623,False,,תל אביב -יפו,נחמה,,7016-23-11,7016/23,5138.461538461538,32.0560447666,34.7608447562,1998
1998-12-24,1998-12-24,"שלום עליכם 7, תל אביב -יפו",שלום עליכם 7,6907-29-56,דירה בבית קומות,1.0,עשרים,40.0,1003000,,,1997.0,,12.0,4950698150,1,690729,False,,תל אביב -יפו,שלום עליכם,,6907-29-56,6907/29,25075.0,32.0764605024,34.7678511342,1998
1998-12-24,1998-12-24,"בר-כוכבא 44, תל אביב -יפו",בר-כוכבא 44,7092-116-7,,2.0,שלישית,37.0,518000,,,1960.0,,3.0,4908394650,1,7092116,False,,תל אביב -יפו,בר כוכבא,,7092-116-7,7092/116,14000.0,32.0764398866,34.7739989077,1998
1998-12-24,1998-12-24,"התנאים 26, תל אביב -יפו",התנאים 26,7223-10-7,,3.0,רביעית,66.5,794000,,,1969.0,,4.0,4908391800,1,722310,False,,תל אביב -יפו,התנאים,,7223-10-7,7223/10,11939.84962406015,32.117289916,34.7959022995,1998
1998-12-24,1998-12-24,"הגיבור האלמוני 6, תל אביב -יפו",הגיבור האלמוני 6,6130-233-8,,4.0,שניה,100.0,627000,,,1967.0,,4.0,4951111900,1,6130233,False,,תל אביב -יפו,הגבור האלמוני,,6130-233-8,6130/233,6270.0,32.0545429513,34.7994871932,1998
1998-12-24,1998-12-24,"שביל החלב 12, תל אביב -יפו",שביל החלב 12,7093-78-0,,,ראשונה,908.0,7107000,,,1999.0,,5.0,4950965450,1,709378,False,,תל אביב -יפו,שביל החלב,,7093-78-0,7093/78,7827.092511013216,32.0755658095,34.7989450401,1998
1998-12-23,1998-12-23,"שלום עליכם 1, תל אביב -יפו",שלום עליכם 1,6907-32-29,,,,130.0,1254000,,,1997.0,,12.0,4950986950,1,690732,False,,תל אביב -יפו,שלום עליכם,,6907-32-29,6907/32,9646.153846153846,32.076630631,34.7674350323,1998
1998-12-23,1998-12-23,"רנ""ק 15, תל אביב -יפו","רנ""ק 15",6902-123-4,,1.0,קרקע,25.23,464000,,,1950.0,,3.0,4908553450,1,6902123,False,,תל אביב -יפו,"רנ""ק",,6902-123-4,6902/123,18390.80459770115,32.0863013755,34.7734357023,1998
1998-12-23,1998-12-23,"שיטרית 27, תל אביב -יפו",שיטרית 27,6636-689-16,,4.0,רביעית,100.0,930000,,,1970.0,,7.0,4950241100,1,6636689,False,,תל אביב -יפו,שיטרית,,6636-689-16,6636/689,9300.0,32.1063778166,34.8197106853,1998
1998-12-23,1998-12-23,"נווה שאנן 1, תל אביב -יפו",נווה שאנן 1,6943-79-6,,2.0,ראשונה,43.67,188000,,,1950.0,,3.0,4950831400,1,694379,False,,תל אביב -יפו,נוה שאנן,,6943-79-6,6943/79,4305.014884359973,32.0595520427,34.7787365209,1998
1998-12-23,1998-12-23,"רות 6, תל אביב -יפו",רות 6,6903-85-9,,3.0,שלישית,75.0,906000,,,1950.0,,1.0,4950788000,1,690385,False,,תל אביב -יפו,רות,,6903-85-9,6903/85,12080.0,32.0788086924,34.7762527929,1998
1998-12-22,1998-12-22,"הגייסות 8, תל אביב -יפו",הגייסות 8,6133-756-8,,3.0,שניה,55.7,628000,,,1970.0,,4.0,4908502300,1,6133756,False,,תל אביב -יפו,הגייסות,,6133-756-8,6133/756,11274.68581687612,32.0623245877,34.7956629261,1998
1998-12-22,1998-12-22,"פנקס 25, תל אביב -יפו",פנקס 25,6212-928-52,,3.0,שלישית,63.0,753000,,,2022.0,,7.0,4908252650,1,6212928,False,,תל אביב -יפו,פנקס,,6212-928-52,6212/928,11952.380952380952,32.0911798854,34.786294484,1998
1998-12-22,1998-12-22,"יהודה המכבי 65, תל אביב -יפו",יהודה המכבי 65,6212-746-8,,5.0,רביעית+חמישית,98.92,1611000,,,1940.0,,5.0,4950540550,1,6212746,False,,תל אביב -יפו,יהודה המכבי,,6212-746-8,6212/746,16285.887585928022,32.0940513042,34.7915377122,1998
1998-12-22,1998-12-22,"אליהו ספיר 14, תל אביב -יפו",אליהו ספיר 14,7111-56-3,,3.0,ראשונה,71.0,952000,,,1999.0,,2.0,4908246200,1,711156,False,,תל אביב -יפו,ספיר אליהו,,7111-56-3,7111/56,13408.450704225352,32.074809357,34.7782480374,1998
1998-12-22,1998-12-22,"אופנהיימר 12, תל אביב -יפו",אופנהיימר 12,6630-536-21,,5.0,רביעית,123.14,1674000,,,1970.0,,14.0,4950443600,1,6630536,False,,תל אביב -יפו,אופנהיימר,,6630-536-21,6630/536,13594.282929998377,32.1202894042,34.8008267307,1998
1998-12-21,1998-12-21,"בני אפרים 205, תל אביב -יפו",בני אפרים 205,6636-814-30,,4.0,שלישית,69.96,1194000,,,1960.0,,3.0,4950033150,1,6636814,False,,תל אביב -יפו,בני אפרים,,6636-814-30,6636/814,17066.895368782163,32.109925387,34.8154413303,1998
1998-12-21,1998-12-21,"בן-גוריון 12, תל אביב -יפו",בן-גוריון 12,6968-42-3,,3.0,ראשונה,64.0,1054000,,,1950.0,,4.0,4951058200,1,696842,False,,תל אביב -יפו,בן גוריון,,6968-42-3,6968/42,16468.75,32.0849896683,34.77119942,1998
1998-12-21,1998-12-21,"נירים 3, תל אביב -יפו",נירים 3,7108-12-54,,,שלישית,162.8,50000,,,1995.0,,6.0,4950645800,1,710812,False,,תל אביב -יפו,נירים,,7108-12-54,7108/12,307.1253071253072,32.0625028987,34.7903116989,1998
1998-12-21,1998-12-21,"גרונימן 16, תל אביב -יפו",גרונימן 16,6772-7-42,,2.0,שניה,47.2,942000,,,1960.0,,2.0,4908349700,1,67727,False,,תל אביב -יפו,גרונימן,,6772-7-42,6772/7,19957.627118644068,32.1051363345,34.7985466958,1998
1998-12-21,1998-12-21,"אוליפנט 7, תל אביב -יפו",אוליפנט 7,7103-36-5,,3.0,קומה ‎1‏,70.0,894000,,,1950.0,,4.0,4950044350,1,710336,False,,תל אביב -יפו,אוליפנט,,7103-36-5,7103/36,12771.42857142857,32.0661938147,34.780231111,1998
1998-12-21,1998-12-21,"עמק איילון 15, תל אביב -יפו",עמק איילון 15,6133-486-20,,2.0,שלישית,48.0,647000,,,1950.0,,4.0,4950911400,1,6133486,False,,תל אביב -יפו,עמק איילון,,6133-486-20,6133/486,13479.166666666666,32.0603583873,34.7979682587,1998
1998-12-20,1998-12-20,"אליעזר קשאני 3, תל אביב -יפו",אליעזר קשאני 3,6628-798-93,,4.0,עשירית,117.15,1594000,,,1985.0,,14.0,4908413550,1,6628798,False,,תל אביב -יפו,קשאני אליעזר,,6628-798-93,6628/798,13606.48740930431,32.1254294991,34.8040013349,1998
1998-12-20,1998-12-20,"יהודה הלוי 98, תל אביב -יפו",יהודה הלוי 98,7099-1-2,,2.0,ראשונה,45.66,713000,,,1940.0,,2.0,4908188850,1,70991,False,,תל אביב -יפו,יהודה הלוי,,7099-1-2,7099/1,15615.418309242226,32.0699521126,34.7814435436,1998
1998-12-20,1998-12-20,"המערכה 31, תל אביב -יפו",המערכה 31,6133-764-6,,2.0,שניה,46.4,537000,,,1950.0,,3.0,4950369750,1,6133764,False,,תל אביב -יפו,המערכה,,6133-764-6,6133/764,11573.275862068966,32.061716131,34.797594628,1998
1998-12-18,1998-12-18,"עמישב 40, תל אביב -יפו",עמישב 40,6164-43-7,,2.0,שניה,63.48,658000,,,1954.0,,4.0,4908353750,1,616443,False,,תל אביב -יפו,עמישב,,6164-43-7,6164/43,10365.469439193448,32.0608915042,34.8064148571,1998
1998-12-18,1998-12-18,"הרב עוזיאל 5, תל אביב -יפו",הרב עוזיאל 5,6107-431-16,,3.0,רביעית,72.0,1059000,,,1972.0,,7.0,4908269600,1,6107431,False,,תל אביב -יפו,הרב עוזיאל,,6107-431-16,6107/431,14708.333333333334,32.095512373,34.8000299941,1998
1998-12-18,1998-12-18,"עמנואל הרומי 15, תל אביב -יפו",עמנואל הרומי 15,6214-206-13,,3.0,רביעית,75.0,797000,,,1950.0,,2.0,4908171950,1,6214206,False,,תל אביב -יפו,עמנואל הרומי,,6214-206-13,6214/206,10626.666666666666,32.0872702374,34.7810714299,1998
1998-12-18,1998-12-18,"י""ל גורדון 35, תל אביב -יפו","י""ל גורדון 35",7078-85-7,,2.0,ראשונה,50.0,755000,,,1949.0,,,4908299400,1,707885,False,,תל אביב -יפו,גורדון י ל,,7078-85-7,7078/85,15100.0,32.0820811562,34.7732782513,1998
1998-12-18,1998-12-18,"אבן גבירול 23, תל אביב -יפו",אבן גבירול 23,7111-108-5,,3.0,שניה,76.2,734000,,,1950.0,,4.0,4950906450,1,7111108,False,,תל אביב -יפו,אבן גבירול,,7111-108-5,7111/108,9632.54593175853,32.0738522669,34.7815779054,1998
1998-12-17,1998-12-17,"הירקון 242, תל אביב -יפו",הירקון 242,6960-12-3,,3.0,קרקע,57.0,1151000,,,1960.0,,4.0,4908482100,1,696012,False,,תל אביב -יפו,הירקון,,6960-12-3,6960/12,20192.98245614035,32.0912084199,34.7730918449,1998
1998-12-17,1998-12-17,"חיים ויסבורג 22, תל אביב -יפו",חיים ויסבורג 22,6624-401-3,,6.0,"מרתף,קרקע,ראשנה",202.7,2679000,,,1985.0,,,4908148450,1,6624401,False,,תל אביב -יפו,ויסבורג חיים,,6624-401-3,6624/401,13216.57622101628,32.1202248833,34.829134493,1998
1998-12-17,1998-12-17,"יהודית 9, תל אביב -יפו",יהודית 9,7109-59-7,,3.0,שלישית,86.0,579000,,,1935.0,,4.0,4908247000,1,710959,False,,תל אביב -יפו,יהודית,,7109-59-7,7109/59,6732.558139534884,32.0702898252,34.7898929427,1998
1998-12-17,1998-12-17,"סמאטס 17, תל אביב -יפו",סמאטס 17,6212-1246-89,,2.0,,46.0,565000,,,2021.0,,7.0,4908152050,1,62121246,False,,תל אביב -יפו,סמאטס,,6212-1246-89,6212/1246,12282.608695652174,32.0929908451,34.789266325,1998
1998-12-17,1998-12-17,"אליהו בחור 1, תל אביב -יפו",אליהו בחור 1,6214-211-15,,2.0,,40.0,552000,,,1952.0,,2.0,4950037350,1,6214211,False,,תל אביב -יפו,בחור אליהו,,6214-211-15,6214/211,13800.0,32.0869033149,34.7814777215,1998
1998-12-17,1998-12-17,"מבצע קדש 41, תל אביב -יפו",מבצע קדש 41,6625-863-91,,3.0,שניה,41.32,669000,,,1960.0,,3.0,4908175200,1,6625863,False,,תל אביב -יפו,מבצע קדש,,6625-863-91,6625/863,16190.706679574056,32.1137575954,34.8198196209,1998
1998-12-17,1998-12-17,"הלסינקי 11, תל אביב -יפו",הלסינקי 11,6108-229-5,,2.0,ראשונה,59.4,1030000,,,1960.0,,4.0,4907791550,1,6108229,False,,תל אביב -יפו,הלסינקי,,6108-229-5,6108/229,17340.06734006734,32.0845701976,34.7918605663,1998
1998-12-17,1998-12-17,"תל גיבורים 34, תל אביב -יפו",תל גיבורים 34,6991-28-8,,3.0,שלישית,44.83,376000,,,1960.0,,3.0,4908284050,1,699128,False,,תל אביב -יפו,תל גבורים,,6991-28-8,6991/28,8387.240687039928,32.039181375,34.7691005629,1998
1998-12-15,1998-12-15,"עמנואל הרומי 23, תל אביב -יפו",עמנואל הרומי 23,6214-520-9,,2.0,,37.0,572000,,,1950.0,,3.0,4908071250,1,6214520,False,,תל אביב -יפו,עמנואל הרומי,,6214-520-9,6214/520,15459.45945945946,32.0880023298,34.7812185082,1998
1998-12-15,1998-12-15,"דיזנגוף 114, תל אביב -יפו",דיזנגוף 114,7113-92-3,,,ראשונה,34.78,466000,,,1940.0,,4.0,4950832200,1,711392,False,,תל אביב -יפו,דיזנגוף,,7113-92-3,7113/92,13398.50488786659,32.0805232497,34.7740475667,1998
1998-12-15,1998-12-15,"שלמה אבן גבירול 83, תל אביב -יפו",שלמה אבן גבירול 83,6215-252-5,,1.0,,29.0,562000,,,1950.0,,2.0,4950314000,1,6215252,False,,תל אביב -יפו,אבן גבירול,,6215-252-5,6215/252,19379.310344827587,32.0841817208,34.7812630261,1998
1998-12-15,1998-12-15,"עמנואל הרומי 18, תל אביב -יפו",עמנואל הרומי 18,6214-210-17,,2.0,ראשונה,62.0,832000,,,1950.0,,3.0,4908397150,1,6214210,False,,תל אביב -יפו,עמנואל הרומי,,6214-210-17,6214/210,13419.354838709678,32.0870578945,34.7814699981,1998
1998-12-15,1998-12-15,"יצחק נפחא 1, תל אביב -יפו",יצחק נפחא 1,6933-43-2,,2.0,ראשונה,50.0,666000,,,1940.0,,,4950775650,1,693343,False,,תל אביב -יפו,נפחא יצחק,,6933-43-2,6933/43,13320.0,32.069587909,34.7723058576,1998
1998-12-15,1998-12-15,"שמואל הנגיד 2, תל אביב -יפו",שמואל הנגיד 2,6953-55-19,,2.0,שניה,55.0,749000,,,1950.0,,3.0,4908278300,1,695355,False,,תל אביב -יפו,שמואל הנגיד,,6953-55-19,6953/55,13618.181818181818,32.0834083627,34.7792866119,1998
1998-12-14,1998-12-14,"אש שלום 14, תל אביב -יפו",אש שלום 14,6636-751-17,,5.0,חמישית,118.0,1115000,,,1980.0,,7.0,4908022150,1,6636751,False,,תל אביב -יפו,אש שלום,,6636-751-17,6636/751,9449.152542372882,32.1065225847,34.82148596,1998
1998-12-14,1998-12-14,"בית אשל 7, תל אביב -יפו",בית אשל 7,7071-62-13,,,,,91000,,,1940.0,,4.0,4950201000,1,707162,False,,תל אביב -יפו,בית אשל,,7071-62-13,7071/62,,32.0538582215,34.757039166,1998
1998-12-14,1998-12-14,"ה' באייר 4, תל אביב -יפו",ה' באייר 4,6213-1381-20,,3.0,רביעית,79.5,1165000,,,1970.0,,6.0,4908061750,1,62131381,False,,תל אביב -יפו,הא באייר,,6213-1381-20,6213/1381,14654.088050314464,32.0866243145,34.7880958697,1998
1998-12-14,1998-12-14,"דיזנגוף 179, תל אביב -יפו",דיזנגוף 179,6902-162-9,,2.0,ראשונה,24.49,437000,,,1998.0,,5.0,4950649950,1,6902162,False,,תל אביב -יפו,דיזנגוף,,6902-162-9,6902/162,17844.017966516945,32.0854134798,34.7742955673,1998
1998-12-14,1998-12-14,"דיזנגוף 179, תל אביב -יפו",דיזנגוף 179,6902-162-10,,2.0,ראשונה,24.66,453000,,,1998.0,,5.0,4950648650,1,6902162,False,,תל אביב -יפו,דיזנגוף,,6902-162-10,6902/162,18369.82968369829,32.0854134798,34.7742955673,1998
1998-12-14,1998-12-14,"קהילת קליבלנד 8, תל אביב -יפו",קהילת קליבלנד 8,7321-26-31,,3.0,חמישית,65.4,489000,,,1960.0,,5.0,4908070850,1,732126,False,,תל אביב -יפו,קהילת קליבלנד,,7321-26-31,7321/26,7477.064220183485,32.1174537762,34.8430814219,1998
1998-12-13,1998-12-13,"רוטשילד 106, תל אביב -יפו",רוטשילד 106,7438-27-10,,3.0,שלישית,61.99,1193000,,,1999.0,,4.0,4950758700,1,743827,False,,תל אביב -יפו,רוטשילד,,7438-27-10,7438/27,19245.03952250363,32.068278435,34.7784074682,1998
1998-12-13,1998-12-13,"רוטשילד 106, תל אביב -יפו",רוטשילד 106,7438-27-4,,4.0,ראשונה,106.49,1368000,,,1999.0,,4.0,4950760400,1,743827,False,,תל אביב -יפו,רוטשילד,,7438-27-4,7438/27,12846.276645694432,32.068278435,34.7784074682,1998
1998-12-13,1998-12-13,"דוד ילין 14, תל אביב -יפו",דוד ילין 14,6213-821-7,,3.0,שניה,74.0,1143000,,,1958.0,,3.0,4908112900,1,6213821,False,,תל אביב -יפו,ילין דוד,,6213-821-7,6213/821,15445.945945945949,32.0881966659,34.7848031519,1998
1998-12-13,1998-12-13,"בצלאל 8, תל אביב -יפו",בצלאל 8,6217-78-1,,,קרקע,32.62,291000,,,1950.0,,3.0,4950472050,1,621778,False,,תל אביב -יפו,בצלאל,,6217-78-1,6217/78,8920.907418761497,32.0816766676,34.7840223002,1998
1998-12-13,1998-12-13,"עובדיה הנביא 10, תל אביב -יפו",עובדיה הנביא 10,6959-49-7,,2.0,שלישית,62.0,890000,,,1970.0,,1.0,4908295250,1,695949,False,,תל אביב -יפו,עובדיה הנביא,,6959-49-7,6959/49,14354.83870967742,32.0931783465,34.7782112432,1998
1998-12-13,1998-12-13,"יהל""ל (יהודה לייב לוין) 4, תל אביב -יפו","יהל""ל (יהודה לייב לוין) 4",6215-226-13,,2.0,ראשונה,59.16,228000,,,1938.0,,4.0,4950282700,1,6215226,False,,תל אביב -יפו,"יהל""ל",,6215-226-13,6215/226,3853.95537525355,32.0837658475,34.77703774,1998
1998-12-11,1998-11-12,"ראובן רובין 1, תל אביב -יפו",ראובן רובין 1,6625-1131-22,,,שמינית,116.88,2075000,,,1999.0,,17.0,4908253050,1,66251131,False,,תל אביב -יפו,רובין ראובן,,6625-1131-22,6625/1131,17753.25119780972,32.1172317601,34.8230629807,1998
1998-12-11,1998-11-12,"מוהליבר 10, תל אביב -יפו",מוהליבר 10,7228-43-6,,2.0,,52.0,638000,,,2009.0,,3.0,4907189350,1,722843,False,,תל אביב -יפו,מוהליבר,,7228-43-6,7228/43,12269.23076923077,32.0650649749,34.7680217531,1998
1998-12-11,1998-11-12,"חנה רובינא 5, תל אביב -יפו",חנה רובינא 5,7193-30-136,,5.0,שביעית,114.29,1885000,,,1999.0,,9.0,4907972600,1,719330,False,,תל אביב -יפו,רובינא חנה,,7193-30-136,7193/30,16493.131507568465,32.1226937243,34.8185445615,1998
1998-12-11,1998-11-12,"בארי 4, תל אביב -יפו",בארי 4,6217-406-4,,4.0,שניה,89.0,1639000,,,1960.0,,4.0,4907169050,1,6217406,False,,תל אביב -יפו,בארי,,6217-406-4,6217/406,18415.73033707865,32.0834514618,34.7856620258,1998
1998-12-11,1998-11-12,"יהודה המכבי 11, תל אביב -יפו",יהודה המכבי 11,6212-518-13,,2.0,שלישית,50.0,753000,,,1950.0,,3.0,4908051850,1,6212518,False,,תל אביב -יפו,יהודה המכבי,,6212-518-13,6212/518,15060.0,32.0939877075,34.7854073221,1998
1998-12-11,1998-11-12,"יהודה הנשיא 19, תל אביב -יפו",יהודה הנשיא 19,6630-661-20,,5.0,חמישית,119.5,2363000,,,1995.0,,6.0,4907579100,1,6630661,False,,תל אביב -יפו,יהודה הנשיא,,6630-661-20,6630/661,19774.058577405856,32.1172377155,34.7946903781,1998
1998-12-11,1998-11-12,"משה אבן עזרא 7, תל אביב -יפו",משה אבן עזרא 7,6953-31-5,,2.0,קרקע,60.47,752000,,,1960.0,,3.0,4907539100,1,695331,False,,תל אביב -יפו,בן עזרא,,6953-31-5,6953/31,12435.91863734083,32.084025514,34.7798502636,1998
1998-12-11,1998-11-12,"שמואל הנגיד 8, תל אביב -יפו",שמואל הנגיד 8,6953-52-10,,3.0,רביעית,65.0,1043000,,,1950.0,,3.0,4907331200,1,695352,False,,תל אביב -יפו,שמואל הנגיד,,6953-52-10,6953/52,16046.153846153846,32.0832514591,34.7799776361,1998
1998-12-11,1998-11-12,"יבנה 3, תל אביב -יפו",יבנה 3,7451-3-6,,3.0,שניה,71.45,950000,,,1944.0,,3.0,4907501100,1,74513,False,,תל אביב -יפו,יבנה,,7451-3-6,7451/3,13296.011196641008,32.0668750605,34.7726588918,1998
1998-12-11,1998-11-12,"יחיאל דרזנר 97, תל אביב -יפו",יחיאל דרזנר 97,6628-741-2,,6.0,מרתף קרקע א ו-ב,242.0,3491000,,,1985.0,,,4907223500,1,6628741,False,,תל אביב -יפו,דרזנר יחיאל,,6628-741-2,6628/741,14425.619834710744,32.1270334809,34.8089486074,1998
1998-12-11,1998-11-12,"בראלי 11, תל אביב -יפו",בראלי 11,7222-44-11,,4.0,שלישית,99.66,1192000,,,1970.0,,7.0,4907667450,1,722244,False,,תל אביב -יפו,בראלי,,7222-44-11,7222/44,11960.666265302028,32.1046530231,34.7905030144,1998
1998-12-11,1998-11-12,"סרלין יוסף 1, תל אביב -יפו",סרלין יוסף 1,6131-64-71,,4.0,שניה,86.0,702000,,,1978.0,,8.0,4907300200,1,613164,False,,תל אביב -יפו,סרלין יוסף,,6131-64-71,6131/64,8162.790697674419,32.0500820638,34.8012393688,1998
1998-12-08,1998-08-12,"מניה וישראל 5, תל אביב -יפו",מניה וישראל 5,6628-622-3,,3.0,ראשונה,77.1,880000,,,1960.0,,4.0,4905627150,1,6628622,False,,תל אביב -יפו,מניה וישראל,,6628-622-3,6628/622,11413.748378728924,32.118992543,34.8023060793,1998
1998-12-08,1998-08-12,"צרעה 2, תל אביב -יפו",צרעה 2,7242-24-66,,3.0,שלישית,48.6,427000,,,1960.0,,5.0,4905993000,1,724224,False,,תל אביב -יפו,צרעה,,7242-24-66,7242/24,8786.008230452675,32.0472838871,34.8096740901,1998
1998-12-08,1998-08-12,"יהודה הנשיא 36, תל אביב -יפו",יהודה הנשיא 36,6630-322-2,,3.0,שלוש עשרה,86.0,1344000,1.0,,1960.0,,13.0,4905690700,1,6630322,False,,תל אביב -יפו,יהודה הנשיא,,6630-322-2,6630/322,15627.906976744183,32.1199270188,34.7961031526,1998
1998-12-08,1998-08-12,"יהודה הימית 36, תל אביב -יפו",יהודה הימית 36,7080-7-5,,3.0,קרקע,31.2,641000,,,1970.0,,4.0,4905829250,1,70807,False,,תל אביב -יפו,יהודה הימית,,7080-7-5,7080/7,20544.8717948718,32.0502301338,34.7532813648,1998
1998-12-08,1998-08-12,"אורים 40, תל אביב -יפו",אורים 40,6136-17-40,,3.0,ראשונה,65.0,442000,,,1950.0,,3.0,4907275050,1,613617,False,,תל אביב -יפו,אורים,,6136-17-40,6136/17,6800.0,32.0463392503,34.7929150158,1998
1998-12-08,1998-08-12,"בן-יהודה 18, תל אביב -יפו",בן-יהודה 18,6910-4-13,,,,21.0,215000,,,2005.0,,5.0,4905586750,1,69104,False,,תל אביב -יפו,בן יהודה,,6910-4-13,6910/4,10238.09523809524,32.0748358596,34.7683019386,1998
1998-12-08,1998-08-12,"הזוהר 1, תל אביב -יפו",הזוהר 1,6107-551-8,,4.0,רביעית,87.62,1068000,,,1998.0,,6.0,4905793400,1,6107551,False,,תל אביב -יפו,הזוהר,,6107-551-8,6107/551,12188.997945674502,32.0920494416,34.7958343704,1998
1998-12-08,1998-08-12,"ישראל גלילי 6, תל אביב -יפו",ישראל גלילי 6,6798-55-15,,4.0,מרתף וחמישית,101.27,1344000,,,1992.0,,8.0,4905977750,1,679855,False,,תל אביב -יפו,גלילי ישראל,,6798-55-15,6798/55,13271.452552582206,32.1004451689,34.7854720288,1998
1998-12-07,1998-07-12,"חסדאי קרשקש 3, תל אביב -יפו",חסדאי קרשקש 3,6973-72-1,,2.0,ראשונה,62.0,447000,,,1940.0,,,4904866500,1,697372,False,,תל אביב -יפו,קרשקש חסדאי,,6973-72-1,6973/72,7209.677419354839,32.0519483478,34.7797467474,1998
1998-12-07,1998-07-12,"מח""ל 7, תל אביב -יפו","מח""ל 7",6131-65-105,,3.0,שלישית,61.0,576000,,,1970.0,,8.0,4905087200,1,613165,False,,תל אביב -יפו,"מח""ל",,6131-65-105,6131/65,9442.622950819672,32.0502423571,34.8003438962,1998
1998-12-07,1998-07-12,"בר-אילן 3, תל אביב -יפו",בר-אילן 3,7436-38-7,,2.0,שלישית,46.0,806000,,,1950.0,,3.0,4905660100,1,743638,False,,תל אביב -יפו,בר אילן,,7436-38-7,7436/38,17521.739130434784,32.0702744853,34.7765590824,1998
1998-12-07,1998-07-12,"יהודית 5, תל אביב -יפו",יהודית 5,7109-54-1,,2.0,מרתף,48.0,513000,,,1901.0,,2.0,4905761150,1,710954,False,,תל אביב -יפו,יהודית,,7109-54-1,7109/54,10687.5,32.0703976398,34.7895582679,1998
1998-12-07,1998-07-12,"משגב עם 12, תל אביב -יפו",משגב עם 12,7065-197-6,,3.0,שניה,54.15,403000,,,1970.0,,3.0,4905155200,1,7065197,False,,תל אביב -יפו,משגב עם,,7065-197-6,7065/197,7442.289935364728,32.0415117862,34.7742732802,1998
1998-12-07,1998-07-12,"אנדרסן 9, תל אביב -יפו",אנדרסן 9,7223-21-20,,4.0,שביעית,97.6,1357000,,,1970.0,,8.0,4904807100,1,722321,False,,תל אביב -יפו,אנדרסן,,7223-21-20,7223/21,13903.688524590165,32.1148728461,34.7958578097,1998
1998-12-07,1998-07-12,"מונש 22, תל אביב -יפו",מונש 22,6134-581-46,,4.0,רביעית,75.0,513000,,,1960.0,,4.0,4905123000,1,6134581,False,,תל אביב -יפו,מונאש,,6134-581-46,6134/581,6840.0,32.0574296097,34.7939267273,1998
1998-12-07,1998-07-12,"סוקולוב 27, תל אביב -יפו",סוקולוב 27,6955-132-2,,2.0,ראשונה,53.0,806000,,,1960.0,,4.0,4905189050,1,6955132,False,,תל אביב -יפו,סוקולוב,,6955-132-2,6955/132,15207.547169811322,32.0882972467,34.7773075268,1998
1998-12-07,1998-07-12,"מניה וישראל 9, תל אביב -יפו",מניה וישראל 9,6628-630-56,,3.0,רביעית,67.3,770000,,,1963.0,,4.0,4904824900,1,6628630,False,,תל אביב -יפו,מניה וישראל,,6628-630-56,6628/630,11441.307578008917,32.1195818835,34.8023202486,1998
1998-12-07,1998-07-12,"אריה פסטרנק 8, תל אביב -יפו",אריה פסטרנק 8,7223-4-9,,3.0,שלישית,83.6,1072000,,,1970.0,,8.0,4905186200,1,72234,False,,תל אביב -יפו,פסטרנק אריה,,7223-4-9,7223/4,12822.966507177034,32.1175466225,34.7962950915,1998
1998-12-07,1998-07-12,"דפנה 14, תל אביב -יפו",דפנה 14,6110-238-47,,3.5,שלישית,81.59,917000,,,1950.0,,3.0,4905700100,1,6110238,False,,תל אביב -יפו,דפנה,,6110-238-47,6110/238,11239.12244147567,32.0784731551,34.7918748184,1998
1998-12-07,1998-07-12,"מבשר 68, תל אביב -יפו",מבשר 68,6135-69-240,,1.0,ראשונה,33.0,256000,,,1950.0,,3.0,4905847850,1,613569,False,,תל אביב -יפו,מבשר,,6135-69-240,6135/69,7757.575757575758,32.0492782548,34.790115711,1998
1998-12-07,1998-07-12,"בוגרשוב 60, תל אביב -יפו",בוגרשוב 60,6911-16-7,,2.0,----,43.0,586000,,,1960.0,,4.0,4904918950,1,691116,False,,תל אביב -יפו,בוגרשוב,,6911-16-7,6911/16,13627.906976744183,32.075490617,34.7720455792,1998
1998-12-06,1998-06-12,"החשמונאים 38, תל אביב -יפו",החשמונאים 38,7436-23-5,,3.0,שניה,74.3,913000,,,1950.0,,3.0,4904936300,1,743623,False,,תל אביב -יפו,החשמונאים,,7436-23-5,7436/23,12288.021534320324,32.0708271206,34.7768978482,1998
1998-12-06,1998-06-12,"מתתיהו שוהם 20, תל אביב -יפו",מתתיהו שוהם 20,6624-416-1,,4.0,ראשונה,125.5,1657000,,,1980.0,,2.0,4904094400,1,6624416,False,,תל אביב -יפו,שוהם מתתיהו,,6624-416-1,6624/416,13203.187250996016,32.1206814552,34.8302226494,1998
1998-12-06,1998-06-12,"ישראל מסלנט 23, תל אביב -יפו",ישראל מסלנט 23,6974-117-35,,3.0,שניה,53.0,441000,,,1960.0,,4.0,4904558800,1,6974117,False,,תל אביב -יפו,ישראל מסלנט,,6974-117-35,6974/117,8320.754716981131,32.0493785477,34.7809909914,1998
1998-12-05,1998-05-12,"חיים לסקוב 9, תל אביב -יפו",חיים לסקוב 9,6111-516-7,,3.0,ראשונה,73.96,771000,,,1950.0,,3.0,4903559700,1,6111516,False,,תל אביב -יפו,לסקוב חיים,,6111-516-7,6111/516,10424.553812871824,32.0724808753,34.783109019,1998
1998-12-05,1998-05-12,"שלמה בן-יוסף 25, תל אביב -יפו",שלמה בן-יוסף 25,6631-209-167,,5.0,ארבע עשרה,126.0,2168000,,,1986.0,,16.0,4904094800,1,6631209,False,,תל אביב -יפו,בן יוסף שלמה,,6631-209-167,6631/209,17206.349206349205,32.126868412,34.7973753388,1998
1998-12-05,1998-05-12,"שמעון התרסי 39, תל אביב -יפו",שמעון התרסי 39,6212-463-1,,2.0,שניה,50.0,588000,,,1950.0,,3.0,4903582850,1,6212463,False,,תל אביב -יפו,שמעון התרסי,,6212-463-1,6212/463,11760.0,32.0949444013,34.7823988363,1998
1998-12-05,1998-05-12,"מקור חיים 58, תל אביב -יפו",מקור חיים 58,6973-178-2,,1.0,קרקע,20.84,202000,,,1943.0,,2.0,4904103400,1,6973178,False,,תל אביב -יפו,מקור חיים,,6973-178-2,6973/178,9692.898272552784,32.0536367193,34.7783764018,1998
1998-12-05,1998-05-12,"כהנשטם 11, תל אביב -יפו",כהנשטם 11,6213-736-9,,2.0,שניה,58.0,834000,,,1960.0,,3.0,4903420700,1,6213736,False,,תל אביב -יפו,כהנשטם,,6213-736-9,6213/736,14379.310344827589,32.0899297529,34.7879615535,1998
1998-12-04,1998-04-12,"מאפו 20, תל אביב -יפו",מאפו 20,6906-3-1,,2.0,קרקע,63.08,1122000,,,1933.0,,3.0,4902800650,1,69063,False,,תל אביב -יפו,מאפו,,6906-3-1,6906/3,17786.93722257451,32.0803774159,34.7707628493,1998
1998-12-04,1998-04-12,"חדרה 1, תל אביב -יפו",חדרה 1,6213-664-17,,3.0,שניה,68.0,996000,,,1957.0,,4.0,4903045400,1,6213664,False,,תל אביב -יפו,חדרה,,6213-664-17,6213/664,14647.058823529413,32.0851632655,34.7866892268,1998
1998-12-03,1998-03-12,"שלומציון המלכה 5, תל אביב -יפו",שלומציון המלכה 5,6212-500-17,,2.0,שלישית,50.0,538000,,,1950.0,,6.0,4902216200,1,6212500,False,,תל אביב -יפו,שלומציון המלכה,,6212-500-17,6212/500,10760.0,32.0949721998,34.7849694669,1998
1998-12-03,1998-03-12,"נחל עוז 19, תל אביב -יפו",נחל עוז 19,7074-26-10,,3.0,ראשונה,58.0,251000,,,1960.0,,4.0,4902317600,1,707426,False,,תל אביב -יפו,נחל עוז,,7074-26-10,7074/26,4327.586206896552,32.0395192197,34.758519049,1998
1998-12-02,1998-02-12,"ריינס 38, תל אביב -יפו",ריינס 38,6903-4-22,,1.0,ראשונה,,316000,,,1950.0,,4.0,4902536750,1,69034,False,,תל אביב -יפו,ריינס,,6903-4-22,6903/4,,32.0811183295,34.775737821,1998
1998-12-02,1998-02-12,"רקנאטי 12, תל אביב -יפו",רקנאטי 12,6628-821-59,,8.0,"חמש-עשרה, שש-עשרה",294.0,5037000,,,1980.0,,16.0,4901360200,1,6628821,False,,תל אביב -יפו,רקנאטי,,6628-821-59,6628/821,17132.65306122449,32.1238095364,34.8031443794,1998
1998-12-02,1998-02-12,"הגלעד 8, תל אביב -יפו",הגלעד 8,6214-609-11,,3.0,שלישית,75.0,720000,,,1950.0,,5.0,4901352400,1,6214609,False,,תל אביב -יפו,הגלעד,,6214-609-11,6214/609,9600.0,32.0898776881,34.7824490031,1998
1998-12-02,1998-02-12,"פורייה 12, תל אביב -יפו",פורייה 12,7016-51-52,,3.0,שישית,46.5,810000,,,2000.0,,9.0,4901291400,1,701651,False,,תל אביב -יפו,פוריה,,7016-51-52,7016/51,17419.354838709678,32.0551051907,34.7615085274,1998
1998-12-02,1998-02-12,"ישעיהו 23, תל אביב -יפו",ישעיהו 23,6958-4-5,,3.0,ראשונה,54.0,870000,,,1968.0,,3.0,4901298800,1,69584,False,,תל אביב -יפו,ישעיהו,,6958-4-5,6958/4,16111.111111111111,32.093149634,34.7810258502,1998
1998-12-01,1998-01-12,"ארבע ארצות 31, תל אביב -יפו",ארבע ארצות 31,6214-362-5,,2.0,,46.0,584000,,,1970.0,,1.0,4900459700,1,6214362,False,,תל אביב -יפו,ארבע ארצות,,6214-362-5,6214/362,12695.652173913044,32.0890470982,34.7782784963,1998
1998-12-01,1998-01-12,"בארי 51, תל אביב -יפו",בארי 51,6110-267-50,,3.0,שלישית,62.1,669000,,,1960.0,,4.0,4900523250,1,6110267,False,,תל אביב -יפו,בארי,,6110-267-50,6110/267,10772.94685990338,32.0824330554,34.791676488,1998
1998-12-01,1998-01-12,"בושם 8, תל אביב -יפו",בושם 8,7242-114-10,,3.0,רביעית,59.9,553000,,,1998.0,,12.0,4900206000,1,7242114,False,,תל אביב -יפו,בושם,,7242-114-10,7242/114,9232.053422370618,32.0445639517,34.8082650105,1998
1998-12-01,1998-01-12,"יוסף סרלין 1, תל אביב -יפו",יוסף סרלין 1,6131-64-16,,3.0,רביעית,59.3,519000,,,1978.0,,8.0,4900439500,1,613164,False,,תל אביב -יפו,סרלין יוסף,,6131-64-16,6131/64,8752.107925801012,32.0500820638,34.8012393688,1998
1998-12-01,1998-01-12,"הרב עוזיאל 5, תל אביב -יפו",הרב עוזיאל 5,6107-431-5,,4.0,שניה,90.0,1066000,,,1972.0,,7.0,4900510900,1,6107431,False,,תל אביב -יפו,הרב עוזיאל,,6107-431-5,6107/431,11844.444444444443,32.095512373,34.8000299941,1998
1998-12-01,1998-01-12,"רדינג 49, תל אביב -יפו",רדינג 49,6768-11-5,,2.0,ראשונה,42.9,640000,,,1960.0,,4.0,4901224100,1,676811,False,,תל אביב -יפו,רדינג,,6768-11-5,6768/11,14918.41491841492,32.1101080009,34.7960882888,1998
1998-12-01,1998-01-12,"שאול המלך 7, תל אביב -יפו",שאול המלך 7,6111-714-8,,3.0,שלישית,64.0,854000,,,1970.0,,4.0,4901597050,1,6111714,False,,תל אביב -יפו,שאול המלך,,6111-714-8,6111/714,13343.75,32.0758366076,34.7825984253,1998
1998-12-01,1998-01-12,"אלחריזי 8, תל אביב -יפו",אלחריזי 8,6215-290-9,,1.0,,25.0,477000,,,1940.0,,3.0,4900497700,1,6215290,False,,תל אביב -יפו,אלחריזי,,6215-290-9,6215/290,19080.0,32.0848366824,34.7801299012,1998
1998-11-30,1998-11-30,"בושם 10, תל אביב -יפו",בושם 10,7242-114-54,,3.0,רביעית,73.4,620000,,,1998.0,,12.0,4908040750,1,7242114,False,,תל אביב -יפו,בושם,,7242-114-54,7242/114,8446.866485013623,32.0445639517,34.8082650105,1998
1998-11-30,1998-11-30,"ח""ן 12, תל אביב -יפו","ח""ן 12",7111-92-8,,4.0,שניה,110.0,1655000,,,1930.0,,1.0,4907737150,1,711192,False,,תל אביב -יפו,"ח""ן",,7111-92-8,7111/92,15045.454545454546,32.0751076871,34.7802988037,1998
1998-11-30,1998-11-30,"לאה גולדברג 20, תל אביב -יפו",לאה גולדברג 20,6625-1190-14,,6.0,"קומה ‎4‏, קומה ‎5‏",138.0,2095000,,,2009.0,,9.0,4908229250,1,66251190,False,,תל אביב -יפו,גולדברג לאה,,6625-1190-14,6625/1190,15181.159420289856,32.1206104145,34.8206946185,1998
1998-11-30,1998-11-30,"עמינדב 24, תל אביב -יפו",עמינדב 24,7096-49-22,,2.0,שניה,60.0,549000,,,1950.0,,3.0,4908008050,1,709649,False,,תל אביב -יפו,עמינדב,,7096-49-22,7096/49,9150.0,32.064346795,34.7957333184,1998
1998-11-30,1998-11-30,"שמעון התרסי 39, תל אביב -יפו",שמעון התרסי 39,6212-463-2,,2.0,ראשונה,50.0,600000,,,1950.0,,3.0,4907703650,1,6212463,False,,תל אביב -יפו,שמעון התרסי,,6212-463-2,6212/463,12000.0,32.0949444013,34.7823988363,1998
1998-11-30,1998-11-30,"אפשטיין 14, תל אביב -יפו",אפשטיין 14,6213-483-13,,2.0,רביעית,55.0,922000,,,1960.0,,4.0,4908148850,1,6213483,False,,תל אביב -יפו,אפשטיין,,6213-483-13,6213/483,16763.636363636364,32.0903166502,34.7844412529,1998
1998-11-30,1998-11-30,"יוסף הנשיא 5, תל אביב -יפו",יוסף הנשיא 5,7430-12-5,,3.0,ראשונה,71.0,1026000,,,1960.0,,3.0,4908365750,1,743012,False,,תל אביב -יפו,יוסף הנשיא,,7430-12-5,7430/12,14450.704225352112,32.0682643672,34.7734979469,1998
1998-11-30,1998-11-30,"בן-שפרוט 7, תל אביב -יפו",בן-שפרוט 7,6213-416-6,,2.0,ראשונה,30.0,628000,,,1960.0,,4.0,4907724350,1,6213416,False,,תל אביב -יפו,בן שפרוט,,6213-416-6,6213/416,20933.33333333333,32.0865017347,34.7841740091,1998
1998-11-29,1998-11-29,"פורייה 12, תל אביב -יפו",פורייה 12,7016-51-51,,2.0,שישית,52.04,668000,,,2000.0,,9.0,4907865800,1,701651,False,,תל אביב -יפו,פוריה,,7016-51-51,7016/51,12836.279784780938,32.0551051907,34.7615085274,1998
1998-11-29,1998-11-29,"אברהם הרכבי 5, תל אביב -יפו",אברהם הרכבי 5,6133-998-83,,4.0,שביעית,98.1,761000,,,1972.0,,7.0,4953661150,1,6133998,False,,תל אביב -יפו,הרכבי אברהם,,6133-998-83,6133/998,7757.390417940877,32.059735424,34.8009065197,1998
1998-11-29,1998-11-29,"חכמי אתונה 67, תל אביב -יפו",חכמי אתונה 67,6974-138-5,,4.0,שלישית,77.1,378000,,,1974.0,,3.0,4907719800,1,6974138,False,,תל אביב -יפו,חכמי אתונה,,6974-138-5,6974/138,4902.723735408561,32.0498894095,34.7790318792,1998
1998-11-29,1998-11-29,"משגב עם 10, תל אביב -יפו",משגב עם 10,7065-198-4,,2.0,ראשונה,41.85,349000,,,1950.0,,4.0,4907664950,1,7065198,False,,תל אביב -יפו,משגב עם,,7065-198-4,7065/198,8339.307048984469,32.0416469032,34.7741027545,1998
1998-11-29,1998-11-29,"שלמה אבן גבירול 44, תל אביב -יפו",שלמה אבן גבירול 44,6111-218-8,,,,21.0,841000,,,1960.0,,3.0,4950196150,1,6111218,False,,תל אביב -יפו,אבן גבירול,,6111-218-8,6111/218,40047.619047619046,32.0769864733,34.7816761514,1998
1998-11-29,1998-11-29,"בר-כוכבא 28, תל אביב -יפו",בר-כוכבא 28,7092-124-10,,4.0,שלישית,74.0,849000,,,1960.0,,4.0,4907961050,1,7092124,False,,תל אביב -יפו,בר כוכבא,,7092-124-10,7092/124,11472.972972972972,32.0759549716,34.7732286036,1998
1998-11-28,1998-11-28,"מנדלשטם 3, תל אביב -יפו",מנדלשטם 3,6956-180-4,,6.0,שלישית ורבעית,174.46,3154000,,,1960.0,,4.0,4907709000,1,6956180,False,,תל אביב -יפו,מנדלשטם,,6956-180-4,6956/180,18078.6426688066,32.0905698009,34.7769834889,1998
1998-11-27,1998-11-27,"בן-יהודה 118, תל אביב -יפו",בן-יהודה 118,7078-7-4,,2.0,ראשונה,34.32,672000,,,2000.0,,5.0,4951523100,1,70787,False,,תל אביב -יפו,בן יהודה,,7078-7-4,7078/7,19580.41958041958,32.0835384393,34.7720239822,1998
1998-11-26,1998-11-26,"ארלוזורוב 96, תל אביב -יפו",ארלוזורוב 96,6215-267-4,,2.0,ראשונה,46.84,699000,,,1960.0,,4.0,4907970550,1,6215267,False,,תל אביב -יפו,ארלוזורוב,,6215-267-4,6215/267,14923.142613151153,32.0851734013,34.7812845645,1998
1998-11-26,1998-11-26,"מעפילי אגוז 58, תל אביב -יפו",מעפילי אגוז 58,7241-10-14,,3.0,שלישית,64.4,551000,,,2020.0,,4.0,4907708600,1,724110,False,,תל אביב -יפו,מעפילי אגוז,,7241-10-14,7241/10,8555.900621118011,32.0526776807,34.8120795472,1998
1998-11-26,1998-11-26,"בן-יהודה 126, תל אביב -יפו",בן-יהודה 126,7078-3-15,דירה בבית קומות,3.0,רביעית,66.95,1082000,,,1935.0,,5.0,4908017550,1,70783,False,,תל אביב -יפו,בן יהודה,,7078-3-15,7078/3,16161.314413741598,32.0843533794,34.7724429237,1998
1998-11-26,1998-11-26,"ז'בוטינסקי 101, תל אביב -יפו",ז'בוטינסקי 101,6213-948-8,,3.0,שניה,68.2,916000,,,1960.0,,3.0,4907982500,1,6213948,False,,תל אביב -יפו,ז'בוטינסקי,,6213-948-8,6213/948,13431.085043988269,32.0878909863,34.784948436,1998
1998-11-26,1998-11-26,"בן-יהודה 7, תל אביב -יפו",בן-יהודה 7,6909-74-3,,,מרתף,,343000,,,1901.0,,3.0,4907947100,1,690974,False,,תל אביב -יפו,בן יהודה,,6909-74-3,6909/74,,32.0739218825,34.7679016299,1998
1998-11-26,1998-11-26,"אשר ברש 5, תל אביב -יפו",אשר ברש 5,6768-7-89,,2.0,שלישית,42.9,790000,,,1959.0,,4.0,4907642300,1,67687,False,,תל אביב -יפו,ברש אשר,,6768-7-89,6768/7,18414.91841491841,32.1100159002,34.7946021158,1998
1998-11-25,1998-11-25,"נורדאו 19, תל אביב -יפו",נורדאו 19,6961-81-13,,3.0,שלישית,64.0,1395000,,,1952.0,,3.0,4907602200,1,696181,False,,תל אביב -יפו,נורדאו,,6961-81-13,6961/81,21796.875,32.0927387913,34.7750658035,1998
1998-11-25,1998-11-25,"מעפילי אגוז 70, תל אביב -יפו",מעפילי אגוז 70,7244-59-47,,3.5,חמישית,78.3,700000,,,1970.0,,8.0,4908143000,1,724459,False,,תל אביב -יפו,מעפילי אגוז,,7244-59-47,7244/59,8939.974457215836,32.0534096363,34.81145786,1998
1998-11-25,1998-11-25,"ליסין 23, תל אביב -יפו",ליסין 23,6108-154-5,,4.0,שניה,88.53,1766000,,,2021.0,,3.0,4907679400,1,6108154,False,,תל אביב -יפו,ליסין,,6108-154-5,6108/154,19948.04021235739,32.0855567432,34.7933171809,1998
1998-11-25,1998-11-25,"בילטמור 5, תל אביב -יפו",בילטמור 5,6213-870-3,,2.0,קרקע,39.0,722000,,,2020.0,,1.0,4907745450,1,6213870,False,,תל אביב -יפו,בילטמור,,6213-870-3,6213/870,18512.82051282051,32.0879327567,34.7868572595,1998
1998-11-25,1998-11-25,"בית אשל 7, תל אביב -יפו",בית אשל 7,7071-62-14,,,,58.0,284000,,,1950.0,,4.0,4907827000,1,707162,False,,תל אביב -יפו,בית אשל,,7071-62-14,7071/62,4896.551724137931,32.0538582215,34.757039166,1998
1998-11-24,1998-11-24,"מרים החשמונאית 15, תל אביב -יפו",מרים החשמונאית 15,6212-971-4,,3.0,קומת עמודים,79.3,846000,,,1952.0,,3.0,4907616650,1,6212971,False,,תל אביב -יפו,מרים החשמונאית,,6212-971-4,6212/971,10668.348045397226,32.0933277054,34.7837470356,1998
1998-11-24,1998-11-24,"שלמה מימון 14, תל אביב -יפו",שלמה מימון 14,6974-51-4,,2.0,ראשונה,42.0,479000,,,1930.0,,1.0,4907586150,1,697451,False,,תל אביב -יפו,מימון שלמה,,6974-51-4,6974/51,11404.761904761905,32.0487356978,34.778216146,1998
1998-11-24,1998-11-24,"בוגרשוב 18, תל אביב -יפו",בוגרשוב 18,6907-60-2,,,קרקע,20.36,416000,,,1949.0,,4.0,4908012600,1,690760,False,,תל אביב -יפו,בוגרשוב,,6907-60-2,6907/60,20432.22003929273,32.0770416673,34.7691015236,1998
1998-11-24,1998-11-24,"רדינג 39, תל אביב -יפו",רדינג 39,6768-17-13,,2.0,שניה,42.9,808000,,,1960.0,,3.0,4907603850,1,676817,False,15% ב 0.2 שנים,תל אביב -יפו,רדינג,75.0,6768-17-13,6768/17,18834.498834498834,32.108833729,34.7937979643,1998
1998-11-24,1998-11-24,"רציף הרברט סמואל 94, תל אביב -יפו",רציף הרברט סמואל 94,6905-110-74,,4.0,חמש עשרה,125.0,5002000,,,1990.0,,11.0,4950101600,1,6905110,False,,תל אביב -יפו,רציף הרברט סמואל,,6905-110-74,6905/110,40016.0,32.0788644965,34.7674813021,1998
1998-11-24,1998-11-24,"יוצ""ר 10, תל אביב -יפו","יוצ""ר 10",6214-387-3,,1.0,ראשונה,40.0,500000,,,1951.0,,,4907534550,1,6214387,False,,תל אביב -יפו,"יוצ""ר",,6214-387-3,6214/387,12500.0,32.0888798752,34.7793112315,1998
1998-11-24,1998-11-24,"קלונימוס 7, תל אביב -יפו",קלונימוס 7,6214-253-1,,3.0,ראשונה,68.0,1083000,,,1962.0,,4.0,4907512300,1,6214253,False,,תל אביב -יפו,קלונימוס,,6214-253-1,6214/253,15926.470588235294,32.0869888518,34.7803023285,1998
1998-11-24,1998-11-24,"פינסקר 29, תל אביב -יפו",פינסקר 29,6907-125-2,,2.0,קרקע,45.65,750000,,,1925.0,,2.0,4950030700,1,6907125,False,,תל אביב -יפו,פינסקר,,6907-125-2,6907/125,16429.35377875137,32.0751323592,34.7708382516,1998
1998-11-24,1998-11-24,"רדינג 18, תל אביב -יפו",רדינג 18,6770-50-4,,4.0,ראשונה,86.2,1131000,,,1972.0,,7.0,4907573350,1,677050,False,,תל אביב -יפו,רדינג,,6770-50-4,6770/50,13120.649651972157,32.1058760094,34.7948536161,1998
1998-11-24,1998-11-24,"חיים לבנון 11, תל אביב -יפו",חיים לבנון 11,6772-25-5,,3.0,ראשונה,51.6,1250000,,,1950.0,,2.0,4907505650,1,677225,False,,תל אביב -יפו,לבנון חיים,,6772-25-5,6772/25,24224.806201550386,32.1041167447,34.7968555954,1998
1998-11-23,1998-11-23,"המלך ג'ורג' 60, תל אביב -יפו",המלך ג'ורג' 60,7111-29-8,,2.0,שלישית,50.0,626000,,,1940.0,,1.0,4908021750,1,711129,False,,תל אביב -יפו,המלך ג'ורג',,7111-29-8,7111/29,12520.0,32.0753421281,34.7765095821,1998
1998-11-23,1998-11-23,"פיקוס 16, תל אביב -יפו",פיקוס 16,7075-13-13,,3.0,רביעית,91.9,607000,,,1970.0,,14.0,4907559300,1,707513,False,,תל אביב -יפו,פיקוס,,7075-13-13,7075/13,6605.005440696409,32.0357363187,34.7518766936,1998
1998-11-23,1998-11-23,"יהודה הימית 36, תל אביב -יפו",יהודה הימית 36,7080-8-7,,3.0,ראשונה,100.54,406000,,,1948.0,,2.0,4950206850,1,70808,False,,תל אביב -יפו,יהודה הימית,,7080-8-7,7080/8,4038.1937537298586,32.0503942957,34.7533456089,1998
1998-11-23,1998-11-23,"בנימין מטודלה 48, תל אביב -יפו",בנימין מטודלה 48,6623-550-2,,6.0,מרתף+קרקע+ראשונה+גג,201.54,2355000,,,1998.0,,,4908002350,1,6623550,False,,תל אביב -יפו,בנימין מטודלה,,6623-550-2,6623/550,11685.025305150342,32.1136489294,34.8264905472,1998
1998-11-23,1998-11-23,"לוין קיפניס 1, תל אביב -יפו",לוין קיפניס 1,6615-299-45,,,תשיעית,135.5,2378000,,,1999.0,,17.0,4907477250,1,6615299,False,,תל אביב -יפו,לוין קיפניס,,6615-299-45,6615/299,17549.81549815498,32.1266895647,34.8309444315,1998
1998-11-23,1998-11-23,"כביר 43, תל אביב -יפו",כביר 43,6979-5-310,,3.0,שניה,66.0,398000,,,1950.0,,3.0,4907580400,1,69795,False,,תל אביב -יפו,כביר,,6979-5-310,6979/5,6030.30303030303,32.0511089979,34.7880002518,1998
1998-11-23,1998-11-23,"אוהלי יעקב 13, תל אביב -יפו",אוהלי יעקב 13,6992-62-19,,3.0,חמישית,63.0,492000,,,1984.0,,8.0,4907602550,1,699262,False,,תל אביב -יפו,אהלי יעקב,,6992-62-19,6992/62,7809.523809523809,32.04274132,34.762883613,1998
1998-11-23,1998-11-23,"בנימין מינץ 12, תל אביב -יפו",בנימין מינץ 12,6636-706-5,,4.0,שניה,65.5,909000,,,2022.0,,3.0,4908291500,1,6636706,False,,תל אביב -יפו,מינץ בנימין,,6636-706-5,6636/706,13877.862595419849,32.1090762966,34.8235654972,1998
1998-11-23,1998-11-23,"יהודה גור 4, תל אביב -יפו",יהודה גור 4,6108-394-6,,3.0,שניה,74.5,419000,,,1960.0,,4.0,4957741250,1,6108394,False,,תל אביב -יפו,גור יהודה,,6108-394-6,6108/394,5624.161073825503,32.0864712672,34.7939981247,1998
1998-11-23,1998-11-23,"ברוריה 21, תל אביב -יפו",ברוריה 21,7110-345-9,,3.0,שלישית+גג,57.5,908000,,,1999.0,,3.0,4907672750,1,7110345,False,,תל אביב -יפו,ברוריה,,7110-345-9,7110/345,15791.304347826086,32.0778510294,34.7990269444,1998
1998-11-22,1998-11-22,"פרוג 6, תל אביב -יפו",פרוג 6,7091-25-5,,4.0,ראשונה,85.0,1139000,,,1960.0,,4.0,4907601800,1,709125,False,,תל אביב -יפו,פרוג,,7091-25-5,7091/25,13400.0,32.0788331466,34.773411053,1998
1998-11-22,1998-11-22,"נגבה 32, תל אביב -יפו",נגבה 32,6134-577-4,,3.0,ראשונה,46.4,586000,,,1970.0,,2.0,4908169850,1,6134577,False,,תל אביב -יפו,נגבה,,6134-577-4,6134/577,12629.310344827589,32.0538982203,34.7982984603,1998
1998-11-22,1998-11-22,"ישראליס 17, תל אביב -יפו",ישראליס 17,7113-85-11,,2.0,שניה,60.0,502000,,,1940.0,,3.0,4950124350,1,711385,False,,תל אביב -יפו,ישראליס,,7113-85-11,7113/85,8366.666666666666,32.0810283481,34.7743717598,1998
1998-11-22,1998-11-22,"ח""ן 40, תל אביב -יפו","ח""ן 40",6952-92-13,,2.0,שלישית,60.0,922000,,,1950.0,,2.0,4908192150,1,695292,False,,תל אביב -יפו,"ח""ן",,6952-92-13,6952/92,15366.666666666666,32.0780058976,34.7803541533,1998
1998-11-22,1998-11-22,"רציף הרברט סמואל 42, תל אביב -יפו",רציף הרברט סמואל 42,6916-120-44,,3.0,עשירית,78.2,2095000,,,2000.0,,19.0,4907673150,1,6916120,False,,תל אביב -יפו,רציף הרברט סמואל,,6916-120-44,6916/120,26790.281329923277,32.0714847036,34.7645941475,1998
1998-11-20,1998-11-20,"טרומפלדור 20, תל אביב -יפו",טרומפלדור 20,6910-1-1,,,,653.0,699000,,,1935.0,,,4908279100,1,69101,False,,תל אביב -יפו,טרומפלדור,,6910-1-1,6910/1,1070.4441041347627,32.0751919708,34.7682795738,1998
1998-11-19,1998-11-19,"צפת 4, תל אביב -יפו",צפת 4,7091-113-2,,2.0,קרקע,36.7,644000,,,1950.0,,3.0,4907467700,1,7091113,False,,תל אביב -יפו,צפת,,7091-113-2,7091/113,17547.68392370572,32.0764032178,34.7717136934,1998
1998-11-19,1998-11-19,"יד לבנים 37, תל אביב -יפו",יד לבנים 37,6133-772-13,,3.0,שלישית,46.4,652000,,,1950.0,,3.0,4907636050,1,6133772,False,,תל אביב -יפו,יד לבנים,,6133-772-13,6133/772,14051.724137931034,32.0611682634,34.7987257341,1998
1998-11-19,1998-11-19,"רציף הרברט סמואל 94, תל אביב -יפו",רציף הרברט סמואל 94,6905-110-75,,4.0,עשירית,100.0,5469000,,,1990.0,,11.0,4908097300,1,6905110,False,,תל אביב -יפו,רציף הרברט סמואל,,6905-110-75,6905/110,54690.0,32.0788644965,34.7674813021,1998
1998-11-19,1998-11-19,"יוסף סרלין 17, תל אביב -יפו",יוסף סרלין 17,6131-39-32,,4.0,שישית,75.0,656000,,,1970.0,,8.0,4907495850,1,613139,False,,תל אביב -יפו,סרלין יוסף,,6131-39-32,6131/39,8746.666666666666,32.051329195,34.8002908321,1998
1998-11-19,1998-11-19,"בית צורי אליהו 24, תל אביב -יפו",בית צורי אליהו 24,6631-166-12,,4.0,שלישית,76.1,1164000,,,1980.0,,8.0,4907426050,1,6631166,False,,תל אביב -יפו,בית צורי אליהו,,6631-166-12,6631/166,15295.663600525626,32.123284929,34.8010056216,1998
1998-11-19,1998-11-19,"אדוארד ברנשטיין 18, תל אביב -יפו",אדוארד ברנשטיין 18,6902-51-7,,3.0,שלישית,60.0,1164000,,,1950.0,,3.0,4907383550,1,690251,False,,תל אביב -יפו,ברנשטיין אדוארד,,6902-51-7,6902/51,19400.0,32.0868411237,34.7724888924,1998
1998-11-19,1998-11-19,"מנדלשטם 11, תל אביב -יפו",מנדלשטם 11,6956-78-5,,2.0,שניה,48.8,1185000,,,1960.0,,2.0,4907353850,1,695678,False,,תל אביב -יפו,מנדלשטם,,6956-78-5,6956/78,24282.786885245903,32.0908846147,34.7764656785,1998
1998-11-18,1998-11-18,"סירקין 19, תל אביב -יפו",סירקין 19,6906-138-12,,1.0,רביעית,31.89,496000,,,1935.0,,4.0,4908282850,1,6906138,False,,תל אביב -יפו,סירקין,,6906-138-12,6906/138,15553.46503606146,32.0785802962,34.7696693525,1998
1998-11-18,1998-11-18,"אוסישקין 70, תל אביב -יפו",אוסישקין 70,6958-69-5,,2.0,ראשונה,38.0,695000,,,1960.0,,3.0,4907324550,1,695869,False,,תל אביב -יפו,אוסישקין,,6958-69-5,6958/69,18289.473684210527,32.0949134184,34.7806928384,1998
1998-11-18,1998-11-18,"אהוד 4, תל אביב -יפו",אהוד 4,6332-33-1,,4.0,,126.0,3765000,,,1954.0,,,4907843500,1,633233,False,,תל אביב -יפו,אהוד,,6332-33-1,6332/33,29880.95238095238,32.1235750956,34.8318881248,1998
1998-11-18,1998-11-18,"גאולה 39, תל אביב -יפו",גאולה 39,6915-38-3,,,ראשונה,94.75,951000,,,1929.0,,4.0,4950092550,1,691538,False,,תל אביב -יפו,גאולה,,6915-38-3,6915/38,10036.939313984169,32.0716209878,34.768438303,1998
1998-11-18,1998-11-18,"שפרינצק 9, תל אביב -יפו",שפרינצק 9,7099-44-11,,2.0,שניה,57.0,827000,,,1950.0,,4.0,4907405850,1,709944,False,,תל אביב -יפו,שפרינצק,,7099-44-11,7099/44,14508.77192982456,32.0713917856,34.7831860161,1998
1998-11-18,1998-11-18,"לבנון חיים 79, תל אביב -יפו",לבנון חיים 79,6629-124-87,,3.0,שמינית,74.0,1200000,,,1970.0,,8.0,4907343550,1,6629124,False,,תל אביב -יפו,לבנון חיים,,6629-124-87,6629/124,16216.216216216217,32.1165892131,34.8009597177,1998
1998-11-18,1998-11-18,"ליסין 8, תל אביב -יפו",ליסין 8,6213-643-2,,3.0,ראשונה,78.21,1365000,,,1960.0,,4.0,4950120200,1,6213643,False,,תל אביב -יפו,ליסין,,6213-643-2,6213/643,17453.011123897202,32.0852754808,34.7916782254,1998
1998-11-18,1998-11-18,"רב אשי 7, תל אביב -יפו",רב אשי 7,6630-547-14,,5.0,רביעית,135.0,2100000,,,1970.0,,8.0,4907660800,1,6630547,False,,תל אביב -יפו,רב אשי,,6630-547-14,6630/547,15555.555555555557,32.1211529866,34.7981651303,1998
1998-11-17,1998-11-17,"מסילת ישרים 56, תל אביב -יפו",מסילת ישרים 56,6971-3-143,,2.0,שניה,46.0,240000,,,1950.0,,3.0,4907476850,1,69713,False,,תל אביב -יפו,מסילת ישרים,,6971-3-143,6971/3,5217.391304347826,32.0510469672,34.7774829049,1998
1998-11-17,1998-11-17,"בר-כוכבא 14, תל אביב -יפו",בר-כוכבא 14,6911-41-10,,3.0,שניה,65.0,856000,,,1960.0,,4.0,4907457450,1,691141,False,,תל אביב -יפו,בר כוכבא,,6911-41-10,6911/41,13169.23076923077,32.0749825164,34.77232043,1998
1998-11-17,1998-11-17,"בוני העיר 1, תל אביב -יפו",בוני העיר 1,6798-85-32,,,שביעית,119.9,1600000,,,1999.0,,8.0,4907742950,1,679885,False,,תל אביב -יפו,בוני העיר,,6798-85-32,6798/85,13344.453711426188,32.1000095703,34.7832731259,1998
1998-11-17,1998-11-17,"בזל 58, תל אביב -יפו",בזל 58,6214-578-14,,2.0,ראשונה,52.0,664000,,,1950.0,,3.0,4907374050,1,6214578,False,,תל אביב -יפו,בזל,,6214-578-14,6214/578,12769.23076923077,32.0893731957,34.7823717665,1998
1998-11-17,1998-11-17,"יהודה הנשיא 16, תל אביב -יפו",יהודה הנשיא 16,7223-14-21,,3.0,שניה,56.1,886000,,,1969.0,,4.0,4907338600,1,722314,False,,תל אביב -יפו,יהודה הנשיא,,7223-14-21,7223/14,15793.226381461674,32.1164692494,34.7952059878,1998
1998-11-17,1998-11-17,"יוסף פטאי 18, תל אביב -יפו",יוסף פטאי 18,6769-55-50,,2.0,שניה,51.6,1349000,,,1950.0,,2.0,4907307600,1,676955,False,,תל אביב -יפו,פטאי יוסף,,6769-55-50,6769/55,26143.41085271318,32.1073424806,34.8001963809,1998
1998-11-17,1998-11-17,"דב גרונר 13, תל אביב -יפו",דב גרונר 13,6628-636-20,,5.0,חמישית,117.8,491000,,,1980.0,,6.0,4907345650,1,6628636,False,,תל אביב -יפו,גרונר דב,,6628-636-20,6628/636,4168.081494057725,32.1250245672,34.8064501924,1998
1998-11-17,1998-11-17,"המסגר 26, תל אביב -יפו",המסגר 26,7067-1-104,,,שניה,1009.0,9954000,,,1990.0,,5.0,4908217650,1,70671,False,,תל אביב -יפו,המסגר,,7067-1-104,7067/1,9865.213082259665,32.0631486934,34.7865627039,1998
1998-11-17,1998-11-17,"נחמן מברסלב 13, תל אביב -יפו",נחמן מברסלב 13,7047-68-3,,2.0,,41.0,261000,,,1947.0,,,4950124750,1,704768,False,,תל אביב -יפו,נחמן מברסלב,,7047-68-3,7047/68,6365.8536585365855,32.0405393824,34.7531214705,1998
1998-11-17,1998-11-17,"נח 12, תל אביב -יפו",נח 12,6770-5-26,,3.0,רביעית,53.77,871000,,,1960.0,,4.0,4907307250,1,67705,False,,תל אביב -יפו,נח,,6770-5-26,6770/5,16198.623767900315,32.108851539,34.7963297089,1998
1998-11-16,1998-11-16,"השופר 3, תל אביב -יפו",השופר 3,6984-38-3,,2.0,ראשונה,46.4,536000,,,1960.0,,1.0,4907292000,1,698438,False,,תל אביב -יפו,השופר,,6984-38-3,6984/38,11551.724137931034,32.0444389604,34.7760923982,1998
1998-11-16,1998-11-16,"בזל 26, תל אביב -יפו",בזל 26,6214-367-8,,2.0,שניה,51.75,707000,,,1946.0,,5.0,4907393050,1,6214367,False,,תל אביב -יפו,בזל,,6214-367-8,6214/367,13661.835748792271,32.0898803936,34.7783829119,1998
1998-11-16,1998-11-16,"בן-חסד 2, תל אביב -יפו",בן-חסד 2,6135-38-12,,1.5,ראשונה,32.0,200000,,,1950.0,,2.0,4907235100,1,613538,False,,תל אביב -יפו,בן חסד,,6135-38-12,6135/38,6250.0,32.0491410123,34.7930825934,1998
1998-11-16,1998-11-16,"יהודה הימית 53, תל אביב -יפו",יהודה הימית 53,7023-6-9,,3.0,שניה,93.5,650000,,,1950.0,,5.0,4907351800,1,70236,False,,תל אביב -יפו,יהודה הימית,,7023-6-9,7023/6,6951.871657754011,32.0497589029,34.7544616489,1998
1998-11-16,1998-11-16,"שלום עליכם 7, תל אביב -יפו",שלום עליכם 7,6907-29-57,,,עשרים ושלוש,71.0,1487000,,,1997.0,,12.0,4907656250,1,690729,False,,תל אביב -יפו,שלום עליכם,,6907-29-57,6907/29,20943.661971830985,32.0764605024,34.7678511342,1998
1998-11-16,1998-11-16,"קוסובסקי 24, תל אביב -יפו",קוסובסקי 24,6106-122-2,,3.5,ראשונה,80.0,1328000,,,1970.0,,4.0,4907377800,1,6106122,False,,תל אביב -יפו,קוסובסקי,,6106-122-2,6106/122,16600.0,32.097249074,34.7968259153,1998
1998-11-16,1998-11-16,"ראובן רובין 1, תל אביב -יפו",ראובן רובין 1,6625-1131-14,,5.0,חמישית,120.0,1925000,,,1999.0,,17.0,4908001050,1,66251131,False,,תל אביב -יפו,רובין ראובן,,6625-1131-14,6625/1131,16041.666666666666,32.1172317601,34.8230629807,1998
1998-11-16,1998-11-16,"חיים ואלישע 5, תל אביב -יפו",חיים ואלישע 5,6904-151-4,,3.0,ראשונה,85.65,1237000,,,1960.0,,3.0,4907459000,1,6904151,False,,תל אביב -יפו,חיים ואלישע,,6904-151-4,6904/151,14442.498540572094,32.0721020902,34.7770870311,1998
1998-11-16,1998-11-16,"בצרון 38, תל אביב -יפו",בצרון 38,6150-390-16,,2.0,שניה,28.7,694000,,,1950.0,,2.0,4907607150,1,6150390,False,,תל אביב -יפו,ביצרון,,6150-390-16,6150/390,24181.184668989543,32.0694219993,34.7987137741,1998
1998-11-15,1998-11-15,"קמואל 24, תל אביב -יפו",קמואל 24,6135-49-103,,3.0,ראשונה,70.0,687000,,,1950.0,,2.0,4907342400,1,613549,False,,תל אביב -יפו,קמואל,,6135-49-103,6135/49,9814.285714285714,32.0494802736,34.7912281792,1998
1998-11-15,1998-11-15,"בן יהודה 32, תל אביב -יפו",בן יהודה 32,6907-54-80,,,שישית,,247000,,,1960.0,,14.0,4908049850,1,690754,False,,תל אביב -יפו,בן יהודה,,6907-54-80,6907/54,,32.076432565,34.7685963015,1998
1998-11-15,1998-11-15,"הרב רייפמן 6, תל אביב -יפו",הרב רייפמן 6,6133-838-2,,4.0,שניה,116.75,1258000,,,1970.0,,4.0,4907282950,1,6133838,False,,תל אביב -יפו,הרב רייפמן,,6133-838-2,6133/838,10775.160599571736,32.0627564226,34.8010659681,1998
1998-11-15,1998-11-15,"ראש פינה 20, תל אביב -יפו",ראש פינה 20,6977-61-3,,,ראשונה,24.0,142000,,,1960.0,,5.0,4908462650,1,697761,False,,תל אביב -יפו,ראש פינה,,6977-61-3,6977/61,5916.666666666667,32.0583996101,34.7821254692,1998
1998-11-15,1998-11-15,"השכל 15, תל אביב -יפו",השכל 15,6135-90-106,,3.0,ראשונה,60.0,396333,,,1950.0,,3.0,4908173500,1,613590,False,,תל אביב -יפו,השכל,,6135-90-106,6135/90,6605.55,32.0531072259,34.7917380508,1998
1998-11-15,1998-11-15,"הופיין 9, תל אביב -יפו",הופיין 9,6649-258-1,,3.0,ראשונה,61.8,903000,,,1960.0,,4.0,4907337800,1,6649258,False,,תל אביב -יפו,הופיין,,6649-258-1,6649/258,14611.650485436894,32.1147583067,34.8002247624,1998
1998-11-15,1998-11-15,"מורדי הגטאות 12, תל אביב -יפו",מורדי הגטאות 12,7068-134-1,,3.0,ראשונה,83.0,712000,,,1946.0,,1.0,4908084900,1,7068134,False,,תל אביב -יפו,מורדי הגטאות,,7068-134-1,7068/134,8578.313253012047,32.056263562,34.7863345639,1998
1998-11-15,1998-11-15,"עין גב 6, תל אביב -יפו",עין גב 6,6133-477-3,,2.0,ראשונה,46.0,692000,,,1950.0,,3.0,4907379900,1,6133477,False,,תל אביב -יפו,עין גב,,6133-477-3,6133/477,15043.478260869566,32.0576660179,34.7953778432,1998
1998-11-15,1998-11-15,"שיטרית 21, תל אביב -יפו",שיטרית 21,6636-686-5,,3.0,שניה,55.78,862000,,,1970.0,,7.0,4907540400,1,6636686,False,,תל אביב -יפו,שיטרית,,6636-686-5,6636/686,15453.567586948728,32.1063844583,34.8186649054,1998
1998-11-15,1998-11-15,"טאגור רבינדרנארט 49, תל אביב -יפו",טאגור רבינדרנארט 49,6630-729-9,,5.0,חמישית,115.75,2243000,,,1999.0,,8.0,4907318400,1,6630729,False,,תל אביב -יפו,טאגור רבינדרנארט,,6630-729-9,6630/729,19377.969762419005,32.1184102954,34.7994279738,1998
1998-11-15,1998-11-15,"פרישמן 56, תל אביב -יפו",פרישמן 56,6903-62-24,,,שלישית,24.0,276000,,,1970.0,,7.0,4907834900,1,690362,False,,תל אביב -יפו,פרישמן,,6903-62-24,6903/62,11500.0,32.0794701729,34.7752677422,1998
1998-11-13,1998-11-13,"וילסון 11, תל אביב -יפו",וילסון 11,7103-31-7,,2.0,ראשונה,52.0,782000,,,1955.0,,3.0,4907811750,1,710331,False,,תל אביב -יפו,וילסון,,7103-31-7,7103/31,15038.46153846154,32.0669247271,34.7808449114,1998
1998-11-13,1998-11-13,"אברהם לוינסון 4, תל אביב -יפו",אברהם לוינסון 4,7023-18-5,,,ראשונה,85.2,770000,,,1998.0,,4.0,4907542850,1,702318,False,,תל אביב -יפו,לוינסון אברהם,,7023-18-5,7023/18,9037.558685446009,32.0494445115,34.7558586146,1998
1998-11-13,1998-11-13,"ההגנה 148, תל אביב -יפו",ההגנה 148,6130-286-118,,3.0,שישית,58.8,545000,,,1970.0,,8.0,4907273450,1,6130286,False,,תל אביב -יפו,ההגנה,,6130-286-118,6130/286,9268.707482993195,32.0534328011,34.8036122074,1998
1998-11-13,1998-11-13,"עזה 16, תל אביב -יפו",עזה 16,7076-64-10,,2.0,שניה,38.0,314000,,,1950.0,,1.0,4907184400,1,707664,False,,תל אביב -יפו,עזה,,7076-64-10,7076/64,8263.157894736842,32.0487653388,34.759415499,1998
1998-11-13,1998-11-13,"הפרדס 6, תל אביב -יפו",הפרדס 6,6953-49-10,,2.0,שניה,48.2,712000,,,1950.0,,3.0,4907265150,1,695349,False,,תל אביב -יפו,הפרדס,,6953-49-10,6953/49,14771.784232365144,32.0835936229,34.7808331867,1998
1998-11-11,1998-11-11,"הושע 19, תל אביב -יפו",הושע 19,6962-134-2,,3.0,קרקע,60.8,1364000,,,1996.0,,1.0,4907582850,1,6962134,False,,תל אביב -יפו,הושע,,6962-134-2,6962/134,22434.21052631579,32.0952444904,34.7734204468,1998
1998-11-11,1998-11-11,"דפנה 15, תל אביב -יפו",דפנה 15,6110-259-1,,,,200.0,3895000,,,1950.0,,,4908054300,1,6110259,False,,תל אביב -יפו,דפנה,,6110-259-1,6110/259,19475.0,32.0801983631,34.7927834276,1998
1998-11-11,1998-11-11,"בבלי 37, תל אביב -יפו",בבלי 37,6106-430-6,,3.0,שניה,77.0,1112000,,,1960.0,,4.0,4907525950,1,6106430,False,,תל אביב -יפו,בבלי,,6106-430-6,6106/430,14441.558441558442,32.0963973641,34.7980693702,1998
1998-11-11,1998-11-11,"דוד תדהר 28, תל אביב -יפו",דוד תדהר 28,7069-107-8,,2.0,שניה,50.0,477000,,,1970.0,,2.0,4907170750,1,7069107,False,,תל אביב -יפו,תדהר דוד,,7069-107-8,7069/107,9540.0,32.0521790934,34.7861456353,1998
1998-11-11,1998-11-11,"שילה 8, תל אביב -יפו",שילה 8,6217-210-9,,2.0,ראשונה,47.0,797000,,,1950.0,,1.0,4907174000,1,6217210,False,,תל אביב -יפו,שילה,,6217-210-9,6217/210,16957.44680851064,32.0813020378,34.7823067932,1998
1998-11-10,1998-10-11,"יהושע בן-נון 4, תל אביב -יפו",יהושע בן-נון 4,6214-162-0,,2.0,שלישית,50.0,790000,,,1950.0,,5.0,4906802350,1,6214162,False,,תל אביב -יפו,יהושע בן נון,,6214-162-0,6214/162,15800.0,32.0861470087,34.7796376394,1998
1998-11-10,1998-10-11,"סשה ארגוב 13, תל אביב -יפו",סשה ארגוב 13,6615-300-90,,,רביעית,61.45,851000,,,1998.0,,13.0,4907012350,1,6615300,False,,תל אביב -יפו,סשא ארגוב,,6615-300-90,6615/300,13848.6574450773,32.1266719589,34.8299102559,1998
1998-11-08,1998-08-11,"גריזים 7, תל אביב -יפו",גריזים 7,6956-102-2,,3.0,ראשונה,73.45,902000,,,1960.0,,3.0,4905785100,1,6956102,False,,תל אביב -יפו,גריזים,,6956-102-2,6956/102,12280.462899931928,32.0899506565,34.7762418063,1998
1998-11-08,1998-08-11,"מרכז בעלי מלאכה 34, תל אביב -יפו",מרכז בעלי מלאכה 34,7429-60-7,,3.0,שלישית,71.0,1060000,,,1970.0,,4.0,4905514950,1,742960,False,,תל אביב -יפו,מרכז בעלי מלאכה,,7429-60-7,7429/60,14929.577464788732,32.0693389073,34.7748408183,1998
1998-11-08,1998-08-11,"הכנסת הגדולה 9, תל אביב -יפו",הכנסת הגדולה 9,6106-550-17,,3.0,רביעית,65.0,1241000,,,1970.0,,4.0,4906024800,1,6106550,False,,תל אביב -יפו,הכנסת הגדולה,,6106-550-17,6106/550,19092.30769230769,32.0979978454,34.7990620577,1998
1998-11-08,1998-08-11,"בניהו 21, תל אביב -יפו",בניהו 21,6335-100-1,,6.0,ראשונה,155.0,5240000,,,1952.0,,1.0,4905605250,1,6335100,False,,תל אביב -יפו,בניהו,,6335-100-1,6335/100,33806.45161290323,32.1219595231,34.8380760873,1998
1998-11-08,1998-08-11,"ארלוזורוב 51, תל אביב -יפו",ארלוזורוב 51,6214-300-1,,1.0,,25.0,303000,,,1950.0,,2.0,4905677050,1,6214300,False,,תל אביב -יפו,ארלוזורוב,,6214-300-1,6214/300,12120.0,32.086263607,34.7785584034,1998
1998-11-08,1998-08-11,"דאנטה 6, תל אביב -יפו",דאנטה 6,7024-35-4,,4.0,ראשונה,93.4,589000,,,1950.0,,3.0,4906520200,1,702435,False,,תל אביב -יפו,דאנטה,,7024-35-4,7024/35,6306.209850107066,32.0479625287,34.7573511379,1998
1998-11-08,1998-08-11,"שטריקר 10, תל אביב -יפו",שטריקר 10,6212-361-2,,4.0,,120.0,2947000,,,1990.0,,1.0,4906271000,1,6212361,False,,תל אביב -יפו,שטריקר,,6212-361-2,6212/361,24558.33333333333,32.091652886,34.7881736339,1998
1998-11-08,1998-08-11,"בבלי 34, תל אביב -יפו",בבלי 34,6106-301-89,,2.0,שלישית,46.5,733000,,,1960.0,,4.0,4905669200,1,6106301,False,,תל אביב -יפו,בבלי,,6106-301-89,6106/301,15763.440860215054,32.0967509668,34.7986266159,1998
1998-11-08,1998-08-11,"בני משה 17, תל אביב -יפו",בני משה 17,6212-1258-4,,2.0,עמודים,32.0,506000,,,1957.0,,3.0,4905673350,1,62121258,False,,תל אביב -יפו,בני משה,,6212-1258-4,6212/1258,15812.5,32.0923798875,34.7921394858,1998
1998-11-06,1998-06-11,"הברון הירש 7, תל אביב -יפו",הברון הירש 7,6768-10-50,,,,28.0,281000,,,1959.0,,7.0,4904668100,1,676810,False,,תל אביב -יפו,הברון הירש,,6768-10-50,6768/10,10035.714285714286,32.1106414405,34.7961096232,1998
1998-11-06,1998-06-11,"השל""ה 6, תל אביב -יפו","השל""ה 6",6957-193-9,,2.0,שלישית,44.0,659000,,,1940.0,,2.0,4904928850,1,6957193,False,,תל אביב -יפו,"השל""ה",,6957-193-9,6957/193,14977.272727272728,32.0912734829,34.7795938664,1998
1998-11-06,1998-06-11,"מרכז בעלי מלאכה 39, תל אביב -יפו",מרכז בעלי מלאכה 39,7429-23-12,,4.0,רביעית,83.6,1420000,,,1992.0,,5.0,4904661500,1,742923,False,,תל אביב -יפו,מרכז בעלי מלאכה,,7429-23-12,7429/23,16985.645933014355,32.0696461513,34.7751176348,1998
1998-11-06,1998-06-11,"ח""ן 14, תל אביב -יפו","ח""ן 14",7111-93-14,,2.0,שלישית,54.54,659000,,,1940.0,,4.0,4905144100,1,711193,False,,תל אביב -יפו,"ח""ן",,7111-93-14,7111/93,12082.874954162084,32.0753049682,34.7803208268,1998
1998-11-06,1998-06-11,"חוני המעגל 6, תל אביב -יפו",חוני המעגל 6,6212-991-54,,2.0,קרקע,57.7,677000,,,1951.0,,3.0,4904323650,1,6212991,False,,תל אביב -יפו,חוני המעגל,,6212-991-54,6212/991,11733.102253032928,32.0914186339,34.7843548483,1998
1998-11-06,1998-06-11,"יוסף קיציס 17, תל אביב -יפו",יוסף קיציס 17,6636-743-38,,4.0,רביעית,77.3,659000,,,2025.0,,4.0,4904257600,1,6636743,False,,תל אביב -יפו,קיציס יוסף,,6636-743-38,6636/743,8525.22639068564,32.1080996872,34.8213773022,1998
1998-11-06,1998-06-11,"נחום 1, תל אביב -יפו",נחום 1,6961-35-51,,3.0,שניה,66.0,915000,,,1950.0,,3.0,4904231350,1,696135,False,,תל אביב -יפו,נחום,,6961-35-51,6961/35,13863.636363636364,32.0932214181,34.7739223623,1998
1998-11-06,1998-06-11,"שלונסקי 46, תל אביב -יפו",שלונסקי 46,6625-872-24,,3.0,שלישית,53.56,750000,,,2024.0,,4.0,4904194600,1,6625872,False,,תל אביב -יפו,שלונסקי,,6625-872-24,6625/872,14002.987303958178,32.1157774303,34.8233232106,1998
1998-11-06,1998-06-11,"דיזנגוף 218, תל אביב -יפו",דיזנגוף 218,6955-80-29,,2.0,רביעית,45.0,659000,,,1999.0,,5.0,4904400400,1,695580,False,,תל אביב -יפו,דיזנגוף,,6955-80-29,6955/80,14644.444444444443,32.0879373919,34.775375077,1998
1998-11-05,1998-05-11,"לוחמי גליפולי 30, תל אביב -יפו",לוחמי גליפולי 30,6133-380-2,,2.0,ראשונה,53.28,440000,,,1950.0,,4.0,4903758950,1,6133380,False,,תל אביב -יפו,לוחמי גליפולי,,6133-380-2,6133/380,8258.258258258258,32.0588190678,34.7948770094,1998
1998-11-05,1998-05-11,"מרים החשמונאית 9, תל אביב -יפו",מרים החשמונאית 9,6212-1032-7,,3.0,-------,66.0,715000,,,1950.0,,2.0,4903734650,1,62121032,False,,תל אביב -יפו,מרים החשמונאית,,6212-1032-7,6212/1032,10833.333333333334,32.0924089259,34.7835740381,1998
1998-11-05,1998-05-11,"אלכסנדר ינאי 12, תל אביב -יפו",אלכסנדר ינאי 12,6212-408-1,,2.0,רביעית,55.0,807000,,,1946.0,,3.0,4903373250,1,6212408,False,,תל אביב -יפו,אלכסנדר ינאי,,6212-408-1,6212/408,14672.727272727272,32.0928308239,34.7826068606,1998
1998-11-05,1998-05-11,"ז'בוטינסקי 22, תל אביב -יפו",ז'בוטינסקי 22,6901-162-3,,4.0,שלישית,96.18,1284000,,,1960.0,,4.0,4903330400,1,6901162,False,,תל אביב -יפו,ז'בוטינסקי,,6901-162-3,6901/162,13349.968808484093,32.0891969376,34.7750642763,1998
1998-11-03,1998-03-11,"ירושלים 46, תל אביב -יפו",ירושלים 46,7076-12-37,,4.0,רביעית,105.0,1203000,,,2024.0,,5.0,4902214500,1,707612,False,,תל אביב -יפו,ירושלים,,7076-12-37,7076/12,11457.142857142857,32.0501854056,34.7586283208,1998
1998-11-03,1998-03-11,"קפלן 11, תל אביב -יפו",קפלן 11,6111-736-7,,3.5,שלישית,77.0,1085000,,,1970.0,,4.0,4902134500,1,6111736,False,,תל אביב -יפו,קפלן,,6111-736-7,6111/736,14090.90909090909,32.073696515,34.7830664042,1998
1998-11-03,1998-03-11,"יעקב מרידור 3, תל אביב -יפו",יעקב מרידור 3,7193-21-6,,,שניה,89.67,1119000,,,1999.0,,6.0,4902328800,1,719321,False,,תל אביב -יפו,מרידור יעקב,,7193-21-6,7193/21,12479.089996654398,32.1235375935,34.8185817427,1998
1998-11-03,1998-03-11,"נגבה 22, תל אביב -יפו",נגבה 22,6134-623-3,,3.0,ראשונה,54.0,409000,,,1970.0,,7.0,4903794000,1,6134623,False,,תל אביב -יפו,נגבה,,6134-623-3,6134/623,7574.074074074074,32.0540349933,34.7965708339,1998
1998-11-03,1998-03-11,"ששת הימים 5, תל אביב -יפו",ששת הימים 5,7242-29-21,,3.0,שניה,48.6,519000,,,1960.0,,5.0,4902669100,1,724229,False,,תל אביב -יפו,ששת הימים,,7242-29-21,7242/29,10679.012345679012,32.0462392483,34.8095222376,1998
1998-11-03,1998-03-11,"פינלס 5, תל אביב -יפו",פינלס 5,6212-165-2,,2.0,קרקע,41.0,744000,,,1960.0,,3.0,4902642750,1,6212165,False,,תל אביב -יפו,פינלס,,6212-165-2,6212/165,18146.34146341464,32.0946759303,34.7893908598,1998
1998-11-03,1998-03-11,"ריינס 3, תל אביב -יפו",ריינס 3,7091-13-1,,,,623.0,7774000,,,1950.0,,,4902739300,1,709113,False,,תל אביב -יפו,ריינס,,7091-13-1,7091/13,12478.33065810594,32.0786812465,34.7745501799,1998
1998-11-03,1998-03-11,"בנימין ברגי 9, תל אביב -יפו",בנימין ברגי 9,6134-87-2,,2.0,ראשונה+שניה,50.0,675000,,,1950.0,,2.0,4902221550,1,613487,False,,תל אביב -יפו,ברגי בנימין,,6134-87-2,6134/87,13500.0,32.055705556,34.7938047358,1998
1998-11-03,1998-03-11,"החצוצרה 2, תל אביב -יפו",החצוצרה 2,7065-100-3,,2.0,ראשונה,46.4,484000,,,1960.0,,1.0,4902150150,1,7065100,False,,תל אביב -יפו,החצוצרה,,7065-100-3,7065/100,10431.03448275862,32.0435357074,34.776262917,1998
1998-11-02,1998-02-11,"אוארבך 3, תל אביב -יפו",אוארבך 3,7016-69-15,,3.0,ראשונה,60.12,378000,,,1950.0,,3.0,4901495150,1,701669,False,,תל אביב -יפו,אוארבך,,7016-69-15,7016/69,6287.425149700599,32.057081571,34.7628667043,1998
1998-11-02,1998-02-11,"רוטשילד 133, תל אביב -יפו",רוטשילד 133,7085-148-18,,6.0,חמישית וגג,94.9,1614000,,,1998.0,,5.0,4902448000,1,7085148,False,,תל אביב -יפו,רוטשילד,,7085-148-18,7085/148,17007.376185458375,32.0714512531,34.7786969493,1998
1998-11-02,1998-02-11,"דב ממזריץ 26, תל אביב -יפו",דב ממזריץ 26,7047-198-8,,2.0,שניה,47.0,464000,,,1950.0,,4.0,4902416250,1,7047198,False,,תל אביב -יפו,דב ממזריץ,,7047-198-8,7047/198,9872.340425531916,32.0382099376,34.7527860202,1998
1998-11-02,1998-02-11,"נורדאו 14, תל אביב -יפו",נורדאו 14,6960-149-9,,2.0,שלישית,55.0,792000,,,1960.0,,4.0,4902019850,1,6960149,False,,תל אביב -יפו,נורדאו,,6960-149-9,6960/149,14400.0,32.0922794846,34.774311874,1998
1998-11-02,1998-02-11,"אונקלוס 5, תל אביב -יפו",אונקלוס 5,6106-503-3,,2.0,ראשונה,59.0,738000,,,1970.0,,4.0,4901387050,1,6106503,False,,תל אביב -יפו,אונקלוס,,6106-503-3,6106/503,12508.474576271186,32.0959014224,34.7958218477,1998
1998-11-02,1998-02-11,"שביל החלב 10, תל אביב -יפו",שביל החלב 10,7093-77-4,,2.0,ראשונה,59.4,720000,,,1975.0,,4.0,4902065600,1,709377,False,,תל אביב -יפו,שביל החלב,,7093-77-4,7093/77,12121.212121212122,32.0753873677,34.7988731748,1998
1998-11-02,1998-02-11,"ריינס 35, תל אביב -יפו",ריינס 35,6215-50-6,,3.0,ראשונה,78.57,960000,,,1950.0,,3.0,4901337500,1,621550,False,,תל אביב -יפו,ריינס,,6215-50-6,6215/50,12218.403970981291,32.0816491822,34.7754583219,1998
1998-11-02,1998-02-11,"ברדיצ'בסקי 13, תל אביב -יפו",ברדיצ'בסקי 13,7085-87-5,,3.0,שלישית,62.57,702000,,,1935.0,,3.0,4901711300,1,708587,False,,תל אביב -יפו,ברדיצ'בסקי,,7085-87-5,7085/87,11219.434233658303,32.0712090362,34.7802648553,1998
1998-11-02,1998-02-11,"ש""י עגנון 26, תל אביב -יפו","ש""י עגנון 26",7186-1-75,,3.0,שלישית,73.7,774000,,,1970.0,,8.0,4901240650,1,71861,False,,תל אביב -יפו,"עגנון ש""י",,7186-1-75,7186/1,10502.03527815468,32.1020935964,34.7869283629,1998
1998-11-01,1998-01-11,"שולמן 12, תל אביב -יפו",שולמן 12,6150-619-2,,2.0,ראשונה,53.5,843000,,,1950.0,,1.0,4900189150,1,6150619,False,,תל אביב -יפו,שולמן,,6150-619-2,6150/619,15757.009345794391,32.0683700561,34.7977918833,1998
1998-11-01,1998-01-11,"לחובר 6, תל אביב -יפו",לחובר 6,6770-8-24,,2.0,שניה,39.2,693000,,,1960.0,,3.0,4900400300,1,67708,False,,תל אביב -יפו,לחובר,,6770-8-24,6770/8,17678.571428571428,32.1062941052,34.7965315253,1998
1998-11-01,1998-01-11,"מסריק 5, תל אביב -יפו",מסריק 5,6903-172-1,,3.0,קרקע,64.72,781000,,,1930.0,,2.0,4900980750,1,6903172,False,,תל אביב -יפו,מסריק,,6903-172-1,6903/172,12067.367119901111,32.0783818822,34.7779298483,1998
1998-11-01,1998-01-11,"גלית 3, תל אביב -יפו",גלית 3,6624-381-1,,4.0,ראשונה,85.62,1208000,,,1974.0,,2.0,4901479000,1,6624381,False,,תל אביב -יפו,גילת,,6624-381-1,6624/381,14108.853071712216,32.1211150324,34.8273550975,1998
1998-11-01,1998-01-11,"פלוגות 14, תל אביב -יפו",פלוגות 14,6135-332-8,,2.0,קרקע,63.6,495000,,,1996.0,,2.0,4900441200,1,6135332,False,,תל אביב -יפו,פלוגות,,6135-332-8,6135/332,7783.018867924528,32.0490021009,34.7977621501,1998
1998-11-01,1998-01-11,"חובבי ציון 10, תל אביב -יפו",חובבי ציון 10,6910-19-15,,2.0,שלישית,36.0,602000,,,1950.0,,3.0,4900652400,1,691019,False,,תל אביב -יפו,חובבי ציון,,6910-19-15,6910/19,16722.222222222223,32.0750279581,34.7689529003,1998
1998-10-30,1998-10-30,"הקונגרס 28, תל אביב -יפו",הקונגרס 28,6975-99-4,,2.0,ראשונה,52.07,472000,,,1957.0,,3.0,4907340300,1,697599,False,,תל אביב -יפו,הקונגרס,,6975-99-4,6975/99,9064.720568465527,32.0560823192,34.7757679695,1998
1998-10-30,1998-10-30,"ברודצקי 33, תל אביב -יפו",ברודצקי 33,6768-5-7,,2.0,ראשונה,39.0,763000,,,1957.0,,3.0,4907278800,1,67685,False,,תל אביב -יפו,ברודצקי,,6768-5-7,6768/5,19564.102564102563,32.1105125853,34.7977339904,1998
1998-10-30,1998-10-30,"המצבאים 59, תל אביב -יפו",המצבאים 59,6336-363-1,,5.0,,194.0,3187000,,,1970.0,,1.0,4907910350,1,6336363,False,,תל אביב -יפו,המצביאים,,6336-363-1,6336/363,16427.835051546394,32.1202046766,34.8352287647,1998
1998-10-29,1998-10-29,"תוספתא 4, תל אביב -יפו",תוספתא 4,6106-440-2,,2.0,ראשונה,56.0,1021000,,,1960.0,,4.0,4906814700,1,6106440,False,,תל אביב -יפו,תוספתא,,6106-440-2,6106/440,18232.14285714286,32.0964636281,34.799419246,1998
1998-10-29,1998-10-29,"לוי אשכול 44, תל אביב -יפו",לוי אשכול 44,7222-6-16,,5.0,חמישית,116.7,1476000,,,1996.0,,8.0,4907796100,1,72226,False,,תל אביב -יפו,אשכול לוי,,7222-6-16,7222/6,12647.814910025709,32.1076032033,34.7891553425,1998
1998-10-29,1998-10-29,"אלעזר בן-צדוק 1, תל אביב -יפו",אלעזר בן-צדוק 1,7072-32-82,,2.0,שלישית,37.22,314000,,,1960.0,,3.0,4906789150,1,707232,False,,תל אביב -יפו,אלעזר בן צדוק,,7072-32-82,7072/32,8436.324556689951,32.052123846,34.7587652678,1998
1998-10-29,1998-10-29,"ירושלים 92, תל אביב -יפו",ירושלים 92,7024-116-10,,2.0,שלישית,35.4,291000,,,1970.0,,3.0,4907098150,1,7024116,False,,תל אביב -יפו,ירושלים,,7024-116-10,7024/116,8220.338983050848,32.0462653421,34.7580451513,1998
1998-10-29,1998-10-29,"יחזקאל 11, תל אביב -יפו",יחזקאל 11,6959-74-5,,3.0,שניה,79.22,1528000,,,1950.0,,2.0,4907226900,1,695974,False,,תל אביב -יפו,יחזקאל,,6959-74-5,6959/74,19288.05857106791,32.0934944477,34.7775936784,1998
1998-10-29,1998-10-29,"אריסטובול 6, תל אביב -יפו",אריסטובול 6,6212-1150-7,,2.0,שניה,43.0,922000,,,1950.0,,2.0,4907720200,1,62121150,False,,תל אביב -יפו,אריסטובול,,6212-1150-7,6212/1150,21441.86046511628,32.0928829233,34.7865333501,1998
1998-10-29,1998-10-29,"סמדר 32, תל אביב -יפו",סמדר 32,6135-51-98,,2.0,ראשונה,30.0,288000,,,1950.0,,2.0,4908100050,1,613551,False,,תל אביב -יפו,סמדר,,6135-51-98,6135/51,9600.0,32.0494270929,34.7908026769,1998
1998-10-29,1998-10-29,"פנקס 62, תל אביב -יפו",פנקס 62,7250-2-65,דירה בבית קומות,8.0,קומה ‎20‏,136.86,3334000,,,2006.0,,36.0,4907131550,1,72502,False,,תל אביב -יפו,עקיבא אריה,,7250-2-65,7250/2,24360.660529007742,32.0906804365,34.793061802,1998
1998-10-29,1998-10-29,"דוד אבידן 11, תל אביב -יפו",דוד אבידן 11,6615-304-138,,,קרקע,125.85,1613000,,,1999.0,,8.0,4907686850,1,6615304,False,,תל אביב -יפו,אבידן דוד,,6615-304-138,6615/304,12816.845450933652,32.1276742616,34.8309738682,1998
1998-10-28,1998-10-28,"מוהליבר 34, תל אביב -יפו",מוהליבר 34,6919-55-4,,,שניה,68.16,640000,,,1934.0,,3.0,4906772250,1,691955,False,,תל אביב -יפו,מוהליבר,,6919-55-4,6919/55,9389.671361502347,32.0666568445,34.7695972791,1998
1998-10-28,1998-10-28,"יהל""ל (יהודה לייב לוין) 4, תל אביב -יפו","יהל""ל (יהודה לייב לוין) 4",6215-226-12,,2.0,ראשונה,65.19,732000,,,1938.0,,4.0,4907886000,1,6215226,False,,תל אביב -יפו,"יהל""ל",,6215-226-12,6215/226,11228.716060745512,32.0837658475,34.77703774,1998
1998-10-28,1998-10-28,"אנטיגונוס 5, תל אביב -יפו",אנטיגונוס 5,6212-1042-12,,2.0,שלישית,62.0,833000,,,2023.0,,2.0,4907118750,1,62121042,False,,תל אביב -יפו,אנטיגונוס,,6212-1042-12,6212/1042,13435.483870967742,32.0930383024,34.7846962221,1998
1998-10-28,1998-10-28,"בארי 30, תל אביב -יפו",בארי 30,6111-509-7,,3.0,שלישית,75.0,1130000,,,1950.0,,3.0,4906791250,1,6111509,False,,תל אביב -יפו,בארי,,6111-509-7,6111/509,15066.666666666666,32.0827532563,34.7885275644,1998
1998-10-28,1998-10-28,"דפנה 34, תל אביב -יפו",דפנה 34,6110-228-9,,3.0,-,73.9,803000,,,1950.0,,1.0,4906949650,1,6110228,False,,תל אביב -יפו,דפנה,,6110-228-9,6110/228,10866.035182679296,32.0809185792,34.7937310457,1998
1998-10-27,1998-10-27,"ויסוצקי 14, תל אביב -יפו",ויסוצקי 14,6108-596-24,,4.0,שישית,104.0,1613000,,,1970.0,,8.0,4907173600,1,6108596,False,,תל אביב -יפו,ויסוצקי,,6108-596-24,6108/596,15509.615384615385,32.0890567692,34.7950545455,1998
1998-10-27,1998-10-27,"בארי 43, תל אביב -יפו",בארי 43,6111-616-13,,3.0,שלישית,73.13,1257000,,,1957.0,,4.0,4907533350,1,6111616,False,,תל אביב -יפו,בארי,,6111-616-13,6111/616,17188.568303022017,32.0826542944,34.7905774615,1998
1998-10-26,1998-10-26,"אליעזר קשאני 3, תל אביב -יפו",אליעזר קשאני 3,6628-798-186,,5.5,חמישית,129.6,2200000,,,1980.0,,14.0,4906752450,1,6628798,False,,תל אביב -יפו,קשאני אליעזר,,6628-798-186,6628/798,16975.30864197531,32.1254294991,34.8040013349,1998
1998-10-26,1998-10-26,"מזא""ה 20, תל אביב -יפו","מזא""ה 20",7451-8-13,,2.0,שניה,42.63,703000,,,1998.0,,5.0,4907773800,1,74518,False,,תל אביב -יפו,"מזא""ה",,7451-8-13,7451/8,16490.734224724372,32.0668026237,34.7737373597,1998
1998-10-26,1998-10-26,"טשרניחובסקי 23, תל אביב -יפו",טשרניחובסקי 23,7226-24-1,,2.0,קומה ‎0‏,60.0,536000,,,1940.0,,4.0,4907933900,1,722624,False,,תל אביב -יפו,טשרניחובסקי,,7226-24-1,7226/24,8933.333333333334,32.0726362389,34.7712563232,1998
1998-10-26,1998-10-26,"דיזנגוף 119, תל אביב -יפו",דיזנגוף 119,7113-61-7,,,קרקע,,231000,,,1940.0,,3.0,4907375350,1,711361,False,,תל אביב -יפו,דיזנגוף,,7113-61-7,7113/61,,32.0809138522,34.7735420505,1998
1998-10-25,1998-10-25,"היהודי זיס 4, תל אביב -יפו",היהודי זיס 4,6986-56-4,,3.0,ראשונה,65.0,424000,,,1950.0,,1.0,4906861750,1,698656,False,,תל אביב -יפו,היהודי זיס,,6986-56-4,6986/56,6523.076923076923,32.0407444209,34.7762159995,1998
1998-10-25,1998-10-25,"הגיבור האלמוני 20, תל אביב -יפו",הגיבור האלמוני 20,6134-648-21,,4.0,שישית,100.0,673000,,,1979.0,,8.0,4907604650,1,6134648,False,,תל אביב -יפו,הגבור האלמוני,,6134-648-21,6134/648,6730.0,32.0563984807,34.799596086,1998
1998-10-25,1998-10-25,"שיבולים 1, תל אביב -יפו",שיבולים 1,6136-17-39,,1.0,ראשונה,,297000,,,1950.0,,3.0,4906722750,1,613617,False,,תל אביב -יפו,שבלים,,6136-17-39,6136/17,,32.0463392503,34.7929150158,1998
1998-10-25,1998-10-25,"דפנה 28, תל אביב -יפו",דפנה 28,6110-231-3,,3.0,קרקע,70.34,773000,,,1950.0,,3.0,4907074600,1,6110231,False,,תל אביב -יפו,דפנה,,6110-231-3,6110/231,10989.479670173445,32.0800371361,34.7934884677,1998
1998-10-25,1998-10-25,"שלמה אבן גבירול 121, תל אביב -יפו",שלמה אבן גבירול 121,6214-531-10,,2.0,-,60.0,688000,,,1960.0,,4.0,4906935200,1,6214531,False,,תל אביב -יפו,אבן גבירול,,6214-531-10,6214/531,11466.666666666666,32.0878033314,34.7819516337,1998
1998-10-25,1998-10-25,"מזא""ה 20, תל אביב -יפו","מזא""ה 20",7451-8-14,,2.0,שניה,42.63,712000,,,1998.0,,5.0,4907662850,1,74518,False,,תל אביב -יפו,"מזא""ה",,7451-8-14,7451/8,16701.853155055123,32.0668026237,34.7737373597,1998
1998-10-23,1998-10-23,"שטנד 19, תל אביב -יפו",שטנד 19,6903-141-8,,2.0,שלישית,31.54,616000,,,1950.0,,4.0,4907017650,1,6903141,False,,תל אביב -יפו,שטנד,,6903-141-8,6903/141,19530.75459733672,32.0789236902,34.7774125326,1998
1998-10-23,1998-10-23,"אברהם הרכבי 7, תל אביב -יפו",אברהם הרכבי 7,6133-999-60,,4.0,ראשונה,98.1,1087000,,,1970.0,,7.0,4906840350,1,6133999,False,,תל אביב -יפו,הרכבי אברהם,,6133-999-60,6133/999,11080.53007135576,32.0606105108,34.8008044208,1998
1998-10-23,1998-10-23,"אריה דולצ'ין 8, תל אביב -יפו",אריה דולצ'ין 8,6630-762-1,,,מרתף,,1750000,,,1997.0,,9.0,4906920750,1,6630762,False,,תל אביב -יפו,דולצ'ין אריה,,6630-762-1,6630/762,,32.1189393022,34.7927585828,1998
1998-10-22,1998-10-22,"יוסף זריצקי 5, תל אביב -יפו",יוסף זריצקי 5,6886-49-27,,,שלישית,94.7,1295000,,,1999.0,,8.0,4906670400,1,688649,False,,תל אביב -יפו,זריצקי יוסף,,6886-49-27,6886/49,13674.762407602955,32.1147226964,34.7920147931,1998
1998-10-22,1998-10-22,"אש שלום 12, תל אביב -יפו",אש שלום 12,6636-750-6,,5.0,שניה,117.5,1130000,,,1980.0,,7.0,4906676150,1,6636750,False,,תל אביב -יפו,אש שלום,,6636-750-6,6636/750,9617.021276595744,32.1064910127,34.8210385645,1998
1998-10-22,1998-10-22,"יוסף קיציס 12, תל אביב -יפו",יוסף קיציס 12,6636-692-13,,3.0,רביעית,56.0,917000,,,1970.0,,8.0,4906675750,1,6636692,False,,תל אביב -יפו,קיציס יוסף,,6636-692-13,6636/692,16375.0,32.106964046,34.819635127,1998
1998-10-22,1998-10-22,"בר-גיורה 10, תל אביב -יפו",בר-גיורה 10,7092-74-10,,2.0,רביעית,28.0,393000,,,1964.0,,5.0,4906808950,1,709274,False,,תל אביב -יפו,בר גיורא,,7092-74-10,7092/74,14035.714285714286,32.0760096829,34.7755428131,1998
1998-10-22,1998-10-22,"הדסה 1, תל אביב -יפו",הדסה 1,6953-10-10,,2.0,שניה,50.0,690000,,,1970.0,,3.0,4906750350,1,695310,False,,תל אביב -יפו,הדסה,,6953-10-10,6953/10,13800.0,32.0828314603,34.778365272,1998
1998-10-22,1998-10-22,"טהון יהושע 7, תל אביב -יפו",טהון יהושע 7,6960-157-8,,3.0,שלישית,60.5,1353000,,,1970.0,,3.0,4906914500,1,6960157,False,,תל אביב -יפו,טהון יהושע,,6960-157-8,6960/157,22363.636363636364,32.0919254851,34.7755951839,1998
1998-10-22,1998-10-22,"מגן אברהם 17, תל אביב -יפו",מגן אברהם 17,7081-71-18,,2.0,ראשונה,49.1,491000,,,1960.0,,3.0,4907180650,1,708171,False,,תל אביב -יפו,מגן אברהם,,7081-71-18,7081/71,10000.0,32.050089484,34.7569214134,1998
1998-10-22,1998-10-22,"כורזים 6, תל אביב -יפו",כורזים 6,7321-8-12,,2.0,רביעית,39.8,510000,,,1960.0,,5.0,4907183500,1,73218,False,,תל אביב -יפו,כורזים,,7321-8-12,7321/8,12814.070351758795,32.1203152484,34.8433321042,1998
1998-10-22,1998-10-22,"עמנואל הרומי 24, תל אביב -יפו",עמנואל הרומי 24,6214-524-19,,3.0,ראשונה,75.0,1144000,,,1950.0,,3.0,4907638100,1,6214524,False,,תל אביב -יפו,עמנואל הרומי,,6214-524-19,6214/524,15253.333333333334,32.0874985887,34.7815408515,1998
1998-10-22,1998-10-22,"שור 17, תל אביב -יפו",שור 17,6213-481-11,,2.5,ראשונה,59.7,840000,,,1958.0,,3.0,4906647350,1,6213481,False,,תל אביב -יפו,שור,,6213-481-11,6213/481,14070.35175879397,32.0903197569,34.7848403328,1998
1998-10-22,1998-10-22,"הותיקים 9, תל אביב -יפו",הותיקים 9,6986-340-3,,3.0,ראשונה,93.4,483000,,,1950.0,,1.0,4906754900,1,6986340,False,,תל אביב -יפו,הותיקים,,6986-340-3,6986/340,5171.306209850107,32.0424189038,34.7761586796,1998
1998-10-22,1998-10-22,"ברזיל 3, תל אביב -יפו",ברזיל 3,6649-518-43,,5.0,אחת עשרה,129.21,1746000,,,1983.0,,12.0,4906627900,1,6649518,False,,תל אביב -יפו,ברזיל,,6649-518-43,6649/518,13512.88599953564,32.1112921382,34.7938470289,1998
1998-10-21,1998-10-21,"הרב הרצוג 10, תל אביב -יפו",הרב הרצוג 10,6107-500-5,,4.0,שלישית,99.7,1567000,,,1984.0,,11.0,4906571400,1,6107500,False,,תל אביב -יפו,הרב הרצוג,,6107-500-5,6107/500,15717.15145436309,32.0947618083,34.7960238209,1998
1998-10-21,1998-10-21,"פנקס 62, תל אביב -יפו",פנקס 62,7250-2-60,דירה בבית קומות,8.0,קומה ‎18‏,136.86,3664000,,,2006.0,,36.0,4906821750,1,72502,False,,תל אביב -יפו,עקיבא אריה,,7250-2-60,7250/2,26771.88367674996,32.0906804365,34.793061802,1998
1998-10-21,1998-10-21,"עמק ברכה 11, תל אביב -יפו",עמק ברכה 11,7110-264-6,,3.0,שלישית,57.0,801000,,,1970.0,,6.0,4907020550,1,7110264,False,,תל אביב -יפו,עמק ברכה,,7110-264-6,7110/264,14052.631578947368,32.0769559843,34.7967244699,1998
1998-10-21,1998-10-21,"דניאל מוריץ 6, תל אביב -יפו",דניאל מוריץ 6,6629-147-110,,4.0,"ארבע עשרה,חמש עשרה",117.1,3375000,,,1970.0,,14.0,4907825400,1,6629147,False,,תל אביב -יפו,מוריץ דניאל,,6629-147-110,6629/147,28821.52006831768,32.1174356098,34.7985788122,1998
1998-10-21,1998-10-21,"הירשנברג 11, תל אביב -יפו",הירשנברג 11,7078-161-1,,2.0,שלישית,50.0,675000,,,1936.0,,3.0,4907116700,1,7078161,False,,תל אביב -יפו,הירשנברג,,7078-161-1,7078/161,13500.0,32.0827664605,34.7744687155,1998
1998-10-21,1998-10-21,"שמואל מיקוניס 3, תל אביב -יפו",שמואל מיקוניס 3,6976-154-16,,,שניה,59.0,363000,,,1950.0,,4.0,4907746650,1,6976154,False,,תל אביב -יפו,מיקוניס שמואל,,6976-154-16,6976/154,6152.542372881356,32.0601893958,34.7852496911,1998
1998-10-21,1998-10-21,"הלסינקי 7, תל אביב -יפו",הלסינקי 7,6108-227-1,,2.0,קרקע,41.65,801000,,,1960.0,,3.0,4906983000,1,6108227,False,,תל אביב -יפו,הלסינקי,,6108-227-1,6108/227,19231.69267707083,32.0842187804,34.791765177,1998
1998-10-20,1998-10-20,"יעקב דה-האז 13, תל אביב -יפו",יעקב דה-האז 13,6212-960-3,,3.0,ראשונה,73.0,1070000,,,1950.0,,3.0,4907723050,1,6212960,False,,תל אביב -יפו,דה האז,,6212-960-3,6212/960,14657.534246575342,32.091700568,34.7866768102,1998
1998-10-20,1998-10-20,"קובנר אבא 9, תל אביב -יפו",קובנר אבא 9,6798-9-16,,,רביעית,117.73,1596000,,,1999.0,,7.0,4907142350,1,67989,False,,תל אביב -יפו,קובנר אבא,,6798-9-16,6798/9,13556.442707890936,32.1016257113,34.7835894871,1998
1998-10-19,1998-10-19,"הבעש""ט 19, תל אביב -יפו","הבעש""ט 19",7047-197-4,,2.0,ראשונה,47.0,495000,,,1950.0,,4.0,4908065900,1,7047197,False,,תל אביב -יפו,"הבעש""ט",,7047-197-4,7047/197,10531.91489361702,32.0379680247,34.752815604,1998
1998-10-19,1998-10-19,"אלתרמן נתן 11, תל אביב -יפו",אלתרמן נתן 11,6625-956-2,,,מרתף,,296000,,,1980.0,,8.0,4906654650,1,6625956,False,,תל אביב -יפו,אלתרמן נתן,,6625-956-2,6625/956,,32.1196755898,34.8201316766,1998
1998-10-18,1998-10-18,"קמינסקה 18, תל אביב -יפו",קמינסקה 18,6986-176-27,,3.0,שניה,57.0,439000,,,1960.0,,4.0,4907015200,1,6986176,False,,תל אביב -יפו,קמינסקה,,6986-176-27,6986/176,7701.754385964912,32.0400325025,34.776713142,1998
1998-10-18,1998-10-18,"מוצקין 20, תל אביב -יפו",מוצקין 20,6960-131-3,,3.0,ראשונה,88.3,1026000,,,1930.0,,3.0,4906558500,1,6960131,False,,תל אביב -יפו,מוצקין,,6960-131-3,6960/131,11619.479048697622,32.0911601652,34.7754363206,1998
1998-10-18,1998-10-18,"מלכי ישראל 11, תל אביב -יפו",מלכי ישראל 11,6952-148-31,,3.0,שלישית,62.0,837000,,,1960.0,,9.0,4906624150,1,6952148,False,,תל אביב -יפו,מלכי ישראל,,6952-148-31,6952/148,13500.0,32.0805149834,34.7796214868,1998
1998-10-18,1998-10-18,"מזא""ה 46, תל אביב -יפו","מזא""ה 46",7455-24-3,,3.0,שניה,65.0,942000,,,1950.0,,3.0,4906773900,1,745524,False,,תל אביב -יפו,"מזא""ה",,7455-24-3,7455/24,14492.307692307691,32.0656952521,34.7777853887,1998
1998-10-16,1998-10-16,"שמואל הנגיד 2, תל אביב -יפו",שמואל הנגיד 2,6953-55-20,,2.0,שלישית,55.0,848000,,,1950.0,,3.0,4906813900,1,695355,False,,תל אביב -יפו,שמואל הנגיד,,6953-55-20,6953/55,15418.181818181818,32.0834083627,34.7792866119,1998
1998-10-16,1998-10-16,"שמואל רומנלי 7, תל אביב -יפו",שמואל רומנלי 7,6623-607-3,,5.0,מרתף+קרקע+ראשוה+גג,223.31,2513000,,,1997.0,,,4907162900,1,6623607,False,,תל אביב -יפו,רומנילי,,6623-607-3,6623/607,11253.414535847029,32.1128534704,34.8271438406,1998
1998-10-15,1998-10-15,"עזה 2, תל אביב -יפו",עזה 2,7076-99-43,,3.0,ראשונה,60.0,451000,,,1970.0,,7.0,4907614150,1,707699,False,,תל אביב -יפו,עזה,,7076-99-43,7076/99,7516.666666666667,32.0492205997,34.7595206682,1998
1998-10-15,1998-10-15,"בר-כוכבא 17, תל אביב -יפו",בר-כוכבא 17,7091-105-6,,2.0,שניה,38.0,701000,,,1935.0,,1.0,4906635350,1,7091105,False,,תל אביב -יפו,בר כוכבא,,7091-105-6,7091/105,18447.36842105263,32.0757282996,34.7725043828,1998
1998-10-15,1998-10-15,"מינקובסקי 6, תל אביב -יפו",מינקובסקי 6,6982-27-4,,4.0,ראשונה,86.1,697000,,,1950.0,,1.0,4906629500,1,698227,False,,תל אביב -יפו,מינקובסקי,,6982-27-4,6982/27,8095.238095238095,32.044196235,34.7815391207,1998
1998-10-15,1998-10-15,"בארי 47, תל אביב -יפו",בארי 47,6110-265-5,,2.0,ביניים,50.73,869000,,,1957.0,,4.0,4906738000,1,6110265,False,,תל אביב -יפו,בארי,,6110-265-5,6110/265,17129.90341021092,32.0825588558,34.7910180588,1998
1998-10-15,1998-10-15,"חובבי ציון 61, תל אביב -יפו",חובבי ציון 61,6906-43-1,,2.0,ראשונה,40.0,556000,,,1940.0,,3.0,4906708700,1,690643,False,,תל אביב -יפו,חובבי ציון,,6906-43-1,6906/43,13900.0,32.078612037,34.7715024974,1998
1998-10-15,1998-10-15,"משה ברזאני 6, תל אביב -יפו",משה ברזאני 6,6631-209-288,,5.0,שניה,123.0,2016000,,,1993.0,,14.0,4906858850,1,6631209,False,,תל אביב -יפו,ברזאני משה,,6631-209-288,6631/209,16390.243902439026,32.126868412,34.7973753388,1998
1998-10-15,1998-10-15,"אברהם עבאס 1, תל אביב -יפו",אברהם עבאס 1,6979-10-457,,2.0,שלישית,45.0,352000,,,1950.0,,4.0,4907372000,1,697910,False,,תל אביב -יפו,עבאס אברהם,,6979-10-457,6979/10,7822.222222222223,32.0529239552,34.7892835444,1998
1998-10-14,1998-10-14,"קמואל 5, תל אביב -יפו",קמואל 5,6135-48-50,,2.0,ראשונה,55.0,355000,,,1950.0,,2.0,4907904500,1,613548,False,,תל אביב -יפו,קמואל,,6135-48-50,6135/48,6454.545454545455,32.0494050904,34.791412177,1998
1998-10-14,1998-10-14,"הטייסים 72, תל אביב -יפו",הטייסים 72,7244-59-13,,3.5,רביעית,78.3,294000,,,1970.0,,8.0,4906460800,1,724459,False,,תל אביב -יפו,הטייסים,,7244-59-13,7244/59,3754.7892720306513,32.0534096363,34.81145786,1998
1998-10-14,1998-10-14,"יפת 38, תל אביב -יפו",יפת 38,7259-8-118,,5.0,שתים עשרה שלוש עשרה,203.9,5684000,,,2022.0,,13.0,4906861350,1,72598,False,,תל אביב -יפו,יפת,,7259-8-118,7259/8,27876.410004904363,32.0515818843,34.7521235108,1998
1998-10-14,1998-10-14,"הברון הירש 7, תל אביב -יפו",הברון הירש 7,6768-10-49,,,ראשונה,28.0,318000,,,1959.0,,7.0,4907072500,1,676810,False,,תל אביב -יפו,הברון הירש,,6768-10-49,6768/10,11357.142857142857,32.1106414405,34.7961096232,1998
1998-10-13,1998-10-13,"שלמה אבן גבירול 117, תל אביב -יפו",שלמה אבן גבירול 117,6214-533-11,,,,78.0,163000,,,1950.0,,5.0,4906354350,1,6214533,False,,תל אביב -יפו,אבן גבירול,,6214-533-11,6214/533,2089.74358974359,32.0875216974,34.7818971286,1998
1998-10-13,1998-10-13,"דוד אבידן 11, תל אביב -יפו",דוד אבידן 11,6615-304-154,,,חמישית,113.2,1364000,,,1999.0,,8.0,4907079550,1,6615304,False,,תל אביב -יפו,אבידן דוד,,6615-304-154,6615/304,12049.469964664311,32.1276742616,34.8309738682,1998
1998-10-12,1998-12-10,"המקצוע 9, תל אביב -יפו",המקצוע 9,6976-147-7,,,קרקע,84.9,291000,,,1965.0,,4.0,4907959850,1,6976147,False,,תל אביב -יפו,המקצוע,,6976-147-7,6976/147,3427.5618374558303,32.0607304316,34.7855608785,1998
1998-10-12,1998-12-10,"פיכמן 2, תל אביב -יפו",פיכמן 2,6768-8-28,,3.0,שמינית,68.7,1226000,,,1960.0,,14.0,4908012250,1,67688,False,,תל אביב -יפו,פיכמן,,6768-8-28,6768/8,17845.705967976708,32.109341028,34.7944123314,1998
1998-10-12,1998-12-10,"דוליצקי 1, תל אביב -יפו",דוליצקי 1,6111-227-14,,3.0,ראשונה,69.0,1060000,,,1950.0,,2.0,4908162800,1,6111227,False,,תל אביב -יפו,דוליצקי,,6111-227-14,6111/227,15362.31884057971,32.0774749268,34.7825380854,1998
1998-10-12,1998-12-10,"אח""י דקר 12, תל אביב -יפו","אח""י דקר 12",7321-76-7,,2.0,שניה,50.4,548000,,,1970.0,,4.0,4950232850,1,732176,False,,תל אביב -יפו,"אח""י דקר",,7321-76-7,7321/76,10873.015873015873,32.1194997603,34.8392698267,1998
1998-10-12,1998-12-10,"ירושלים 16, תל אביב -יפו",ירושלים 16,7017-73-22,,3.0,שלישית,62.0,582000,,,1960.0,,4.0,4907898450,1,701773,False,,תל אביב -יפו,ירושלים,,7017-73-22,7017/73,9387.09677419355,32.0551976836,34.759199342,1998
1998-10-12,1998-12-10,"קפלן 7, תל אביב -יפו",קפלן 7,6111-634-6,,4.0,ראשונה,112.4,1497000,,,1950.0,,3.0,4950313200,1,6111634,False,,תל אביב -יפו,קפלן,,6111-634-6,6111/634,13318.505338078292,32.0737385254,34.7826835217,1998
1998-10-12,1998-12-10,"סטימצקי 8, תל אביב -יפו",סטימצקי 8,6886-56-131,,4.0,שלישית,102.21,1746000,,,1999.0,,22.0,4907933000,1,688656,False,,תל אביב -יפו,סטימצקי,,6886-56-131,6886/56,17082.477252714998,32.1129214537,34.7908782982,1998
1998-10-12,1998-12-10,"מוצקין 5, תל אביב -יפו",מוצקין 5,6960-109-14,,2.0,שלישית,47.0,840000,,,1960.0,,4.0,4950603600,1,6960109,False,,תל אביב -יפו,מוצקין,,6960-109-14,6960/109,17872.340425531915,32.0900168826,34.7747500096,1998
1998-10-12,1998-12-10,"אלכסנדר ינאי 15, תל אביב -יפו",אלכסנדר ינאי 15,6212-440-2,,3.0,ראשונה,80.0,1100000,,,1940.0,,4.0,4908253950,1,6212440,False,,תל אביב -יפו,אלכסנדר ינאי,,6212-440-2,6212/440,13750.0,32.0932504161,34.7822841066,1998
1998-10-12,1998-12-10,"כרמיה 10, תל אביב -יפו",כרמיה 10,7085-124-2,,2.0,ראשונה,66.0,707000,,,1930.0,,5.0,4908277900,1,7085124,False,,תל אביב -יפו,כרמיה,,7085-124-2,7085/124,10712.121212121212,32.0705855315,34.779774964,1998
1998-10-12,1998-12-10,"עמוס 6, תל אביב -יפו",עמוס 6,6957-40-4,,2.0,ראשונה,46.0,827000,,,1958.0,,5.0,4950063650,1,695740,False,,תל אביב -יפו,עמוס,,6957-40-4,6957/40,17978.260869565216,32.0932261293,34.7789761991,1998
1998-10-12,1998-12-10,"שלונסקי 28, תל אביב -יפו",שלונסקי 28,6625-869-37,,4.0,רביעית,64.92,725000,,,1969.0,,4.0,4908004800,1,6625869,False,,תל אביב -יפו,שלונסקי,,6625-869-37,6625/869,11167.590881084412,32.1163287766,34.8219769026,1998
1998-10-12,1998-12-10,"קוסובסקי 28, תל אביב -יפו",קוסובסקי 28,6106-595-13,,3.0,רביעית,73.0,1060000,,,1970.0,,6.0,4908342650,1,6106595,False,,תל אביב -יפו,קוסובסקי,,6106-595-13,6106/595,14520.54794520548,32.0975797454,34.7975184316,1998
1998-10-12,1998-12-10,"מרגולין 31, תל אביב -יפו",מרגולין 31,7098-23-19,,2.0,ראשונה,36.0,399000,,,1948.0,,3.0,4907992900,1,709823,False,,תל אביב -יפו,מרגולין,,7098-23-19,7098/23,11083.333333333334,32.0588206639,34.7939117485,1998
1998-10-12,1998-12-10,"אליעזר קשאני 5, תל אביב -יפו",אליעזר קשאני 5,6628-633-150,,3.0,ראשונה,62.0,1060000,,,1970.0,,8.0,4950322350,1,6628633,False,,תל אביב -יפו,קשאני אליעזר,,6628-633-150,6628/633,17096.774193548386,32.1263954996,34.8047256872,1998
1998-10-12,1998-12-10,"ארבע ארצות 27, תל אביב -יפו",ארבע ארצות 27,6214-65-4,,3.0,ראשונה,87.0,912000,,,1959.0,,3.0,4908182250,1,621465,False,4% ב 0.5 שנים,תל אביב -יפו,ארבע ארצות,8.0,6214-65-4,6214/65,10482.758620689656,32.0885706118,34.7781165981,1998
1998-10-12,1998-12-10,"יוסף סרלין 23, תל אביב -יפו",יוסף סרלין 23,6130-290-101,,3.0,שניה,58.2,727000,,,1970.0,,8.0,4908057550,1,6130290,False,,תל אביב -יפו,סרלין יוסף,,6130-290-101,6130/290,12491.408934707904,32.0528590084,34.8007291744,1998
1998-10-12,1998-12-10,"בן-יהודה 211, תל אביב -יפו",בן-יהודה 211,6961-43-10,,2.0,רביעית,58.2,685000,,,1960.0,,4.0,4908525450,1,696143,False,,תל אביב -יפו,בן יהודה,,6961-43-10,6961/43,11769.75945017182,32.0937228297,34.7748673716,1998
1998-10-12,1998-12-10,"ארבע ארצות 5, תל אביב -יפו",ארבע ארצות 5,6214-312-5,,2.0,ראשונה,45.0,744000,,,1947.0,,5.0,4950505000,1,6214312,False,23% ב 0.9 שנים,תל אביב -יפו,ארבע ארצות,25.56,6214-312-5,6214/312,16533.333333333332,32.0867839941,34.7776880517,1998
1998-10-11,1998-11-10,"סשה ארגוב 15, תל אביב -יפו",סשה ארגוב 15,6615-300-61,,,שלישית,61.65,851000,,,1998.0,,13.0,4907515550,1,6615300,False,,תל אביב -יפו,סשא ארגוב,,6615-300-61,6615/300,13803.730738037308,32.1266719589,34.8299102559,1998
1998-10-11,1998-11-10,"הרב עוזיאל 8, תל אביב -יפו",הרב עוזיאל 8,6107-425-4,,4.0,ראשונה,86.95,1333000,,,1970.0,,8.0,4907095300,1,6107425,False,,תל אביב -יפו,הרב עוזיאל,,6107-425-4,6107/425,15330.649798734905,32.0949959576,34.8003579445,1998
1998-10-11,1998-11-10,"התנאים 12, תל אביב -יפו",התנאים 12,7223-9-18,,3.0,ראשונה,56.7,894000,,,1970.0,,4.0,4908295650,1,72239,False,,תל אביב -יפו,התנאים,,7223-9-18,7223/9,15767.195767195766,32.1166726086,34.7957862677,1998
1998-10-11,1998-11-10,"זלטופולסקי 7, תל אביב -יפו",זלטופולסקי 7,6901-20-7,,2.0,ראשונה,36.68,709000,,,1957.0,,2.0,4907105100,1,690120,False,,תל אביב -יפו,זלטופולסקי,,6901-20-7,6901/20,19329.334787350053,32.0882243746,34.7720357795,1998
1998-10-11,1998-11-10,"הרב אלנקווה 78, תל אביב -יפו",הרב אלנקווה 78,7203-84-9,,4.0,ראשונה,94.0,790000,,,1993.0,,8.0,4907314650,1,720384,False,,תל אביב -יפו,הרב אלנקווה,,7203-84-9,7203/84,8404.255319148937,32.053037612,34.8045994158,1998
1998-10-11,1998-11-10,"לוי אשכול 56, תל אביב -יפו",לוי אשכול 56,7221-18-16,,4.0,שלישית,111.8,1472000,,,1999.0,,,4907468100,1,722118,False,,תל אביב -יפו,אשכול לוי,,7221-18-16,7221/18,13166.368515205724,32.1097537255,34.7899006439,1998
1998-10-11,1998-11-10,"ז'בוטינסקי 114, תל אביב -יפו",ז'בוטינסקי 114,6213-1246-10,,2.0,שלישית,58.0,980000,,,1960.0,,4.0,4907141950,1,62131246,False,,תל אביב -יפו,ז'בוטינסקי,,6213-1246-10,6213/1246,16896.55172413793,32.0869691533,34.7871067835,1998
1998-10-11,1998-11-10,"נחל עוז 29, תל אביב -יפו",נחל עוז 29,7074-29-21,,3.0,שניה,52.0,507000,,,1960.0,,4.0,4907139450,1,707429,False,,תל אביב -יפו,נחל עוז,,7074-29-21,7074/29,9750.0,32.0404994685,34.7588719936,1998
1998-10-11,1998-11-10,"ריינס 38, תל אביב -יפו",ריינס 38,6903-4-19,,2.0,שניה,51.0,683000,,,1950.0,,4.0,4907106800,1,69034,False,,תל אביב -יפו,ריינס,,6903-4-19,6903/4,13392.156862745098,32.0811183295,34.775737821,1998
1998-10-11,1998-11-10,"אריה פסטרנק 5, תל אביב -יפו",אריה פסטרנק 5,6630-294-210,,3.0,שניה,74.0,1290000,,,1960.0,,12.0,4908296050,1,6630294,False,,תל אביב -יפו,פסטרנק אריה,,6630-294-210,6630/294,17432.432432432433,32.11831951,34.7967880913,1998
1998-10-11,1998-11-10,"פילכובסקי 3, תל אביב -יפו",פילכובסקי 3,6629-120-35,,3.0,שלישית,65.5,992000,,,1960.0,,4.0,4907222350,1,6629120,False,,תל אביב -יפו,פיליכובסקי,,6629-120-35,6629/120,15145.038167938932,32.1174679861,34.8005494874,1998
1998-10-11,1998-11-10,"משה הס 26, תל אביב -יפו",משה הס 26,6913-46-9,,,שלישית,62.0,880000,,,1960.0,,4.0,4907463550,1,691346,False,,תל אביב -יפו,הס משה,,6913-46-9,6913/46,14193.548387096776,32.0736766332,34.7705451356,1998
1998-10-10,1998-10-10,"אליקום צונזר 5, תל אביב -יפו",אליקום צונזר 5,6986-122-2,,3.5,קרקע,84.7,639000,,,1950.0,,2.0,4906732300,1,6986122,False,,תל אביב -יפו,צונזר,,6986-122-2,6986/122,7544.273907910271,32.0421638135,34.7779588844,1998
1998-10-09,1998-09-10,"הרב רפאל אנקווה 61, תל אביב -יפו",הרב רפאל אנקווה 61,6130-284-69,,4.0,שתים עשרה,70.5,546000,,,1970.0,,12.0,4905890750,1,6130284,False,,תל אביב -יפו,הרב אלנקווה,,6130-284-69,6130/284,7744.68085106383,32.0536631448,34.8042218438,1998
1998-10-09,1998-09-10,"הזוהר 1, תל אביב -יפו",הזוהר 1,6107-551-4,,4.0,שניה,87.62,1095000,,,1998.0,,6.0,4906083800,1,6107551,False,,תל אביב -יפו,הזוהר,,6107-551-4,6107/551,12497.1467701438,32.0920494416,34.7958343704,1998
1998-10-09,1998-09-10,"יודפת 4, תל אביב -יפו",יודפת 4,6954-41-12,,2.0,שניה,50.0,662000,,,1950.0,,1.0,4906557700,1,695441,False,,תל אביב -יפו,יודפת,,6954-41-12,6954/41,13240.0,32.0855936603,34.7751607942,1998
1998-10-09,1998-09-10,"שבתאי יעקב 31, תל אביב -יפו",שבתאי יעקב 31,6615-300-45,,,שישית+שביעית,83.75,990000,,,1998.0,,13.0,4906562300,1,6615300,False,,תל אביב -יפו,יעקב שבתאי,,6615-300-45,6615/300,11820.89552238806,32.1266719589,34.8299102559,1998
1998-10-08,1998-08-10,"אורי 6, תל אביב -יפו",אורי 6,6111-837-88,,3.0,שמינית,99.8,2321000,,,1970.0,,17.0,4905509100,1,6111837,False,,תל אביב -יפו,אורי,,6111-837-88,6111/837,23256.513026052104,32.0807366118,34.7856048936,1998
1998-10-07,1998-07-10,"צבי רוזנבלט 1, תל אביב -יפו",צבי רוזנבלט 1,7046-21-11,,3.0,שניה,62.58,491000,,,1960.0,,3.0,4905770650,1,704621,False,,תל אביב -יפו,רוזנבלט צבי,,7046-21-11,7046/21,7845.957174816235,32.0443285074,34.7581809464,1998
1998-10-06,1998-06-10,"זיכרון יעקב 11, תל אביב -יפו",זיכרון יעקב 11,6213-596-30,,4.0,ראשונה,115.0,1530000,,,2022.0,,7.0,4904487900,1,6213596,False,,תל אביב -יפו,זכרון יעקב,,6213-596-30,6213/596,13304.347826086956,32.0842290797,34.7911906323,1998
1998-10-06,1998-06-10,"רמברנדט 13, תל אביב -יפו",רמברנדט 13,6217-541-3,,4.0,ראשונה,101.5,1318000,,,1950.0,,3.0,4903989550,1,6217541,False,,תל אביב -יפו,רמברנדט,,6217-541-3,6217/541,12985.221674876848,32.0832703077,34.7832310683,1998
1998-10-06,1998-06-10,"לואי ליפסקי 19, תל אביב -יפו",לואי ליפסקי 19,6213-1158-6,,4.0,שלישית,91.0,1574000,,,1960.0,,4.0,4904300500,1,62131158,False,,תל אביב -יפו,ליפסקי לואי,,6213-1158-6,6213/1158,17296.703296703297,32.0900047199,34.7871582434,1998
1998-10-06,1998-06-10,"זרח 28, תל אביב -יפו",זרח 28,6979-10-461,,2.0,ראשונה,32.0,230000,,,1950.0,,4.0,4904613650,1,697910,False,,תל אביב -יפו,זרח,,6979-10-461,6979/10,7187.5,32.0529239552,34.7892835444,1998
1998-10-06,1998-06-10,"צבי שפירא 11, תל אביב -יפו",צבי שפירא 11,7111-7-3,,2.0,קרקע,43.8,659000,,,1950.0,,5.0,4904254350,1,71117,False,,תל אביב -יפו,שפירא צבי,,7111-7-3,7111/7,15045.662100456622,32.0755015546,34.7769550465,1998
1998-10-06,1998-06-10,"יערי מאיר 6, תל אביב -יפו",יערי מאיר 6,6798-8-11,,,רביעית,122.12,1429000,,,2000.0,,8.0,4904324050,1,67988,False,,תל אביב -יפו,יערי מאיר,,6798-8-11,6798/8,11701.604978709463,32.0991885546,34.7848149667,1998
1998-10-06,1998-06-10,"חכים אליהו 11, תל אביב -יפו",חכים אליהו 11,6631-120-25,,5.0,שביעית,119.0,2471000,,,1997.0,,9.0,4904414850,1,6631120,False,,תל אביב -יפו,חכים אליהו,,6631-120-25,6631/120,20764.70588235294,32.1274941475,34.8009551732,1998
