DEALDATE,DEALDATETIME,FULLADRESS,DISPLAYADRESS,GUSH,DEALNATUREDESCRIPTION,ASSETROOMNUM,FLOORNO,DEALNATURE,DEALAMOUNT,NEWPROJECTTEXT,PROJECTNAME,BUILDINGYEAR,YEARBUILT,BUILDINGFLOORS,KEYVALUE,TYPE,POLYGON_ID,TREND_IS_NEGATIVE,TREND_FORMAT,city_name,street,presentage per year,GUSH - Copy,Gush_Helka,Price per sqm,lat,lon,Year
2011-12-30,2011-12-30,"הצופים 21, רמת גן",הצופים 21,6127-776-2,דירה בבית קומות,2.5,קרקע,58.0,1330000,,,1950.0,,2.0,3248053766,1,6127776,False,,רמת גן,הצופים,,6127-776-2,6127/776,22931.03448275862,32.0834587824,34.8107607582,2011
2011-12-30,2011-12-30,"השר משה 16, רמת גן",השר משה 16,6145-1615-38,דירה בבית קומות,5.0,שניה,112.6,2111000,,,2013.0,,8.0,3248395879,1,61451615,False,,רמת גן,השר משה,,6145-1615-38,6145/1615,18747.77975133215,32.0666038321,34.8224924113,2011
2011-12-29,2011-12-29,"חזון איש 82, רמת גן",חזון איש 82,6186-532-13,דירה בבית קומות,4.0,שלישית,80.69,1430000,,,1996.0,,4.0,3248291769,1,6186532,False,,רמת גן,"חזון אי""ש",,6186-532-13,6186/532,17722.146486553476,32.0747038527,34.8328380219,2011
2011-12-29,2011-12-29,"טרומן 13, רמת גן",טרומן 13,6145-687-1,דירה,5.0,שניה,122.0,2075000,1.0,רמת קרדן,,,1.0,11181263730,1,6145687,False,,רמת גן,טרומן,,6145-687-1,6145/687,17008.196721311477,32.0685458982,34.823749348,2011
2011-12-29,2011-12-29,"אבא הלל 12, רמת גן",אבא הלל 12,6109-431-3,משרד,,שבע עשרה,958.0,13800000,,,1980.0,,1.0,3248228433,1,6109431,False,,רמת גן,אבא הלל,,6109-431-3,6109/431,14405.01043841336,32.084821976,34.8042526565,2011
2011-12-29,2011-12-29,"תובל 15, רמת גן",תובל 15,6109-246-6,חנות,,קרקע,47.33,766000,,,1970.0,,6.0,3248735846,1,6109246,False,167% ב 8.2 שנים,רמת גן,תובל,20.37,6109-246-6,6109/246,16184.238326642722,32.086025312,34.8031115619,2011
2011-12-29,2011-12-29,"הגפן 18, רמת גן",הגפן 18,6205-697-1,דירה בבית קומות,2.0,ראשונה,50.6,1180000,,,1973.0,,3.0,3248118088,1,6205697,False,38% ב 3.5 שנים,רמת גן,הגפן,10.86,6205-697-1,6205/697,23320.1581027668,32.0892500206,34.8126535036,2011
2011-12-29,2011-12-29,"המרגנית 30, רמת גן",המרגנית 30,6210-28-47,דירה בבית קומות,3.0,שניה,57.0,1550000,,,1960.0,,3.0,3248266684,1,621028,False,,רמת גן,המרגנית,,6210-28-47,6210/28,27192.98245614035,,,2011
2011-12-29,2011-12-29,"החי""ל 8, רמת גן","החי""ל 8",6145-740-4,דירה בבית קומות,3.0,רביעית,69.0,1375000,,,2012.0,,5.0,3248101384,1,6145740,False,,רמת גן,"החי""ל",,6145-740-4,6145/740,19927.536231884056,32.0673505206,34.8222548056,2011
2011-12-29,2011-12-29,"ז'בוטינסקי 1, רמת גן",ז'בוטינסקי 1,6207-769-97,משרד,,ארבע עשרה,188.0,5916000,,,1976.0,,23.0,3248451153,1,6207769,False,,רמת גן,ז'בוטינסקי,,6207-769-97,6207/769,31468.08510638298,32.0833649685,34.8003412005,2011
2011-12-29,2011-12-29,"ז'בוטינסקי 147, רמת גן",ז'בוטינסקי 147,6204-515-1,משרד,,קרקע,37.0,400000,,,1970.0,,3.0,3248617932,1,6204515,False,93% ב 12 שנים,רמת גן,ז'בוטינסקי,7.75,6204-515-1,6204/515,10810.81081081081,32.090788826,34.821262731,2011
2011-12-29,2011-12-29,"רש""י 11, רמת גן","רש""י 11",6204-69-7,דירה בבית קומות,3.0,שניה,101.42,1235000,,,1997.0,,7.0,3248054230,1,620469,False,,רמת גן,"רש""י",,6204-69-7,6204/69,12177.085387497536,32.0907845305,34.8180836279,2011
2011-12-29,2011-12-29,"עוזיאל 31, רמת גן",עוזיאל 31,6158-1251-6,חנות,,חנויות,24.0,740000,,,1960.0,,4.0,3248749969,1,61581251,False,,רמת גן,עוזיאל,,6158-1251-6,6158/1251,30833.33333333333,32.0760879804,34.8234338282,2011
2011-12-28,2011-12-28,"הכבאים 1, רמת גן",הכבאים 1,6181-667-50,דירה בבית קומות,5.0,שלוש עשרה,100.2,1890000,,,2006.0,,29.0,3248108344,1,6181667,True,-17% ב 5 שנים,רמת גן,הכבאים,-3.4,6181-667-50,6181/667,18862.275449101795,32.0639633937,34.8332410095,2011
2011-12-28,2011-12-28,"החי""ל 8, רמת גן","החי""ל 8",6145-740-3,דירה,3.0,רביעית,68.0,1375000,1.0,החייל,2012.0,,5.0,11181263746,1,6145740,False,,רמת גן,"החי""ל",,6145-740-3,6145/740,20220.58823529412,32.0673505206,34.8222548056,2011
2011-12-28,2011-12-28,"בת-שוע 4, רמת גן",בת-שוע 4,6145-179-2,דירה בבית קומות,4.0,ראשונה,76.33,1350000,,,1980.0,,3.0,3248789670,1,6145179,False,,רמת גן,בת שוע,,6145-179-2,6145/179,17686.36184986244,32.0699961212,34.8265314605,2011
2011-12-28,2011-12-28,"לאן 20, רמת גן",לאן 20,6128-734-2,דירה בבית קומות,3.0,ראשונה,74.43,1390000,,,1970.0,,7.0,3248742342,1,6128734,False,,רמת גן,לאן,,6128-734-2,6128/734,18675.26534999328,32.0815638768,34.8080291505,2011
2011-12-28,2011-12-28,"מאיר בעל הנס 18, רמת גן",מאיר בעל הנס 18,6186-526-4,דירה בבית קומות,4.0,שניה,104.0,1640000,,,1980.0,,6.0,3248082273,1,6186526,False,,רמת גן,מאיר בעל הנס,,6186-526-4,6186/526,15769.23076923077,32.0740490356,34.8318279326,2011
2011-12-28,2011-12-28,"זבוטינסקי 155, רמת גן",זבוטינסקי 155,6204-646-59,משרד,,שלישית,41.15,440000,,,1994.0,,8.0,3248134647,1,6204646,False,,רמת גן,ז'בוטינסקי,,6204-646-59,6204/646,10692.58809234508,32.0913394218,34.8222437436,2011
2011-12-28,2011-12-28,"עלומים 22, רמת גן",עלומים 22,6144-539-4,דירה בבית קומות,4.0,שניה,81.4,1590000,,,1991.0,,4.0,3248111447,1,6144539,False,,רמת גן,עלומים,,6144-539-4,6144/539,19533.16953316953,32.0639043416,34.8210173564,2011
2011-12-27,2011-12-27,"השר משה 16, רמת גן",השר משה 16,6145-1615-20,דירה בבית קומות,4.0,חמישית,91.15,1907000,,,2013.0,,8.0,3248395212,1,61451615,False,,רמת גן,השר משה,,6145-1615-20,6145/1615,20921.55787164015,32.0666038321,34.8224924113,2011
2011-12-27,2011-12-27,"תובל 21, רמת גן",תובל 21,6109-347-202,משרד,,עשרים,242.0,5481000,,,1988.0,,29.0,3248850483,1,6109347,False,,רמת גן,תובל,,6109-347-202,6109/347,22648.760330578512,32.0838519184,34.8021240457,2011
2011-12-27,2011-12-27,"שלם 14, רמת גן",שלם 14,6142-91-16,דירה בבית קומות,3.0,שניה,53.0,792000,,,1960.0,,3.0,3248123598,1,614291,True,-1% ב 1.5 שנים,רמת גן,שלם,-0.67,6142-91-16,6142/91,14943.396226415094,32.0507848343,34.814426276,2011
2011-12-27,2011-12-27,"ז'בוטינסקי 3, רמת גן",ז'בוטינסקי 3,6109-275-62,משרד,,שביעית,,403000,,,1966.0,,20.0,3248451385,1,6109275,False,,רמת גן,ז'בוטינסקי,,6109-275-62,6109/275,,32.0834052795,34.8014749201,2011
2011-12-26,2011-12-26,"האגדה 9, רמת גן",האגדה 9,6158-1468-2,דירה בבית קומות,4.0,ראשונה,77.5,1430000,,,1973.0,,3.0,3248879889,1,61581468,False,,רמת גן,האגדה,,6158-1468-2,6158/1468,18451.612903225807,32.0752118939,34.826449749,2011
2011-12-26,2011-12-26,"זלמן שניאור 3, רמת גן",זלמן שניאור 3,6158-403-3,דירה בבית קומות,4.0,שלישית,95.0,1850000,,,1960.0,,3.0,3227306267,1,6158403,False,,רמת גן,שניאור זלמן,,6158-403-3,6158/403,19473.68421052632,32.0766432745,34.8202209445,2011
2011-12-26,2011-12-26,"המלך יוסף 31, רמת גן",המלך יוסף 31,6157-711-8,דירה בבית קומות,5.0,שלישית,81.33,1900000,,,2000.0,,6.0,3248808607,1,6157711,False,,רמת גן,המלך יוסף,,6157-711-8,6157/711,23361.61318086807,32.071059638,34.8210136803,2011
2011-12-26,2011-12-26,"עלומים 1, רמת גן",עלומים 1,6144-559-5,דירה בבית קומות,3.5,שלישית,89.58,880000,,,1961.0,,3.0,3227317287,1,6144559,True,-23% ב 1.3 שנים,רמת גן,עלומים,-17.69,6144-559-5,6144/559,9823.62134405001,32.0633683458,34.8231626455,2011
2011-12-25,2011-12-25,"טובים 2, רמת גן",טובים 2,6210-114-16,דירה בבית קומות,2.0,שניה,50.0,1170000,,,1950.0,,4.0,3227318273,1,6210114,False,,רמת גן,טובים,,6210-114-16,6210/114,23400.0,32.0913036526,34.8123582743,2011
2011-12-25,2011-12-25,"סוקולוב 2, רמת גן",סוקולוב 2,6204-660-69,דירה בבית קומות,4.0,שמונה עשרה,105.68,1958000,,,2008.0,,25.0,3248159007,1,6204660,False,,רמת גן,סוקולוב,,6204-660-69,6204/660,18527.630582891747,32.0908920657,34.8207160633,2011
2011-12-25,2011-12-25,"הראשונים 26, רמת גן",הראשונים 26,6128-658-4,דירה בבית קומות,3.0,שניה,63.0,500000,,,1960.0,,3.0,3248528409,1,6128658,False,,רמת גן,הראשונים,,6128-658-4,6128/658,7936.507936507936,,,2011
2011-12-25,2011-12-25,"תובל 11, רמת גן",תובל 11,6109-361-43,משרד,,שישית,210.04,4675000,,,1998.0,,9.0,3248330310,1,6109361,False,33% ב 12.1 שנים,רמת גן,תובל,2.73,6109-361-43,6109/361,22257.66520662731,32.08695566,34.8037200609,2011
2011-12-25,2011-12-25,"עוזיאל 138, רמת גן",עוזיאל 138,6156-237-4,דירה בבית קומות,3.0,ראשונה,61.16,1170000,,,1955.0,,1.0,3248172463,1,6156237,False,,רמת גן,עוזיאל,,6156-237-4,6156/237,19130.15042511445,32.0639771103,34.8200232526,2011
2011-12-25,2011-12-25,"הביל""ויים 37, רמת גן","הביל""ויים 37",6180-426-59,דירה בבית קומות,2.0,שלישית,46.0,800000,1.0,גינת אהרונסון,1960.0,,4.0,3248079402,1,6180426,False,62% ב 11.7 שנים,רמת גן,הבילויים,5.3,6180-426-59,6180/426,17391.304347826088,32.0605703316,34.8258606138,2011
2011-12-24,2011-12-24,"קוממיות 2, רמת גן",קוממיות 2,6183-167-3,דירה בבית קומות,2.5,שניה,51.0,1000000,,,1950.0,,2.0,3248734425,1,6183167,False,206% ב 12.5 שנים,רמת גן,קוממיות,16.48,6183-167-3,6183/167,19607.843137254906,32.0675268245,34.8368123542,2011
2011-12-23,2011-12-23,"סוקולוב 2, רמת גן",סוקולוב 2,6204-660-78,דירה בבית קומות,4.0,עשרים,106.42,2088000,,,2008.0,,25.0,3248109301,1,6204660,False,,רמת גן,סוקולוב,,6204-660-78,6204/660,19620.372110505545,32.0908920657,34.8207160633,2011
2011-12-23,2011-12-23,"ביאליק 77, רמת גן",ביאליק 77,6127-891-10,חנות,,חנויות,28.0,849000,,,1970.0,,12.0,3248645888,1,6127891,False,,רמת גן,ביאליק,,6127-891-10,6127/891,30321.42857142857,32.0852140675,34.8108384264,2011
2011-12-23,2011-12-23,"אבא הלל 35, רמת גן",אבא הלל 35,6206-8-49,דירה בבית קומות,4.0,ראשונה,90.75,1150000,,,1993.0,,8.0,3227305049,1,62068,False,,רמת גן,אבא הלל,,6206-8-49,6206/8,12672.176308539943,32.088176877,34.8066458167,2011
2011-12-22,2011-12-22,"טבנקין 21, רמת גן",טבנקין 21,6144-727-5,דירה בבית קומות,3.5,שניה,76.42,1775000,,,1994.0,,10.0,3227227097,1,6144727,False,,רמת גן,טבנקין,,6144-727-5,6144/727,23226.903951845063,32.059813062,34.8197961743,2011
2011-12-22,2011-12-22,"הרא""ה 146, רמת גן","הרא""ה 146",6158-1090-5,דירה בבית קומות,2.0,ראשונה,50.0,860000,,,1950.0,,5.0,3248060436,1,61581090,False,,רמת גן,"הרא""ה",,6158-1090-5,6158/1090,17200.0,32.0749710237,34.8248550996,2011
2011-12-22,2011-12-22,"החשמונאים 31, רמת גן",החשמונאים 31,6127-595-5,דירה בבית קומות,4.0,שניה,75.0,1500000,,,1980.0,,4.0,3227296204,1,6127595,False,,רמת גן,החשמונאים,,6127-595-5,6127/595,20000.0,32.080343715,34.8094578495,2011
2011-12-22,2011-12-22,"אבא הלל 82, רמת גן",אבא הלל 82,6205-454-8,דירה בבית קומות,2.0,ראשונה,47.5,940000,,,1957.0,,2.0,3227340719,1,6205454,False,93% ב 7.9 שנים,רמת גן,אבא הלל,11.77,6205-454-8,6205/454,19789.473684210527,32.090584501,34.8121566227,2011
2011-12-22,2011-12-22,"אהליאב 3, רמת גן",אהליאב 3,6207-752-9,חנות,,ראשונה,71.75,1000000,,,1979.0,,4.0,3248523624,1,6207752,False,236% ב 4.9 שנים,רמת גן,אהליאב,48.16,6207-752-9,6207/752,13937.282229965156,32.087198482,34.8029348356,2011
2011-12-22,2011-12-22,"ז'בוטינסקי 35, רמת גן",ז'בוטינסקי 35,6109-327-8,חנות,,קומת קרקע,31.9,525000,,,1994.0,,16.0,3248152076,1,6109327,False,,רמת גן,ז'בוטינסקי,,6109-327-8,6109/327,16457.6802507837,32.0839977342,34.806704565,2011
2011-12-21,2011-12-21,"החי""ל 8, רמת גן","החי""ל 8",6145-740-2,דירה בבית קומות,3.0,שלישית,70.0,1425000,,,2012.0,,5.0,3248100398,1,6145740,False,,רמת גן,"החי""ל",,6145-740-2,6145/740,20357.14285714286,32.0673505206,34.8222548056,2011
2011-12-21,2011-12-21,"ז'בוטינסקי 42, רמת גן",ז'בוטינסקי 42,6127-952-41,דירה בבית קומות,4.0,אחת עשרה,81.15,1600000,,,1999.0,,14.0,3227193631,1,6127952,False,50% ב 11.7 שנים,רמת גן,ז'בוטינסקי,4.27,6127-952-41,6127/952,19716.57424522489,32.0840320108,34.8096254699,2011
2011-12-21,2011-12-21,"ז'בוטינסקי 35, רמת גן",ז'בוטינסקי 35,6109-327-9,חנות,,קומת קרקע,284.65,4750000,,,1994.0,,16.0,3227348172,1,6109327,False,,רמת גן,ז'בוטינסקי,,6109-327-9,6109/327,16687.159669769895,32.0839977342,34.806704565,2011
2011-12-21,2011-12-21,"הדר 11, רמת גן",הדר 11,6205-665-8,דירה בבית קומות,3.5,שניה,79.3,1620000,,,1970.0,,8.0,3227355074,1,6205665,False,,רמת גן,הדר,,6205-665-8,6205/665,20428.75157629256,32.0880216089,34.8122738771,2011
2011-12-21,2011-12-21,"בצלאל 5, רמת גן",בצלאל 5,6207-805-2,משרד,,קרקע,270.0,5098000,,,1974.0,,3.0,3248600474,1,6207805,False,,רמת גן,בצלאל,,6207-805-2,6207/805,18881.48148148148,32.0864478038,34.8016108708,2011
2011-12-21,2011-12-21,"מצפה 13, רמת גן",מצפה 13,6128-154-5,דירה בבית קומות,2.5,ראשונה,60.0,1100000,,,1955.0,,2.0,3248353046,1,6128154,False,30% ב 3.3 שנים,רמת גן,מצפה,9.09,6128-154-5,6128/154,18333.33333333333,32.0821542883,34.8080132463,2011
2011-12-21,2011-12-21,"החילזון 5, רמת גן",החילזון 5,6109-379-4,משרד,,,451.0,6649000,,,2011.0,,10.0,3248717460,1,6109379,False,,רמת גן,החילזון,,6109-379-4,6109/379,14742.79379157428,32.0871200858,34.8046881323,2011
2011-12-21,2011-12-21,"תובל 21, רמת גן",תובל 21,6109-347-201,משרד,,שלושים ואחת,358.0,10330000,,,1988.0,,29.0,3248082940,1,6109347,False,,רמת גן,תובל,,6109-347-201,6109/347,28854.74860335196,32.0838519184,34.8021240457,2011
2011-12-20,2011-12-20,"שושנים 3, רמת גן",שושנים 3,6203-207-31,דירת גג,5.0,שמינית,102.0,3850000,,,1980.0,,8.0,3248057855,1,6203207,False,,רמת גן,שושנים,,6203-207-31,6203/207,37745.098039215685,32.0947975469,34.8138092975,2011
2011-12-20,2011-12-20,"המלך יוסף 37, רמת גן",המלך יוסף 37,6157-714-7,דירה בבית קומות,3.0,שניה,54.09,1300000,,,2008.0,,6.0,3227173302,1,6157714,False,,רמת גן,המלך יוסף,,6157-714-7,6157/714,24034.017378443332,32.0709867692,34.82160336,2011
2011-12-20,2011-12-20,"הרא""ה 91, רמת גן","הרא""ה 91",6159-333-5,דירה בבית קומות,3.0,שניה,64.0,990000,,,1959.0,,3.0,3227179218,1,6159333,False,,רמת גן,"הרא""ה",,6159-333-5,6159/333,15468.75,32.0819592392,34.8258283198,2011
2011-12-20,2011-12-20,"תלפיות 36, רמת גן",תלפיות 36,6205-135-4,חנות,,קרקע,23.0,300000,,,1950.0,,2.0,3227242902,1,6205135,False,,רמת גן,תלפיות,,6205-135-4,6205/135,13043.478260869566,32.0865535635,34.8105538949,2011
2011-12-20,2011-12-20,"טרומן 39, רמת גן",טרומן 39,6145-1181-3,דירה בבית קומות,3.0,שניה,53.0,1230000,,,1970.0,,3.0,3248013804,1,61451181,False,70% ב 11.5 שנים,רמת גן,טרומן,6.09,6145-1181-3,6145/1181,23207.54716981132,32.0681289493,34.8274020483,2011
2011-12-20,2011-12-20,"עלומים 23, רמת גן",עלומים 23,6144-592-2,דירה,4.0,חמישית,96.0,1365000,1.0,עיר גני,2021.0,,8.0,11181263479,1,6144592,False,,רמת גן,עלומים,,6144-592-2,6144/592,14218.75,32.0630024681,34.8208316539,2011
2011-12-20,2011-12-20,"החי""ל 8, רמת גן","החי""ל 8",6145-740-1,דירה,3.0,שלישית,68.0,1425000,1.0,החייל,2012.0,,5.0,11181263745,1,6145740,False,,רמת גן,"החי""ל",,6145-740-1,6145/740,20955.88235294117,32.0673505206,34.8222548056,2011
2011-12-20,2011-12-20,"השוטרת 9, רמת גן",השוטרת 9,6127-503-13,דירה בבית קומות,4.0,שביעית,96.0,3275000,,,2006.0,,7.0,3227322101,1,6127503,False,,רמת גן,השוטרת,,6127-503-13,6127/503,34114.583333333336,32.0807626851,34.8139383431,2011
2011-12-19,2011-12-19,"נגבה 71, רמת גן",נגבה 71,6186-618-1,דירה בבית קומות,2.0,קרקע,56.2,1300000,,,1950.0,,1.0,3227280428,1,6186618,False,,רמת גן,נגבה,,6186-618-1,6186/618,23131.672597864766,32.0702690788,34.8300810282,2011
2011-12-19,2011-12-19,"ארנון 18, רמת גן",ארנון 18,6180-490-4,דירה בבית קומות,2.0,קרקע,47.7,950000,,,1950.0,,1.0,3227317055,1,6180490,False,,רמת גן,ארנון,,6180-490-4,6180/490,19916.14255765199,32.0607636679,34.8316731065,2011
2011-12-19,2011-12-19,"האר""י 9, רמת גן","האר""י 9",6145-1363-1,דירה בבית קומות,3.0,ראשונה,67.0,1350000,,,1990.0,,3.0,3227138560,1,61451363,False,,רמת גן,"האר""י",,6145-1363-1,6145/1363,20149.253731343284,32.0649390777,34.8231820416,2011
2011-12-18,2011-12-18,"החולה 22, רמת גן",החולה 22,6181-527-33,דירה בבית קומות,4.5,תשיעית,118.92,2920000,,,2007.0,,9.0,3248516229,1,6181527,False,16% ב 2.8 שנים,רמת גן,החולה,5.71,6181-527-33,6181/527,24554.322233434243,32.0618941417,34.8347956192,2011
2011-12-18,2011-12-18,"הרא""ה 99, רמת גן","הרא""ה 99",6159-408-4,דירה בבית קומות,2.5,ראשונה,52.0,1160000,,,1957.0,,3.0,3248295394,1,6159408,False,32% ב 0.6 שנים,רמת גן,"הרא""ה",53.33,6159-408-4,6159/408,22307.69230769231,32.0813350265,34.8259324573,2011
2011-12-18,2011-12-18,"היוגב 5, רמת גן",היוגב 5,6204-194-6,דירה בבית קומות,5.0,שלישית + רביעית,125.0,1170000,,,1980.0,,3.0,3248470989,1,6204194,False,19% ב 4.3 שנים,רמת גן,היוגב,4.42,6204-194-6,6204/194,9360.0,32.0941713672,34.8198494608,2011
2011-12-18,2011-12-18,"יהל""ם (יהודה לייב מוצקין) 5, רמת גן","יהל""ם (יהודה לייב מוצקין) 5",6125-654-4,דירה בבית קומות,3.0,שניה,65.0,1435000,,,1965.0,,3.0,3227108400,1,6125654,False,,רמת גן,יהלום,,6125-654-4,6125/654,22076.92307692308,32.0852371371,34.8189559303,2011
2011-12-18,2011-12-18,"יואב 10, רמת גן",יואב 10,6206-52-9,דירה בבית קומות,2.0,שניה,35.0,985000,,,1960.0,,3.0,3248243948,1,620652,False,74% ב 5.5 שנים,רמת גן,יואב,13.45,6206-52-9,6206/52,28142.85714285714,,,2011
2011-12-18,2011-12-18,"משה שרת 31, רמת גן",משה שרת 31,6125-450-1,קוטג' חד משפחתי,1.0,,540.0,11000000,,,1997.0,,,3227190470,1,6125450,False,,רמת גן,שרת משה,,6125-450-1,6125/450,20370.37037037037,32.087440095,34.8174710644,2011
2011-12-18,2011-12-18,"הילד 22, רמת גן",הילד 22,6127-425-2,דירה בבית קומות,2.0,קרקע,45.0,1250000,,,1950.0,,3.0,3248092249,1,6127425,False,127% ב 12.5 שנים,רמת גן,הילד,10.16,6127-425-2,6127/425,27777.777777777777,32.0844824439,34.8142545641,2011
2011-12-18,2011-12-18,"ביאליק 54, רמת גן",ביאליק 54,6127-683-15,דירה בבית קומות,2.0,שמינית,50.0,850000,,,1960.0,,7.0,3248581740,1,6127683,False,,רמת גן,ביאליק,,6127-683-15,6127/683,17000.0,32.0845444529,34.8137006321,2011
2011-12-18,2011-12-18,"יהל""ם (יהודה לייב מוצקין) 5, רמת גן","יהל""ם (יהודה לייב מוצקין) 5",6125-654-4,דירה בבית קומות,3.0,שניה,65.0,1435000,,,1965.0,,3.0,3227108400,1,6125654,False,,רמת גן,"יהל""ם",,6125-654-4,6125/654,22076.92307692308,32.0852371371,34.8189559303,2011
2011-12-18,2011-12-18,"הראשונים 17, רמת גן",הראשונים 17,6128-558-12,דירה בבית קומות,2.0,שניה,48.0,1180000,,,1950.0,,3.0,3227257489,1,6128558,False,,רמת גן,הראשונים,,6128-558-12,6128/558,24583.33333333333,32.0801179594,34.8040229172,2011
2011-12-15,2011-12-15,"נורדאו 1, רמת גן",נורדאו 1,6127-184-36,דירה בבית קומות,4.0,שניה,75.75,1200000,,,1960.0,,3.0,3248268337,1,6127184,False,,רמת גן,נורדאו,,6127-184-36,6127/184,15841.584158415842,32.0844557518,34.8127241127,2011
2011-12-15,2011-12-15,"החי""ל 13, רמת גן","החי""ל 13",6145-757-10,דירה בבית קומות,3.0,חמישית,80.11,1500000,,,2011.0,,6.0,3248032712,1,6145757,False,,רמת גן,"החי""ל",,6145-757-10,6145/757,18724.254150543,32.0675290545,34.823186149,2011
2011-12-15,2011-12-15,"ביאליק 107, רמת גן",ביאליק 107,6207-661-4,דירה בבית קומות,3.0,ראשונה,59.88,1150000,,,1970.0,,5.0,3248114811,1,6207661,False,,רמת גן,ביאליק,,6207-661-4,6207/661,19205.07682030728,32.0877426936,34.8053767795,2011
2011-12-15,2011-12-15,"קריניצי 44, רמת גן",קריניצי 44,6126-427-20,דירה בבית קומות,3.0,חמישית,50.0,1400000,,,2004.0,,7.0,3227143606,1,6126427,False,77% ב 8.2 שנים,רמת גן,קריניצי,9.39,6126-427-20,6126/427,28000.0,32.0812029303,34.8189762465,2011
2011-12-15,2011-12-15,"בעל שם-טוב 12, רמת גן",בעל שם-טוב 12,6145-364-5,דירה בבית קומות,4.0,שלישית+גג,88.81,1920000,,,1982.0,,3.0,3227240263,1,6145364,False,,רמת גן,בעל שם טוב,,6145-364-5,6145/364,21619.187028487784,32.0646040546,34.822065459,2011
2011-12-14,2011-12-14,"כינרת 3, רמת גן",כינרת 3,6180-20-6,חנות,,קרקע,,132000,,,1950.0,,2.0,3227142156,1,618020,False,,רמת גן,כנרת,,6180-20-6,6180/20,,32.0605039781,34.8293397177,2011
2011-12-14,2011-12-14,"יהושפט 15, רמת גן",יהושפט 15,6142-184-3,דירה בבית קומות,2.0,"שניה, שלישית",50.0,1000000,,,1950.0,,3.0,3227054808,1,6142184,False,,רמת גן,יהושפט,,6142-184-3,6142/184,20000.0,32.0503497731,34.8208735052,2011
2011-12-13,2011-12-13,"ארלוזורוב 39, רמת גן",ארלוזורוב 39,6127-335-13,דירה בבית קומות,2.0,שניה,49.8,970000,,,1956.0,,2.0,3227050516,1,6127335,False,,רמת גן,ארלוזורוב,,6127-335-13,6127/335,19477.911646586348,32.080843202,34.8101365844,2011
2011-12-13,2011-12-13,"הרצל 59, רמת גן",הרצל 59,6127-780-19,דירה בבית קומות,4.0,שלישית,81.0,1265000,,,1960.0,,4.0,3227088361,1,6127780,False,,רמת גן,הרצל,,6127-780-19,6127/780,15617.283950617284,32.0850041411,34.8149213253,2011
2011-12-12,2011-12-12,"שילה 14, רמת גן",שילה 14,6126-68-15,דירה בבית קומות,2.0,שניה,50.0,900000,,,1948.0,,4.0,3226991646,1,612668,False,,רמת גן,שילה,,6126-68-15,6126/68,18000.0,32.0816559351,34.8153194595,2011
2011-12-12,2011-12-12,"אבא הלל 2, רמת גן",אבא הלל 2,6109-451-120,דירה בבית קומות,1.0,,45.0,1064000,,,2001.0,,20.0,3248049938,1,6109451,False,,רמת גן,אבא הלל,,6109-451-120,6109/451,23644.444444444445,32.0836776853,34.8039014161,2011
2011-12-12,2011-12-12,"עוזיאל 81, רמת גן",עוזיאל 81,6145-239-8,דירה בבית קומות,3.0,שניה,63.0,1100000,,,1950.0,,2.0,3227041149,1,6145239,False,,רמת גן,עוזיאל,,6145-239-8,6145/239,17460.31746031746,32.0714771156,34.8229911323,2011
2011-12-11,2011-11-12,"הצבי 1, רמת גן",הצבי 1,6127-659-6,דירה,4.0,,90.0,1750000,1.0,לב ביאליק,2010.0,,6.0,11181261861,1,6127659,False,,רמת גן,הצבי,,6127-659-6,6127/659,19444.444444444445,32.0849217016,34.8119608953,2011
2011-12-09,2011-09-12,"שלם 7, רמת גן",שלם 7,6142-342-21,דירת גג,5.0,שישית+שביעית,106.09,2180000,,,1992.0,,8.0,3225445569,1,6142342,False,,רמת גן,שלם,,6142-342-21,6142/342,20548.590819115845,32.0526239791,34.8145580883,2011
2011-12-09,2011-09-12,"החייל האלמוני 6, רמת גן",החייל האלמוני 6,6125-336-14,דירה בבית קומות,2.0,ראשונה,60.0,1250000,,,1954.0,,2.0,3225445337,1,6125336,False,,רמת גן,החייל האלמוני,,6125-336-14,6125/336,20833.33333333333,32.0859169103,34.8169791744,2011
2011-12-08,2011-08-12,"הדודאים 3, רמת גן",הדודאים 3,6176-578-9,דירה בבית קומות,4.0,שלישית,96.0,2150000,,,1965.0,,3.0,3224829522,1,6176578,False,,רמת גן,הדודאים,,6176-578-9,6176/578,22395.83333333333,32.0444060671,34.8365343478,2011
2011-12-06,2011-06-12,"יוסף הגלילי 17, רמת גן",יוסף הגלילי 17,6125-160-47,דירה בבית קומות,3.0,שלישית,70.0,1200000,,,2022.0,,6.0,3223747909,1,6125160,False,,רמת גן,יוסף הגלילי,,6125-160-47,6125/160,17142.85714285714,32.0886830606,34.8190416979,2011
2011-12-06,2011-06-12,"זבוטינסקי 138, רמת גן",זבוטינסקי 138,6125-736-74,משרד,,ראשונה,85.8,880000,,,1990.0,,5.0,3223113911,1,6125736,False,,רמת גן,ז'בוטינסקי,,6125-736-74,6125/736,10256.410256410256,32.0903773643,34.822168201,2011
2011-12-06,2011-06-12,"פרוג שמעון 1, רמת גן",פרוג שמעון 1,6127-473-2,דירה בבית קומות,3.0,ראשונה,66.0,1250000,,,1991.0,,3.0,3223149523,1,6127473,False,,רמת גן,פרוג שמעון,,6127-473-2,6127/473,18939.39393939394,32.080530684,34.8120776374,2011
2011-12-05,2011-05-12,"קריניצי 111, רמת גן",קריניצי 111,6125-663-5,דירה בבית קומות,2.5,ראשונה,52.38,1065000,,,1960.0,,3.0,3222625029,1,6125663,False,,רמת גן,קריניצי,,6125-663-5,6125/663,20332.187857961053,32.0889570722,34.820043661,2011
2011-12-05,2011-05-12,"קריניצי 67, רמת גן",קריניצי 67,6125-326-17,דירה בבית קומות,2.5,ראשונה,50.0,1550000,,,1960.0,,3.0,3223284228,1,6125326,False,134% ב 2.6 שנים,רמת גן,קריניצי,51.54,6125-326-17,6125/326,31000.0,32.0848280725,34.8192676484,2011
2011-12-05,2011-05-12,"פנחס 77, רמת גן",פנחס 77,6182-512-19,דירה בבית קומות,5.0,שישית,116.05,2000000,,,1997.0,,10.0,3222433890,1,6182512,False,,רמת גן,פנחס,,6182-512-19,6182/512,17233.950883239984,32.063744159,34.8301084811,2011
2011-12-05,2011-05-12,"זבוטינסקי 112, רמת גן",זבוטינסקי 112,6125-723-55,דירה בבית קומות,4.0,שלוש עשרה,84.99,1362000,,,1970.0,,14.0,3222437283,1,6125723,False,,רמת גן,ז'בוטינסקי,,6125-723-55,6125/723,16025.414754677022,32.0890460481,34.8182702741,2011
2011-12-05,2011-05-12,"שושנים 13, רמת גן",שושנים 13,6203-84-3,דירה בבית קומות,3.0,,60.0,1450000,,,1950.0,,1.0,3222776293,1,620384,False,,רמת גן,שושנים,,6203-84-3,6203/84,24166.666666666668,32.092461496,34.8150546104,2011
2011-12-04,2011-04-12,"החילזון 5, רמת גן",החילזון 5,6109-379-2,משרד,,שביעית,573.0,7601000,,,2011.0,,10.0,3221874335,1,6109379,False,,רמת גן,החילזון,,6109-379-2,6109/379,13265.270506108203,32.0871200858,34.8046881323,2011
2011-12-04,2011-04-12,"חיבת ציון 42, רמת גן",חיבת ציון 42,6158-18-62,דירה בבית קומות,2.5,ראשונה,52.0,1060000,,,1950.0,,3.0,3221864562,1,615818,False,77% ב 10.4 שנים,רמת גן,חיבת ציון,7.4,6158-18-62,6158/18,20384.615384615383,32.07909683,34.8243503547,2011
2011-12-04,2011-04-12,"נגבה 16, רמת גן",נגבה 16,6145-911-15,דירה בבית קומות,2.0,ראשונה,43.5,975000,,,1950.0,,3.0,3222358084,1,6145911,False,39% ב 1.9 שנים,רמת גן,נגבה,20.53,6145-911-15,6145/911,22413.793103448275,32.0700962878,34.8244938215,2011
2011-12-04,2011-04-12,"האחים בז'רנו 12, רמת גן",האחים בז'רנו 12,6207-519-1,דירה בבית קומות,2.0,ראשונה,59.0,1200000,,,1970.0,,3.0,3221926245,1,6207519,False,,רמת גן,האחים בז'רנו,,6207-519-1,6207/519,20338.98305084746,32.0878684492,34.8046463033,2011
2011-12-04,2011-04-12,"הרכסים 5, רמת גן",הרכסים 5,6158-1611-18,דירה בבית קומות,3.0,רביעית,54.0,1440000,,,2009.0,,6.0,3222074783,1,61581611,False,,רמת גן,הרכסים,,6158-1611-18,6158/1611,26666.666666666668,32.0732651964,34.8190678356,2011
2011-12-04,2011-04-12,"לביא 17, רמת גן",לביא 17,6158-375-7,דירה בבית קומות,3.0,רביעית,67.0,1425000,,,2011.0,,5.0,3221878859,1,6158375,False,0% ב 0.3 שנים,רמת גן,לביא,0.0,6158-375-7,6158/375,21268.65671641791,32.0783266418,34.8208178097,2011
2011-12-03,2011-03-12,"החשמונאים 28, רמת גן",החשמונאים 28,6128-111-4,דירה,2.0,שלישית,55.0,900000,1.0,חשמונאים,,,4.0,11181261896,1,6128111,False,,רמת גן,החשמונאים,,6128-111-4,6128/111,16363.636363636364,32.0809582561,34.8091495464,2011
2011-12-02,2011-02-12,"יד שלום 55, רמת גן",יד שלום 55,6157-643-2,דירה,3.0,שלישית,64.0,1250000,1.0,עוזיאל 70,2012.0,,4.0,11181264000,1,6157643,False,,רמת גן,יד שלום,,6157-643-2,6157/643,19531.25,32.0726202743,34.822983407,2011
2011-12-01,2011-01-12,"חברון 6, רמת גן",חברון 6,6158-593-3,דירה בבית קומות,4.0,קומה ‎2‏,93.66,1680000,,,2009.0,,6.0,3219882557,1,6158593,False,13% ב 1.2 שנים,רמת גן,חברון,10.83,6158-593-3,6158/593,17937.219730941706,32.0740874487,34.8241696274,2011
2011-12-01,2011-01-12,"לאן 2, רמת גן",לאן 2,6128-808-3,חנות,,קרקע,30.5,390000,,,1970.0,,5.0,3220753195,1,6128808,False,,רמת גן,לאן,,6128-808-3,6128/808,12786.88524590164,32.0836518262,34.8077260617,2011
2011-12-01,2011-01-12,"תרע""ד 2, רמת גן","תרע""ד 2",6128-135-8,דירה בבית קומות,2.0,שניה,52.0,1050000,,,1950.0,,3.0,3219460027,1,6128135,False,,רמת גן,"תרע""ד",,6128-135-8,6128/135,20192.30769230769,32.0790733399,34.8015264014,2011
2011-12-01,2011-01-12,"חירות 7, רמת גן",חירות 7,6205-463-12,דירה בבית קומות,2.5,שניה,60.0,1075000,,,1950.0,,2.0,3219508631,1,6205463,False,62% ב 4.5 שנים,רמת גן,חרות,13.78,6205-463-12,6205/463,17916.666666666668,32.0900181771,34.8113114908,2011
2011-12-01,2011-01-12,"הילד 15, רמת גן",הילד 15,6127-382-8,דירה בבית קומות,4.0,שניה,86.5,1650000,,,1970.0,,4.0,3219491173,1,6127382,False,,רמת גן,הילד,,6127-382-8,6127/382,19075.14450867052,32.0847308188,34.814560556,2011
2011-12-01,2011-01-12,,,6204-633-1,תעשיה,,,154.0,3300000,,,1945.0,,,3220355112,2,6204633,False,,רמת גן,בן גוריון דוד,,6204-633-1,6204/633,21428.571428571428,32.0943328689,34.8217111791,2011
2011-11-30,2011-11-30,"נתן 2, רמת גן",נתן 2,6126-479-111,דירה בבית קומות,1.0,רביעית,28.0,643000,,,1950.0,,6.0,3226879938,1,6126479,False,,רמת גן,נתן,,6126-479-111,6126/479,22964.285714285717,32.0835630753,34.8173652774,2011
2011-11-30,2011-11-30,"חורגין 52, רמת גן",חורגין 52,6158-771-16,דירה בבית קומות,2.5,ראשונה,60.0,1275000,,,2020.0,,5.0,3226882809,1,6158771,False,,רמת גן,חורגין,,6158-771-16,6158/771,21250.0,32.0732680469,34.8245520201,2011
2011-11-30,2011-11-30,"מצפה 5, רמת גן",מצפה 5,6128-243-1,דירה בבית קומות,2.0,שלישית,60.0,1130000,,,2023.0,,5.0,3226752860,1,6128243,False,,רמת גן,מצפה,,6128-243-1,6128/243,18833.33333333333,32.0821958445,34.8071585359,2011
2011-11-30,2011-11-30,"סוקולוב 2, רמת גן",סוקולוב 2,6204-660-71,דירה בבית קומות,4.0,שמונה עשרה,90.56,1856000,,,2008.0,,25.0,3248159761,1,6204660,False,,רמת גן,סוקולוב,,6204-660-71,6204/660,20494.69964664311,32.0908920657,34.8207160633,2011
2011-11-30,2011-11-30,"ירושלים 58, רמת גן",ירושלים 58,6158-782-11,דירה בבית קומות,2.0,שלישית,28.0,775000,,,1950.0,,3.0,3226738998,1,6158782,True,-39% ב 10 שנים,רמת גן,ירושלים,-3.9,6158-782-11,6158/782,27678.571428571428,32.0743489234,34.8260417969,2011
2011-11-30,2011-11-30,"הרכסים 39, רמת גן",הרכסים 39,6158-1528-19,דירה בבית קומות,4.5,שישית+גג,101.37,1550000,,,1980.0,,7.0,3226791894,1,61581528,False,,רמת גן,הרכסים,,6158-1528-19,6158/1528,15290.51987767584,32.0731207769,34.8228767231,2011
2011-11-29,2011-11-29,"עזריאל 12, רמת גן",עזריאל 12,6142-374-7,דירה בבית קומות,5.0,שניה+שלישית,95.81,1650000,,,1989.0,,2.0,3226771797,1,6142374,False,,רמת גן,עזריאל,,6142-374-7,6142/374,17221.58438576349,32.0504393963,34.818127256,2011
2011-11-29,2011-11-29,"ז'בוטינסקי 35, רמת גן",ז'בוטינסקי 35,6109-327-37,משרד,,שניה,111.22,1490000,,,1994.0,,16.0,3226829217,1,6109327,False,6% ב 3 שנים,רמת גן,ז'בוטינסקי,2.0,6109-327-37,6109/327,13396.871066354972,32.0839977342,34.806704565,2011
2011-11-29,2011-11-29,"החיצון 3, רמת גן",החיצון 3,6128-396-40,דירה בבית קומות,2.5,ראשונה,44.0,1220000,,,2022.0,,5.0,3226739752,1,6128396,False,,רמת גן,החיצון,,6128-396-40,6128/396,27727.272727272728,32.0804352482,34.8069958233,2011
2011-11-29,2011-11-29,"בן-צבי 13, רמת גן",בן-צבי 13,6180-553-1,קוטג' טורי,5.0,,176.0,4000000,,,1973.0,,2.0,3227121334,1,6180553,False,,רמת גן,בן צבי,,6180-553-1,6180/553,22727.272727272728,32.0579974719,34.8281680793,2011
2011-11-29,2011-11-29,"ביאליק 60, רמת גן",ביאליק 60,6127-664-6,דירה בבית קומות,1.0,רביעית,48.0,220000,,,1950.0,,5.0,3226930398,1,6127664,False,,רמת גן,ביאליק,,6127-664-6,6127/664,4583.333333333333,32.08483479,34.813101792,2011
2011-11-29,2011-11-29,"עציון 6, רמת גן",עציון 6,6158-188-3,קוטג' חד משפחתי,2.0,,50.0,680002,,,1950.0,,2.0,3227120116,1,6158188,False,,רמת גן,עציון,,6158-188-3,6158/188,13600.04,,,2011
2011-11-28,2011-11-28,"תרצה 9, רמת גן",תרצה 9,6186-216-7,דירה בבית קומות,3.0,שלישית,75.0,1165000,,,1950.0,,3.0,3227115853,1,6186216,False,,רמת גן,תרצה,,6186-216-7,6186/216,15533.333333333334,32.0743091262,34.8284062912,2011
2011-11-28,2011-11-28,"הרא""ה 90, רמת גן","הרא""ה 90",6159-442-8,דירה בבית קומות,2.5,ראשונה,70.0,1080000,,,1950.0,,15.0,3226848125,1,6159442,False,,רמת גן,"הרא""ה",,6159-442-8,6159/442,15428.57142857143,32.0807439799,34.8253068445,2011
2011-11-28,2011-11-28,"החייל האלמוני 2, רמת גן",החייל האלמוני 2,6125-144-5,דירה בבית קומות,2.0,שלישית,55.0,1100000,,,1950.0,,3.0,3226729196,1,6125144,False,,רמת גן,החייל האלמוני,,6125-144-5,6125/144,20000.0,32.0864076498,34.8171044765,2011
2011-11-28,2011-11-28,"חיים לנדאו 7, רמת גן",חיים לנדאו 7,6186-658-2,דירה בבית קומות,5.0,ראשונה,120.78,2250000,,,1999.0,,25.0,3226805292,1,6186658,False,,רמת גן,לנדאו חיים,,6186-658-2,6186/658,18628.912071535025,32.0715560105,34.8282376172,2011
2011-11-28,2011-11-28,"רמז 3, רמת גן",רמז 3,6157-296-3,דירה בבית קומות,5.5,ראשונה,165.0,2550000,,,1950.0,,2.0,3226673458,1,6157296,False,,רמת גן,רמז,,6157-296-3,6157/296,15454.545454545454,32.0695926545,34.8194664883,2011
2011-11-28,2011-11-28,"ז'בוטינסקי 35, רמת גן",ז'בוטינסקי 35,6109-327-195,משרד,,שביעית,130.8,1764000,,,1994.0,,16.0,3227323261,1,6109327,False,245% ב 12.4 שנים,רמת גן,ז'בוטינסקי,19.76,6109-327-195,6109/327,13486.23853211009,32.0839977342,34.806704565,2011
2011-11-28,2011-11-28,"אבא הלל 7, רמת גן",אבא הלל 7,6109-415-153,משרד,,שש עשרה,189.16,2101000,,,1990.0,,16.0,3248197780,1,6109415,False,,רמת גן,אבא הלל,,6109-415-153,6109/415,11106.99936561641,32.084488895,34.8029153926,2011
2011-11-27,2011-11-27,"דב 7, רמת גן",דב 7,6128-470-5,דירה בבית קומות,2.0,שניה,53.0,1400000,,,1960.0,,4.0,3227040453,1,6128470,False,29% ב 0.2 שנים,רמת גן,דב,145.0,6128-470-5,6128/470,26415.094339622643,32.0815268521,34.8019433467,2011
2011-11-27,2011-11-27,"שרה אהרונסון 46, רמת גן",שרה אהרונסון 46,6180-429-8,דירה בבית קומות,3.0,רביעית,77.0,1200000,1.0,שרה אהרונסון,1960.0,,3.0,3226908184,1,6180429,False,,רמת גן,אהרונסון שרה,,6180-429-8,6180/429,15584.415584415585,32.0606195708,34.8269957858,2011
2011-11-27,2011-11-27,"אבא הלל 63, רמת גן",אבא הלל 63,6206-28-13,דירה בבית קומות,2.0,שניה,52.0,800000,,,1950.0,,2.0,3226693990,1,620628,False,,רמת גן,אבא הלל,,6206-28-13,6206/28,15384.615384615385,32.0895623786,34.8090124838,2011
2011-11-26,2011-11-26,"הרב לוין 10, רמת גן",הרב לוין 10,6183-74-5,דירה בבית קומות,3.5,שניה,69.13,1230000,,,1980.0,,4.0,3226991878,1,618374,False,,רמת גן,הרב לוין,,6183-74-5,6183/74,17792.56473311153,32.0701682302,34.8340095101,2011
2011-11-24,2011-11-24,"המקור 1, רמת גן",המקור 1,6204-218-9,דירה בבית קומות,2.0,ראשונה,50.0,1100000,,,1950.0,,3.0,3226609310,1,6204218,False,,רמת גן,המקור,,6204-218-9,6204/218,22000.0,32.0914734196,34.8172084195,2011
2011-11-24,2011-11-24,"אריה בן-אליעזר 8, רמת גן",אריה בן-אליעזר 8,6186-122-12,דירה בבית קומות,3.0,ראשונה,80.5,1280000,,,1966.0,,4.0,3226637556,1,6186122,False,,רמת גן,בן אליעזר אריה,,6186-122-12,6186/122,15900.621118012425,32.0690209706,34.8323804553,2011
2011-11-24,2011-11-24,"רוקח 16, רמת גן",רוקח 16,6205-45-1,דירה בבית קומות,4.0,ראשונה,73.14,1680000,,,1994.0,,4.0,3226760777,1,620545,False,52% ב 9.2 שנים,רמת גן,רוקח,5.65,6205-45-1,6205/45,22969.64725184577,32.0881665971,34.810955681,2011
2011-11-24,2011-11-24,"קריניצי 19, רמת גן",קריניצי 19,6126-227-5,דירה בבית קומות,1.5,ראשונה,40.5,863000,,,1940.0,,2.0,3226923235,1,6126227,False,,רמת גן,קריניצי,,6126-227-5,6126/227,21308.64197530864,32.0801019181,34.8170638735,2011
2011-11-24,2011-11-24,"רוקח 84, רמת גן",רוקח 84,6210-26-3,דירת גג,5.0,חמישית,210.0,4050000,1.0,רוקח על הפארק,1960.0,2011.0,2.0,3226711274,1,621026,False,,רמת גן,רוקח,,6210-26-3,6210/26,19285.714285714286,32.0948027695,34.809704031,2011
2011-11-24,2011-11-24,"חורגין 52, רמת גן",חורגין 52,6158-771-17,דירה בבית קומות,2.5,ראשונה,60.0,1315000,,,2020.0,,5.0,3226592142,1,6158771,False,,רמת גן,חורגין,,6158-771-17,6158/771,21916.666666666668,32.0732680469,34.8245520201,2011
2011-11-24,2011-11-24,"אהוד 14, רמת גן",אהוד 14,6145-834-1,דירה בבית קומות,3.0,ראשונה,56.26,1280000,,,1970.0,,3.0,3226090877,1,6145834,False,,רמת גן,אהוד,,6145-834-1,6145/834,22751.510842516887,32.0719573719,34.8244474665,2011
2011-11-24,2011-11-24,"גרשום 2, רמת גן",גרשום 2,6186-332-15,דירה בבית קומות,4.0,רביעית,109.0,1400000,1.0,מרום הירדן,2011.0,,1.0,3226604322,1,6186332,False,,רמת גן,גרשום,,6186-332-15,6186/332,12844.036697247706,32.0689271525,34.8288368012,2011
2011-11-23,2011-11-23,"האש""ל 1, רמת גן","האש""ל 1",6126-465-11,דירה בבית קומות,2.5,שניה,55.0,1180000,,,1950.0,,3.0,3226585646,1,6126465,False,34% ב 0.5 שנים,רמת גן,האשל,68.0,6126-465-11,6126/465,21454.545454545456,32.0837749312,34.8186911352,2011
2011-11-23,2011-11-23,"פומבדיתא 4, רמת גן",פומבדיתא 4,6183-108-1,דירה בבית קומות,1.0,ראשונה,24.8,720000,,,1950.0,,2.0,3248168838,1,6183108,False,56% ב 3.9 שנים,רמת גן,פומבדיתא,14.36,6183-108-1,6183/108,29032.25806451613,32.0694808214,34.8357141662,2011
2011-11-23,2011-11-23,"ז'בוטינסקי 73, רמת גן",ז'בוטינסקי 73,6205-520-9,חנות,,שניה,24.0,499000,,,1960.0,,4.0,3226800507,1,6205520,False,,רמת גן,ז'בוטינסקי,,6205-520-9,6205/520,20791.666666666668,32.0871723864,34.8122227124,2011
2011-11-23,2011-11-23,"הסנה 14, רמת גן",הסנה 14,6158-314-4,דירה בבית קומות,4.0,קומה ‎2‏,64.17,1522000,,,2010.0,,7.0,3226597130,1,6158314,False,,רמת גן,הסנה,,6158-314-4,6158/314,23718.24840268038,32.0756311748,34.8243223092,2011
2011-11-23,2011-11-23,"הירדן 78, רמת גן",הירדן 78,6181-389-5,דירה בבית קומות,3.0,שניה,63.31,1160000,,,1970.0,,3.0,3226580600,1,6181389,False,,רמת גן,הירדן,,6181-389-5,6181/389,18322.53988311483,32.0628124435,34.8281466899,2011
2011-11-23,2011-11-23,"תרע""ד 26, רמת גן","תרע""ד 26",6128-678-6,דירה בבית קומות,3.0,שניה,96.0,1425000,,,1968.0,,3.0,3226698804,1,6128678,True,-1% ב 2 שנים,רמת גן,"תרע""ד",-0.5,6128-678-6,6128/678,14843.75,32.0792891824,34.804395617,2011
2011-11-23,2011-11-23,"יהושפט 16, רמת גן",יהושפט 16,6142-171-7,דירה בבית קומות,2.0,שניה,38.0,1000000,,,1950.0,,2.0,3226635903,1,6142171,False,99% ב 5.4 שנים,רמת גן,יהושפט,18.33,6142-171-7,6142/171,26315.78947368421,32.0497248391,34.8205350129,2011
2011-11-23,2011-11-23,"קריניצי 69, רמת גן",קריניצי 69,6125-100-13,דירה בבית קומות,3.0,שניה,72.0,1330000,,,1950.0,,3.0,3226583007,1,6125100,False,,רמת גן,קריניצי,,6125-100-13,6125/100,18472.222222222223,32.0850063524,34.8192674912,2011
2011-11-23,2011-11-23,"רוקח 35, רמת גן",רוקח 35,6205-122-9,דירה בבית קומות,2.0,שניה,58.0,1097000,,,1954.0,,2.0,3248161414,1,6205122,False,91% ב 13.1 שנים,רמת גן,רוקח,6.95,6205-122-9,6205/122,18913.793103448275,32.0893386907,34.809896926,2011
2011-11-22,2011-11-22,"תש""י 15, רמת גן","תש""י 15",6128-547-9,דירה בבית קומות,2.5,שניה,54.0,1300000,,,1960.0,,2.0,3226713159,1,6128547,False,,רמת גן,"תש""י",,6128-547-9,6128/547,24074.074074074077,32.0799638839,34.8046772072,2011
2011-11-22,2011-11-22,"הרב חבה אליה 15, רמת גן",הרב חבה אליה 15,6127-598-15,דירה בבית קומות,2.0,שניה,68.0,1100000,,,1960.0,,2.0,3248328425,1,6127598,False,76% ב 5 שנים,רמת גן,הרב חבה אליהו,15.2,6127-598-15,6127/598,16176.470588235294,32.0798590428,34.8104973142,2011
2011-11-22,2011-11-22,"בית אל 9, רמת גן",בית אל 9,6128-192-10,דירה בבית קומות,2.5,ראשונה,65.0,1050000,,,1950.0,,3.0,3227306499,1,6128192,False,,רמת גן,בית אל,,6128-192-10,6128/192,16153.846153846154,32.081704393,34.8091105495,2011
2011-11-22,2011-11-22,"באר אורה 3, רמת גן",באר אורה 3,6182-446-6,דירה בבית קומות,3.0,שניה,72.0,1240000,,,2021.0,,3.0,3227063160,1,6182446,False,88% ב 11.3 שנים,רמת גן,באר אורה,7.79,6182-446-6,6182/446,17222.222222222223,32.0659227501,34.8308761766,2011
2011-11-22,2011-11-22,"התיכון 10, רמת גן",התיכון 10,6145-1105-4,דירה בבית קומות,4.0,שניה,89.92,1557000,,,2010.0,,7.0,3226858159,1,61451105,False,,רמת גן,התיכון,,6145-1105-4,6145/1105,17315.391459074734,32.0724015795,34.8244672746,2011
2011-11-22,2011-11-22,"תל חי 31, רמת גן",תל חי 31,6182-68-3,דירה בבית קומות,2.0,ראשונה,43.0,102000,,,1960.0,,3.0,3226624187,1,618268,False,,רמת גן,תל חי,,6182-68-3,6182/68,2372.093023255814,32.0664392623,34.8278631123,2011
2011-11-22,2011-11-22,"ז'בוטינסקי 79, רמת גן",ז'בוטינסקי 79,6205-518-3,חנות,,,,600000,,,1950.0,,3.0,3226977291,1,6205518,False,,רמת גן,ז'בוטינסקי,,6205-518-3,6205/518,,32.0875267154,34.8127765115,2011
2011-11-21,2011-11-21,"משה דיין 38, רמת גן",משה דיין 38,6181-228-7,דירה בבית קומות,2.5,ראשונה,53.0,1115000,,,1965.0,,3.0,3226712492,1,6181228,False,,רמת גן,דיין משה,,6181-228-7,6181/228,21037.735849056604,32.0613422109,34.8269495359,2011
2011-11-21,2011-11-21,"ברוריה 2, רמת גן",ברוריה 2,6207-693-6,דירה בבית קומות,3.0,שניה,50.52,1325000,,,1970.0,,4.0,3226773682,1,6207693,False,,רמת גן,ברוריה,,6207-693-6,6207/693,26227.23673792557,32.0892269288,34.8030033249,2011
2011-11-20,2011-11-20,"קריניצי 4, רמת גן",קריניצי 4,6126-341-8,דירה בבית קומות,3.0,שלישית,75.0,850000,,,1955.0,,4.0,3226430090,1,6126341,False,,רמת גן,קריניצי,,6126-341-8,6126/341,11333.333333333334,32.0789456593,34.8153878087,2011
2011-11-20,2011-11-20,"עוזיאל 67, רמת גן",עוזיאל 67,6158-819-10,קוטג' חד משפחתי,2.0,שניה,55.0,1010000,,,1950.0,,3.0,3226607425,1,6158819,False,86% ב 12.1 שנים,רמת גן,עוזיאל,7.11,6158-819-10,6158/819,18363.636363636364,32.0730850322,34.8234830537,2011
2011-11-20,2011-11-20,"רוחמה 13, רמת גן",רוחמה 13,6157-50-1,דירה בבית קומות,4.0,ראשונה,68.9,2100000,,,1950.0,,2.0,3226738766,1,615750,False,44% ב 3.5 שנים,רמת גן,רוחמה,12.57,6157-50-1,6157/50,30478.955007256893,32.0721893236,34.8194101379,2011
2011-11-20,2011-11-20,"תל חי 45, רמת גן",תל חי 45,6182-96-6,דירה בבית קומות,4.0,שלישית + גג,94.03,1650000,,,1990.0,,3.0,3226923699,1,618296,False,,רמת גן,תל חי,,6182-96-6,6182/96,17547.59119429969,32.0648774492,34.8270866891,2011
2011-11-20,2011-11-20,"חיבת ציון 23, רמת גן",חיבת ציון 23,6159-310-3,דירה בבית קומות,2.0,,50.0,800000,,,1950.0,,1.0,3226590721,1,6159310,False,,רמת גן,חיבת ציון,,6159-310-3,6159/310,16000.0,32.0795370303,34.822827639,2011
2011-11-17,2011-11-17,"סוקולוב 6, רמת גן",סוקולוב 6,6204-222-11,דירה בבית קומות,2.5,ראשונה,52.5,1150000,,,1970.0,,3.0,3226532750,1,6204222,False,,רמת גן,סוקולוב,,6204-222-11,6204/222,21904.761904761905,32.0912604384,34.8207355772,2011
2011-11-17,2011-11-17,"מוצא 11, רמת גן",מוצא 11,6158-797-8,דירה בבית קומות,4.0,רביעית,89.58,1940000,,,1960.0,,6.0,3226749757,1,6158797,False,,רמת גן,מוצא,,6158-797-8,6158/797,21656.61978120116,32.073705924,34.8268800116,2011
2011-11-17,2011-11-17,"תלפיות 38, רמת גן",תלפיות 38,6205-619-13,דירה בבית קומות,3.0,שניה,57.5,1015000,,,1960.0,,4.0,3226477969,1,6205619,False,,רמת גן,תלפיות,,6205-619-13,6205/619,17652.17391304348,32.0864359267,34.8107528884,2011
2011-11-17,2011-11-17,"רד""ק 12, רמת גן","רד""ק 12",6159-350-14,דירה בבית קומות,2.0,שניה,59.0,1080000,,,1950.0,,3.0,3226466949,1,6159350,False,,רמת גן,"רד""ק",,6159-350-14,6159/350,18305.084745762717,32.0838631259,34.8241106331,2011
2011-11-16,2011-11-16,"ירושלים 18, רמת גן",ירושלים 18,6158-1273-11,דירה בבית קומות,3.0,שלישית,56.0,700000,,,1960.0,,4.0,3226489917,1,61581273,False,,רמת גן,ירושלים,,6158-1273-11,6158/1273,12500.0,32.0744861722,34.8205666496,2011
2011-11-16,2011-11-16,"נגבה 40, רמת גן",נגבה 40,6186-190-9,דירה בבית קומות,2.0,שניה,46.5,800000,,,1960.0,,3.0,3227019399,1,6186190,False,,רמת גן,נגבה,,6186-190-9,6186/190,17204.301075268817,32.0699897063,34.8278756866,2011
2011-11-15,2011-11-15,"יוסף ספיר 3, רמת גן",יוסף ספיר 3,6236-147-4,דירה בבית קומות,4.0,ראשונה,119.97,1300000,,,1970.0,,7.0,3226373656,1,6236147,False,,רמת גן,ספיר יוסף,,6236-147-4,6236/147,10836.042343919313,32.0567197966,34.8495182984,2011
2011-11-15,2011-11-15,"לאן 3, רמת גן",לאן 3,6128-91-5,דירה בבית קומות,4.0,שניה,90.56,1640000,,,1965.0,,4.0,3226662670,1,612891,False,,רמת גן,לאן,,6128-91-5,6128/91,18109.5406360424,32.0835057754,34.8083194985,2011
2011-11-15,2011-11-15,"יוסף ספיר 3, רמת גן",יוסף ספיר 3,6236-147-4,דירה בבית קומות,4.0,ראשונה,119.97,1300000,,,1970.0,,7.0,3226373656,1,6236147,False,,רמת גן,ספיר,,6236-147-4,6236/147,10836.042343919313,32.0567197966,34.8495182984,2011
2011-11-14,2011-11-14,"ביאליק 108, רמת גן",ביאליק 108,6205-421-31,דירה בבית קומות,2.0,קרקע,56.0,950000,,,1950.0,,2.0,3226385894,1,6205421,False,,רמת גן,ביאליק,,6205-421-31,6205/421,16964.285714285714,32.0872380017,34.8073641998,2011
2011-11-14,2011-11-14,"שלום עליכם 22, רמת גן",שלום עליכם 22,6142-207-8,דירה בבית קומות,2.0,שניה,38.0,200000,,,1950.0,,2.0,3226434150,1,6142207,False,,רמת גן,שלום עליכם,,6142-207-8,6142/207,5263.1578947368425,32.0518946456,34.8184788316,2011
2011-11-14,2011-11-14,"חביבה רייק 3, רמת גן",חביבה רייק 3,6207-469-11,דירה בבית קומות,2.5,שלישית,55.0,1200000,,,1960.0,,3.0,3226422521,1,6207469,False,,רמת גן,רייק חביבה,,6207-469-11,6207/469,21818.18181818182,32.0903326093,34.8040739555,2011
2011-11-14,2011-11-14,"מנחם יצחק 4, רמת גן",מנחם יצחק 4,6204-149-5,דירה בבית קומות,4.0,שניה,95.99,1850000,,,1960.0,,2.0,3226979408,1,6204149,False,34% ב 3.9 שנים,רמת גן,מנחם יצחק,8.72,6204-149-5,6204/149,19272.840920929262,32.0906654079,34.8182886919,2011
2011-11-14,2011-11-14,"מנחם יצחק 4, רמת גן",מנחם יצחק 4,6204-149-5,דירה בבית קומות,4.0,שניה,95.99,1850000,,,1960.0,,2.0,3226979408,1,6204149,False,34% ב 3.9 שנים,רמת גן,מנחם,8.72,6204-149-5,6204/149,19272.840920929262,32.0906654079,34.8182886919,2011
2011-11-14,2011-11-14,"התמרים 12, רמת גן",התמרים 12,6125-289-7,דירה בבית קומות,5.0,חמישית,150.0,2100000,1.0,שדרות התמרים,1960.0,2014.0,2.0,3248105705,1,6125289,False,,רמת גן,התמרים,,6125-289-7,6125/289,14000.0,32.0893314766,34.821284329,2011
2011-11-14,2011-11-14,"מנחם יצחק 4, רמת גן",מנחם יצחק 4,6204-149-4,דירה בבית קומות,4.0,ראשונה,80.84,1360000,,,1960.0,,2.0,3226979640,1,6204149,False,21% ב 3.9 שנים,רמת גן,מנחם,5.38,6204-149-4,6204/149,16823.35477486393,32.0906654079,34.8182886919,2011
2011-11-14,2011-11-14,"אמנון ותמר 20, רמת גן",אמנון ותמר 20,6145-409-8,דירה בבית קומות,4.0,רביעית,79.95,1710000,,,2007.0,,6.0,3226441632,1,6145409,False,,רמת גן,אמנון ותמר,,6145-409-8,6145/409,21388.367729831145,32.0716505517,34.8267436112,2011
2011-11-14,2011-11-14,"האם 8, רמת גן",האם 8,6180-342-7,דירה בבית קומות,2.0,שניה,40.52,1100000,,,1960.0,,2.0,3226483711,1,6180342,False,,רמת גן,האם,,6180-342-7,6180/342,27147.08785784797,32.0591339361,34.830637079,2011
2011-11-14,2011-11-14,"מנחם יצחק 4, רמת גן",מנחם יצחק 4,6204-149-4,דירה בבית קומות,4.0,ראשונה,80.84,1360000,,,1960.0,,2.0,3226979640,1,6204149,False,21% ב 3.9 שנים,רמת גן,מנחם יצחק,5.38,6204-149-4,6204/149,16823.35477486393,32.0906654079,34.8182886919,2011
2011-11-13,2011-11-13,"התמרים 12, רמת גן",התמרים 12,6125-289-5,דירה בבית קומות,4.0,חמישית,100.0,1700000,1.0,שדרות התמרים,1960.0,2013.0,2.0,3248104719,1,6125289,False,,רמת גן,התמרים,,6125-289-5,6125/289,17000.0,32.0893314766,34.821284329,2011
2011-11-13,2011-11-13,"רש""י 36, רמת גן","רש""י 36",6204-365-10,דירה בבית קומות,3.0,שניה,71.0,1050000,,,1950.0,,3.0,3226387576,1,6204365,False,,רמת גן,"רש""י",,6204-365-10,6204/365,14788.732394366198,32.0932553609,34.8177418335,2011
2011-11-13,2011-11-13,"סוקולוב 2, רמת גן",סוקולוב 2,6204-660-74,דירה בבית קומות,4.0,תשע עשרה,105.35,2080000,,,2008.0,,25.0,3226822518,1,6204660,False,,רמת גן,סוקולוב,,6204-660-74,6204/660,19743.7114380636,32.0908920657,34.8207160633,2011
2011-11-13,2011-11-13,"הצבי 1, רמת גן",הצבי 1,6127-659-9,דירה בבית קומות,4.0,חמישית,80.0,1750000,,,2010.0,,6.0,3226420085,1,6127659,False,,רמת גן,הצבי,,6127-659-9,6127/659,21875.0,32.0849217016,34.8119608953,2011
2011-11-13,2011-11-13,"שקדייה 11, רמת גן",שקדייה 11,6205-669-2,דירה בבית קומות,3.0,ראשונה,67.63,1410000,,,1970.0,,8.0,3226400916,1,6205669,False,,רמת גן,שקדיה,,6205-669-2,6205/669,20848.73576815023,32.0884653668,34.8117774464,2011
2011-11-12,2011-12-11,"עוזיאל 25, רמת גן",עוזיאל 25,6158-281-15,דירה בבית קומות,4.0,שלישית,70.0,930000,,,1960.0,,4.0,3248144449,1,6158281,False,54% ב 13 שנים,רמת גן,עוזיאל,4.15,6158-281-15,6158/281,13285.714285714286,32.0764928207,34.8234257395,2011
2011-11-10,2011-10-11,"רמת חן 40, רמת גן",רמת חן 40,6143-804-4,דירה בבית קומות,4.5,שניה,48.0,2000000,,,1950.0,,2.0,3225952141,1,6143804,False,,רמת גן,רמת חן,,6143-804-4,6143/804,41666.66666666666,32.0543510679,34.8162044589,2011
2011-11-10,2011-10-11,"ירושלים 53, רמת גן",ירושלים 53,6158-955-6,דירה בבית קומות,2.0,שלישית,50.0,900000,,,1950.0,,3.0,3225809055,1,6158955,False,,רמת גן,ירושלים,,6158-955-6,6158/955,18000.0,32.074747165,34.8252285671,2011
2011-11-10,2011-10-11,"חצור 9, רמת גן",חצור 9,6158-1167-9,דירה בבית קומות,2.0,ראשונה,48.8,932000,,,1950.0,,2.0,3225871521,1,61581167,False,,רמת גן,חצור,,6158-1167-9,6158/1167,19098.360655737702,32.0776437172,34.8241400567,2011
2011-11-09,2011-09-11,"הרא""ה 67, רמת גן","הרא""ה 67",6159-362-5,דירה בבית קומות,1.0,ראשונה,27.0,835000,,,1960.0,,3.0,3225302019,1,6159362,False,86% ב 4.1 שנים,רמת גן,"הרא""ה",20.98,6159-362-5,6159/362,30925.925925925927,32.0836252955,34.8240528945,2011
2011-11-09,2011-09-11,"הקונגרס 15, רמת גן",הקונגרס 15,6182-7-2,דירה בבית קומות,3.0,ראשונה,62.0,1360000,,,1970.0,,3.0,3223289506,1,61827,False,,רמת גן,הקונגרס,,6182-7-2,6182/7,21935.483870967742,32.0626329068,34.8260714064,2011
2011-11-08,2011-08-11,"מקדונלד 1, רמת גן",מקדונלד 1,6109-51-1,דירה בבית קומות,2.0,קרקע,56.59,1650000,,,1948.0,,1.0,3224583370,1,610951,False,,רמת גן,מקדונלד,,6109-51-1,6109/51,29157.09489309065,32.0847291003,34.8074816288,2011
2011-11-08,2011-08-11,"הרי הגלעד 4, רמת גן",הרי הגלעד 4,6109-454-200,דירה בבית קומות,4.0,עשרים וחמש,120.0,4578000,,,2007.0,,27.0,3225125699,1,6109454,False,,רמת גן,הרי הגלעד,,6109-454-200,6109/454,38150.0,32.0843493305,34.8046938287,2011
2011-11-08,2011-08-11,"עוזיאל 25, רמת גן",עוזיאל 25,6158-281-8,דירה בבית קומות,1.0,ביניים,39.5,770000,,,1960.0,,4.0,3224858464,1,6158281,False,85% ב 4 שנים,רמת גן,עוזיאל,21.25,6158-281-8,6158/281,19493.67088607595,32.0764928207,34.8234257395,2011
2011-11-08,2011-08-11,"עוזיאל 9, רמת גן",עוזיאל 9,6158-843-6,משרד,,עמודים,23.66,420000,,,1950.0,,2.0,3224922844,1,6158843,False,,רמת גן,עוזיאל,,6158-843-6,6158/843,17751.479289940828,32.0781168615,34.8235240297,2011
2011-11-08,2011-08-11,"הביל""ויים 54, רמת גן","הביל""ויים 54",6180-440-3,דירה בבית קומות,4.0,ראשונה,82.7,1200000,,,1960.0,,4.0,3225069236,1,6180440,False,,רמת גן,הבילויים,,6180-440-3,6180/440,14510.278113663844,32.0597796069,34.827111937,2011
2011-11-08,2011-08-11,"הסנה 12, רמת גן",הסנה 12,6158-1484-4,דירה בבית קומות,3.5,שניה,65.23,1410000,,,1970.0,,3.0,3224643429,1,61581484,False,,רמת גן,הסנה,,6158-1484-4,6158/1484,21615.820941284685,32.0757847962,34.8243208775,2011
2011-11-08,2011-08-11,"מקדונלד 1, רמת גן",מקדונלד 1,6109-51-2,דירה בבית קומות,3.0,קרקע,62.96,1825000,,,1948.0,,1.0,3224582674,1,610951,False,,רמת גן,מקדונלד,,6109-51-2,6109/51,28986.6581956798,32.0847291003,34.8074816288,2011
2011-11-08,2011-08-11,"ז'בוטינסקי 1, רמת גן",ז'בוטינסקי 1,6207-769-93,משרד,,עשרים ושלוש,109.0,2341000,,,1976.0,,23.0,3225204695,1,6207769,False,,רמת גן,ז'בוטינסקי,,6207-769-93,6207/769,21477.064220183485,32.0833649685,34.8003412005,2011
2011-11-08,2011-08-11,"אסף 34, רמת גן",אסף 34,6206-33-23,דירה בבית קומות,2.0,שלישית,36.0,1200000,,,2020.0,,7.0,3224684058,1,620633,False,,רמת גן,אסף,,6206-33-23,6206/33,33333.333333333336,32.0899897634,34.8091823186,2011
2011-11-07,2011-07-11,"חיבת ציון 40, רמת גן",חיבת ציון 40,6158-18-38,דירה בבית קומות,2.0,ראשונה,50.0,1020000,,,1956.0,,2.0,3224215186,1,615818,False,96% ב 12 שנים,רמת גן,חיבת ציון,8.0,6158-18-38,6158/18,20400.0,32.07909683,34.8243503547,2011
2011-11-07,2011-07-11,"אבא הלל 2, רמת גן",אבא הלל 2,6109-451-124,תעשיה,,,,150000,,,2001.0,,20.0,3224486713,1,6109451,False,,רמת גן,אבא הלל,,6109-451-124,6109/451,,32.0836776853,34.8039014161,2011
2011-11-07,2011-07-11,"אמיר 12, רמת גן",אמיר 12,6145-977-11,דירה בבית קומות,4.0,רביעית,93.0,1635000,1.0,אמיר,2011.0,,2.0,3225127642,1,6145977,False,,רמת גן,אמיר,,6145-977-11,6145/977,17580.645161290322,32.0691380059,34.8250654606,2011
2011-11-07,2011-07-11,"סוקולוב 2, רמת גן",סוקולוב 2,6204-660-82,דירה בבית קומות,4.0,עשרים ואחת,105.38,2157000,,,2008.0,,25.0,3223999339,1,6204660,False,,רמת גן,סוקולוב,,6204-660-82,6204/660,20468.779654583414,32.0908920657,34.8207160633,2011
2011-11-07,2011-07-11,"בני הנביאים 11, רמת גן",בני הנביאים 11,6143-928-8,דירה בבית קומות,6.0,שניה,140.0,3100000,,,1950.0,,2.0,3224663033,1,6143928,False,247% ב 8.5 שנים,רמת גן,בני הנביאים,29.06,6143-928-8,6143/928,22142.85714285714,32.0527947729,34.8185988155,2011
2011-11-07,2011-07-11,"אהוד 16, רמת גן",אהוד 16,6145-835-12,דירה בבית קומות,3.0,שניה,52.0,1010000,,,1960.0,,2.0,3223839288,1,6145835,False,,רמת גן,אהוד,,6145-835-12,6145/835,19423.07692307692,32.071945845,34.8246995904,2011
2011-11-05,2011-05-11,"החשמונאים 23, רמת גן",החשמונאים 23,6127-339-7,דירה בבית קומות,2.5,,50.0,1070000,,,1950.0,,3.0,3222646402,1,6127339,False,,רמת גן,החשמונאים,,6127-339-7,6127/339,21400.0,32.081226375,34.8097049514,2011
2011-11-05,2011-05-11,"טרומן 9, רמת גן",טרומן 9,6145-685-4,דירה בבית קומות,2.0,שניה,45.0,965000,,,1950.0,,2.0,3222530373,1,6145685,False,,רמת גן,טרומן,,6145-685-4,6145/685,21444.444444444445,32.0685844075,34.8233535711,2011
2011-11-04,2011-04-11,"ז'בוטינסקי 3, רמת גן",ז'בוטינסקי 3,6109-275-59,משרד,,עשרים,29.0,378000,,,1966.0,,20.0,3222390129,1,6109275,False,,רמת גן,ז'בוטינסקי,,6109-275-59,6109/275,13034.48275862069,32.0834052795,34.8014749201,2011
2011-11-04,2011-04-11,"עוזיאל 37, רמת גן",עוזיאל 37,6158-275-7,דירה בבית קומות,2.0,שניה,39.2,940000,,,1960.0,,3.0,3221829820,1,6158275,False,81% ב 8.8 שנים,רמת גן,עוזיאל,9.2,6158-275-7,6158/275,23979.591836734693,32.0756955576,34.8233729465,2011
2011-11-01,2011-01-11,"הכבאים 19, רמת גן",הכבאים 19,6181-655-32,דירה בבית קומות,5.0,שמינית,117.43,1900000,,,1993.0,,12.0,3219623935,1,6181655,False,26% ב 1.5 שנים,רמת גן,הכבאים,17.33,6181-655-32,6181/655,16179.851826620114,32.063386873,34.8357852629,2011
2011-11-01,2011-01-11,"החולה 17, רמת גן",החולה 17,6181-612-4,דירה בבית קומות,4.0,ראשונה,102.73,1920000,,,1995.0,,10.0,3219396140,1,6181612,False,69% ב 4.4 שנים,רמת גן,החולה,15.68,6181-612-4,6181/612,18689.769298160227,32.0619766225,34.833262025,2011
2011-11-01,2011-01-11,"אמנון ותמר 3, רמת גן",אמנון ותמר 3,6145-298-2,דירה בבית קומות,3.0,ראשונה,65.5,1385000,,,1995.0,,3.0,3219570343,1,6145298,False,66% ב 3.7 שנים,רמת גן,אמנון ותמר,17.84,6145-298-2,6145/298,21145.03816793893,32.0725279939,34.8254004091,2011
2011-10-31,2011-10-31,"אלימלך רימלט 16, רמת גן",אלימלך רימלט 16,6186-679-124,דירה בבית קומות,4.0,אחת עשרה,106.9,7690000,,,2011.0,,24.0,3226887623,1,6186679,False,,רמת גן,רימלט אלימלך,,6186-679-124,6186/679,71936.38914873713,32.0710419125,34.8321186831,2011
2011-10-31,2011-10-31,"טרומן 27, רמת גן",טרומן 27,6145-277-5,דירה בבית קומות,4.0,שלישית+גג,97.66,1875000,,,1993.0,,3.0,3226022408,1,6145277,False,45% ב 6.2 שנים,רמת גן,טרומן,7.26,6145-277-5,6145/277,19199.262748310462,32.0682929557,34.8257179352,2011
2011-10-31,2011-10-31,"סטרומה 11, רמת גן",סטרומה 11,6205-355-2,דירה בבית קומות,1.5,קרקע,32.0,695000,,,1960.0,,2.0,3226257830,1,6205355,False,,רמת גן,סטרומה,,6205-355-2,6205/355,21718.75,32.090660403,34.8160933777,2011
2011-10-31,2011-10-31,"הפודים 8, רמת גן",הפודים 8,6204-467-54,דירה בבית קומות,3.0,שלישית,47.0,800000,,,2020.0,,8.0,3226067909,1,6204467,False,,רמת גן,הפודים,,6204-467-54,6204/467,17021.27659574468,32.0911252824,34.8175359992,2011
2011-10-31,2011-10-31,"הרי הגלעד 4, רמת גן",הרי הגלעד 4,6109-454-71,דירה בבית קומות,3.0,שמונה עשרה,77.31,1760000,,,2007.0,,27.0,3226281552,1,6109454,True,-9% ב 3.4 שנים,רמת גן,הרי הגלעד,-2.65,6109-454-71,6109/454,22765.4895873755,32.0843493305,34.8046938287,2011
2011-10-30,2011-10-30,"הדר 2, רמת גן",הדר 2,6205-131-8,דירה בבית קומות,2.0,ראשונה,40.0,920000,,,1960.0,,3.0,3225999005,1,6205131,False,31% ב 2.1 שנים,רמת גן,הדר,14.76,6205-131-8,6205/131,23000.0,32.0868200499,34.8110813636,2011
2011-10-30,2011-10-30,"לאן 11, רמת גן",לאן 11,6128-261-10,דירה בבית קומות,4.0,שלישית,84.9,1900000,,,2011.0,,5.0,3225983200,1,6128261,False,,רמת גן,לאן,,6128-261-10,6128/261,22379.26972909305,32.0827501351,34.8085205611,2011
2011-10-27,2011-10-27,"האגדה 2, רמת גן",האגדה 2,6158-1101-4,דירה בבית קומות,2.0,ראשונה,62.0,945000,,,1950.0,,3.0,3226056425,1,61581101,False,,רמת גן,האגדה,,6158-1101-4,6158/1101,15241.935483870968,32.0749515433,34.8252374304,2011
2011-10-26,2011-10-26,"העם הצרפתי 58, רמת גן",העם הצרפתי 58,6203-115-4,דירה בבית קומות,5.0,שניה,150.0,2958000,,,1950.0,,2.0,3226044013,1,6203115,False,168% ב 3.9 שנים,רמת גן,העם הצרפתי,43.08,6203-115-4,6203/115,19720.0,32.0940904099,34.8176902651,2011
2011-10-25,2011-10-25,"הגלגל 75, רמת גן",הגלגל 75,6159-300-2,דירה בבית קומות,2.0,ראשונה,50.0,1050000,,,1950.0,,3.0,3225968845,1,6159300,False,,רמת גן,הגלגל,,6159-300-2,6159/300,21000.0,32.080007049,34.8223601149,2011
2011-10-25,2011-10-25,"הרצל 65, רמת גן",הרצל 65,6127-714-18,דירה בבית קומות,2.0,,60.0,1030000,,,1950.0,,4.0,3226745436,1,6127714,False,,רמת גן,הרצל,,6127-714-18,6127/714,17166.666666666668,32.0855794046,34.8147962595,2011
2011-10-24,2011-10-24,"הרא""ה 190, רמת גן","הרא""ה 190",6145-909-7,דירה בבית קומות,2.5,ראשונה,46.5,830000,,,1950.0,,3.0,3226442560,1,6145909,False,,רמת גן,"הרא""ה",,6145-909-7,6145/909,17849.462365591397,32.0694268329,34.8243377368,2011
2011-10-23,2011-10-23,"נתן 9, רמת גן",נתן 9,6126-353-6,דירה בבית קומות,3.0,שניה,58.54,1685000,,,1966.0,,3.0,3225855194,1,6126353,False,50% ב 9.8 שנים,רמת גן,נתן,5.1,6126-353-6,6126/353,28783.73761530577,32.0830795065,34.8178417941,2011
2011-10-23,2011-10-23,"גרשום 2, רמת גן",גרשום 2,6186-332-31,דירה בבית קומות,4.0,שלישית,114.0,1450000,,,2011.0,,1.0,3225814565,1,6186332,False,,רמת גן,גרשום,,6186-332-31,6186/332,12719.298245614034,32.0689271525,34.8288368012,2011
2011-10-17,2011-10-17,"גרשום 2, רמת גן",גרשום 2,6186-332-12,דירה בבית קומות,5.0,חמישית,142.0,2000000,1.0,מרום הירדן,2011.0,,1.0,3225813144,1,6186332,False,,רמת גן,גרשום,,6186-332-12,6186/332,14084.50704225352,32.0689271525,34.8288368012,2011
2011-10-17,2011-10-17,"האש""ל 1, רמת גן","האש""ל 1",6126-465-15,דירה בבית קומות,2.0,שלישית,55.0,1150000,,,1950.0,,3.0,3225794932,1,6126465,False,21% ב 0.8 שנים,רמת גן,האשל,26.25,6126-465-15,6126/465,20909.090909090908,32.0837749312,34.8186911352,2011
2011-10-12,2011-12-10,"בית חורון 8, רמת גן",בית חורון 8,6127-853-3,דירה בבית קומות,3.5,ראשונה,69.2,1278000,,,1960.0,,6.0,3227030419,1,6127853,False,,רמת גן,בית חורון,,6127-853-3,6127/853,18468.208092485547,32.0839711288,34.8106432697,2011
2011-10-11,2011-11-10,"הרצל 8, רמת גן",הרצל 8,6126-588-5,דירה בבית קומות,4.0,שניה,86.1,1590000,,,1960.0,,3.0,3226539710,1,6126588,False,50% ב 2.2 שנים,רמת גן,הרצל,22.73,6126-588-5,6126/588,18466.898954703836,32.0809384781,34.8191396449,2011
2011-10-11,2011-11-10,"ז'בוטינסקי 101, רמת גן",ז'בוטינסקי 101,6205-746-29,דירה בבית קומות,4.5,שישית,96.55,1610000,,,1970.0,,8.0,3226633032,1,6205746,False,42% ב 5.5 שנים,רמת גן,ז'בוטינסקי,7.64,6205-746-29,6205/746,16675.297773174523,32.0892876784,34.8152103899,2011
2011-10-11,2011-11-10,"סטרומה 1, רמת גן",סטרומה 1,6205-343-4,דירה בבית קומות,1.0,,,16176000,,,1949.0,,1.0,3226263340,1,6205343,False,,רמת גן,סטרומה,,6205-343-4,6205/343,,32.0914581344,34.8157269101,2011
2011-10-11,2011-11-10,"ירושלים 97, רמת גן",ירושלים 97,6186-432-6,דירה בבית קומות,3.0,שניה,60.0,1220000,,,1970.0,,3.0,3226374874,1,6186432,False,101% ב 6.5 שנים,רמת גן,ירושלים,15.54,6186-432-6,6186/432,20333.33333333333,32.075056509,34.8316063573,2011
2011-10-11,2011-11-10,"יד שלום 47, רמת גן",יד שלום 47,6157-656-4,דירה בבית קומות,4.0,שניה,83.75,1440000,,,1996.0,,4.0,3226473445,1,6157656,False,,רמת גן,יד שלום,,6157-656-4,6157/656,17194.02985074627,32.0726454684,34.8222477561,2011
2011-10-11,2011-11-10,"אחד העם 23, רמת גן",אחד העם 23,6142-314-10,דירה בבית קומות,3.0,שלישית,68.8,1280000,,,1991.0,,6.0,3226387112,1,6142314,False,,רמת גן,אחד העם,,6142-314-10,6142/314,18604.6511627907,32.049018304,34.8188698205,2011
2011-10-11,2011-11-10,"הרא""ה 188, רמת גן","הרא""ה 188",6145-910-27,דירה בבית קומות,2.0,שלישית,47.0,918000,,,1950.0,,3.0,3226407876,1,6145910,False,92% ב 5 שנים,רמת גן,"הרא""ה",18.4,6145-910-27,6145/910,19531.91489361702,32.0697462123,34.8244120534,2011
2011-10-10,2011-10-10,"המתמיד 30, רמת גן",המתמיד 30,6128-68-29,דירה בבית קומות,2.0,שניה,51.0,1130000,,,1950.0,,3.0,3225885818,1,612868,False,,רמת גן,המתמיד,,6128-68-29,6128/68,22156.86274509804,32.0809945245,34.8056448588,2011
2011-10-10,2011-10-10,"הכבאים 13, רמת גן",הכבאים 13,6181-653-35,דירה בבית קומות,5.0,ראשונה,115.58,1780000,,,1991.0,,9.0,3225735105,1,6181653,False,34% ב 3.5 שנים,רמת גן,הכבאים,9.71,6181-653-35,6181/653,15400.58833708254,32.0641111008,34.8355778863,2011
2011-10-10,2011-10-10,"באר אורה 9, רמת גן",באר אורה 9,6182-443-7,דירה בבית קומות,3.0,שניה,64.0,1270000,,,1970.0,,3.0,3225750185,1,6182443,False,91% ב 10.4 שנים,רמת גן,באר אורה,8.75,6182-443-7,6182/443,19843.75,32.0652746415,34.8308519209,2011
2011-10-08,2011-08-10,"הגפן 11, רמת גן",הגפן 11,6205-83-6,דירה בבית קומות,3.5,שניה,74.64,1595000,,,1973.0,,3.0,3224512030,1,620583,False,88% ב 7.9 שנים,רמת גן,הגפן,11.14,6205-83-6,6205/83,21369.239013933548,32.0892870093,34.8113109169,2011
2011-10-08,2011-08-10,"הכבאים 1, רמת גן",הכבאים 1,6181-667-152,דירה בבית קומות,4.0,ראשונה,107.1,1658000,,,2006.0,,29.0,3224962313,1,6181667,False,65% ב 9.4 שנים,רמת גן,הכבאים,6.91,6181-667-152,6181/667,15480.859010270777,32.0639633937,34.8332410095,2011
2011-10-08,2011-08-10,"התקווה 19, רמת גן",התקווה 19,6205-64-19,דירה בבית קומות,2.0,עמודים,43.0,860000,,,1950.0,,2.0,3224527893,1,620564,False,75% ב 11 שנים,רמת גן,התקוה,6.82,6205-64-19,6205/64,20000.0,32.0892057612,34.8135606095,2011
2011-10-08,2011-08-10,"מצדה 60, רמת גן",מצדה 60,6180-569-2,דירה בבית קומות,6.0,,260.0,4700000,,,2000.0,,2.0,3224593926,1,6180569,False,,רמת גן,מצדה,,6180-569-2,6180/569,18076.92307692308,32.0578310833,34.8264361273,2011
2011-10-08,2011-08-10,"קריניצי 105, רמת גן",קריניצי 105,6125-419-6,דירה בבית קומות,2.0,שניה,50.0,1070000,,,1960.0,,2.0,3224858232,1,6125419,False,,רמת גן,קריניצי,,6125-419-6,6125/419,21400.0,32.0884475885,34.8202183271,2011
2011-10-08,2011-08-10,"ז'בוטינסקי 71, רמת גן",ז'בוטינסקי 71,6205-521-9,דירה בבית קומות,2.0,ראשונה,61.0,700000,,,1960.0,,4.0,3225040294,1,6205521,False,,רמת גן,ז'בוטינסקי,,6205-521-9,6205/521,11475.409836065572,32.087041893,34.8120184145,2011
2011-10-07,2011-07-10,"אמיר 12, רמת גן",אמיר 12,6145-977-10,דירה,4.0,,97.0,1635000,1.0,אמיר,2011.0,,2.0,11181263900,1,6145977,False,,רמת גן,אמיר,,6145-977-10,6145/977,16855.670103092783,32.0691380059,34.8250654606,2011
2011-10-07,2011-07-10,"הדקלים 11, רמת גן",הדקלים 11,6205-95-6,דירה בבית קומות,2.0,שניה,60.0,1065000,,,1955.0,,3.0,3224697717,1,620595,False,,רמת גן,הדקלים,,6205-95-6,6205/95,17750.0,32.0885134955,34.8085939256,2011
2011-10-07,2011-07-10,"המלך יוסף 31, רמת גן",המלך יוסף 31,6157-711-3,דירה בבית קומות,4.0,שלישית,90.0,1670000,,,2000.0,,6.0,3224373294,1,6157711,False,11% ב 0.6 שנים,רמת גן,המלך יוסף,18.33,6157-711-3,6157/711,18555.555555555555,32.071059638,34.8210136803,2011
2011-10-06,2011-06-10,"קוממיות 5, רמת גן",קוממיות 5,6183-164-5,דירה בבית קומות,2.0,שניה,58.85,890000,,,1950.0,,2.0,3223303861,1,6183164,False,71% ב 3.6 שנים,רמת גן,קוממיות,19.72,6183-164-5,6183/164,15123.1945624469,32.0676522605,34.8374023304,2011
2011-10-04,2011-04-10,"דוד בן-גוריון 136, רמת גן",דוד בן-גוריון 136,6126-596-5,דירה בבית קומות,3.0,שניה,59.64,1250000,,,1980.0,,3.0,3221720287,1,6126596,False,,רמת גן,בן גוריון דוד,,6126-596-5,6126/596,20959.08786049631,32.0810897651,34.8198998889,2011
2011-10-04,2011-04-10,"הברושים 8, רמת גן",הברושים 8,6176-245-1,קוטג' חד משפחתי,5.0,,160.0,4412000,,,1969.0,,,3221887994,1,6176245,False,,רמת גן,הברושים,,6176-245-1,6176/245,27575.0,32.0452918262,34.8348403275,2011
2011-10-04,2011-04-10,"הירדן 68, רמת גן",הירדן 68,6182-474-4,דירה בבית קומות,3.5,שניה,66.53,1050000,,,1967.0,,3.0,3221912586,1,6182474,False,65% ב 6.4 שנים,רמת גן,הירדן,10.16,6182-474-4,6182/474,15782.35382534195,32.0637683017,34.8281689707,2011
2011-10-04,2011-04-10,"תל חי 15, רמת גן",תל חי 15,6186-444-8,דירה בבית קומות,4.0,חמישית,100.0,1750000,1.0,"תמ""א 38 - רח' תל חי 15, ר""ג",2011.0,,2.0,3222423392,1,6186444,False,,רמת גן,תל חי,,6186-444-8,6186/444,17500.0,32.0680099754,34.8280320121,2011
2011-10-04,2011-04-10,"תרצה 11, רמת גן",תרצה 11,6186-365-10,דירה בבית קומות,3.0,ראשונה,61.5,1385000,,,1960.0,,4.0,3222128404,1,6186365,False,92% ב 3.5 שנים,רמת גן,תרצה,26.29,6186-365-10,6186/365,22520.325203252032,32.074069624,34.8284636487,2011
2011-10-04,2011-04-10,"ז'בוטינסקי 73, רמת גן",ז'בוטינסקי 73,6205-520-8,דירה בבית קומות,3.0,שניה,58.0,925000,,,1960.0,,4.0,3221910150,1,6205520,False,,רמת גן,ז'בוטינסקי,,6205-520-8,6205/520,15948.275862068966,32.0871723864,34.8122227124,2011
2011-10-03,2011-03-10,"פנחס 77, רמת גן",פנחס 77,6182-512-12,דירה בבית קומות,5.0,רביעית,116.05,2000000,,,1997.0,,10.0,3222051815,1,6182512,False,63% ב 10.4 שנים,רמת גן,פנחס,6.06,6182-512-12,6182/512,17233.950883239984,32.063744159,34.8301084811,2011
2011-10-03,2011-03-10,"מנחם בגין 3, רמת גן",מנחם בגין 3,6207-877-140,דירה בבית קומות,2.0,קומה ‎24‏,64.75,1700000,,,2000.0,,24.0,3221679861,1,6207877,False,44% ב 6.7 שנים,רמת גן,בגין מנחם,6.57,6207-877-140,6207/877,26254.826254826254,32.0844858541,34.7994713944,2011
2011-10-03,2011-03-10,"הרצל 57, רמת גן",הרצל 57,6127-903-11,דירה בבית קומות,3.0,ראשונה,73.03,930000,,,1970.0,,4.0,3221037656,1,6127903,False,,רמת גן,הרצל,,6127-903-11,6127/903,12734.492674243462,32.0847522589,34.814961314,2011
2011-10-03,2011-03-10,"אבא הלל 148, רמת גן",אבא הלל 148,6203-213-16,דירה בבית קומות,4.0,רביעית,94.6,1560000,,,1988.0,,14.0,3221132428,1,6203213,False,76% ב 12 שנים,רמת גן,אבא הלל,6.33,6203-213-16,6203/213,16490.486257928118,32.0950212201,34.8200680022,2011
2011-10-03,2011-03-10,"רימלט אלימלך 6, רמת גן",רימלט אלימלך 6,6186-650-57,דירה בבית קומות,5.0,שניה,149.0,2700000,,,1994.0,,15.0,3220997984,1,6186650,False,,רמת גן,רימלט אלימלך,,6186-650-57,6186/650,18120.80536912752,32.0707569426,34.8300471078,2011
2011-10-02,2011-02-10,"מנחם בגין 3, רמת גן",מנחם בגין 3,6207-877-150,דירה בבית קומות,2.0,קומה ‎24‏,48.35,1425000,,,2000.0,,24.0,3221353466,1,6207877,False,3% ב 1 שנים,רמת גן,בגין מנחם,3.0,6207-877-150,6207/877,29472.595656670117,32.0844858541,34.7994713944,2011
2011-10-02,2011-02-10,"ז'בוטינסקי 75, רמת גן",ז'בוטינסקי 75,6205-241-12,דירה בבית קומות,2.0,ראשונה,45.0,580000,,,1950.0,,3.0,3221460679,1,6205241,False,,רמת גן,ז'בוטינסקי,,6205-241-12,6205/241,12888.888888888889,32.0872695446,34.812453012,2011
2011-10-02,2011-02-10,"קוממיות 10, רמת גן",קוממיות 10,6183-171-3,דירה בבית קומות,3.0,ראשונה,50.0,900000,,,1950.0,,2.0,3220820446,1,6183171,False,,רמת גן,קוממיות,,6183-171-3,6183/171,18000.0,32.0671595491,34.8377838712,2011
2011-10-01,2011-01-10,"קפלן 7, רמת גן",קפלן 7,6157-231-2,דירה בבית קומות,2.5,,48.0,1100000,,,1950.0,,1.0,3219718910,1,6157231,False,,רמת גן,קפלן,,6157-231-2,6157/231,22916.666666666668,32.0690572936,34.820202264,2011
2011-10-01,2011-01-10,"הגלגל 52, רמת גן",הגלגל 52,6159-296-3,דירה בבית קומות,3.0,ראשונה,65.0,1585000,,,1950.0,,2.0,3219423951,1,6159296,False,,רמת גן,הגלגל,,6159-296-3,6159/296,24384.615384615383,32.0802692165,34.8225982526,2011
2011-09-27,2011-09-27,"אלוף הניצחון 23, רמת גן",אלוף הניצחון 23,6158-803-7,דירה בבית קומות,1.0,שניה,37.0,720000,,,1955.0,,3.0,3225643900,1,6158803,False,,רמת גן,אלוף הנצחון,,6158-803-7,6158/803,19459.45945945946,32.074320147,34.8276366223,2011
2011-09-27,2011-09-27,"גרשום 2, רמת גן",גרשום 2,6186-332-32,דירה בבית קומות,3.0,רביעית,90.0,1160000,,,2011.0,,1.0,3225822192,1,6186332,False,,רמת גן,גרשום,,6186-332-32,6186/332,12888.888888888889,32.0689271525,34.8288368012,2011
2011-09-26,2011-09-26,"ירושלים 34, רמת גן",ירושלים 34,6158-686-14,דירה בבית קומות,2.0,שלישית,49.0,1090000,,,1950.0,,3.0,3225534106,1,6158686,False,101% ב 4 שנים,רמת גן,ירושלים,25.25,6158-686-14,6158/686,22244.897959183672,32.074488742,34.8224091663,2011
2011-09-26,2011-09-26,"יד שלום 50, רמת גן",יד שלום 50,6157-663-3,דירה בבית קומות,4.0,שניה,73.0,1440000,,,1995.0,,2.0,3226118108,1,6157663,False,,רמת גן,יד שלום,,6157-663-3,6157/663,19726.027397260277,32.0723133904,34.8224580784,2011
2011-09-26,2011-09-26,"הרא""ה 42, רמת גן","הרא""ה 42",6159-658-9,דירה בבית קומות,3.0,שלישית,61.0,1280000,,,1955.0,,3.0,3225613073,1,6159658,False,115% ב 4.8 שנים,רמת גן,"הרא""ה",23.96,6159-658-9,6159/658,20983.60655737705,32.0834330153,34.8220775789,2011
2011-09-25,2011-09-25,"עוזיאל 38, רמת גן",עוזיאל 38,6158-57-53,דירה בבית קומות,2.0,שניה,50.0,765000,,,1950.0,,2.0,3225526189,1,615857,False,,רמת גן,עוזיאל,,6158-57-53,6158/57,15300.0,32.076269469,34.8222867798,2011
2011-09-25,2011-09-25,"בצלאל 1, רמת גן",בצלאל 1,6207-898-1,משרד,,,127.0,1400000,,,1997.0,,2.0,3225959304,1,6207898,False,,רמת גן,בצלאל,,6207-898-1,6207/898,11023.622047244096,32.0869117737,34.801927103,2011
2011-09-25,2011-09-25,"ירושלים 100, רמת גן",ירושלים 100,6186-485-8,דירה בבית קומות,3.0,שניה,52.0,1090000,,,1970.0,,3.0,3225523173,1,6186485,False,57% ב 4.1 שנים,רמת גן,ירושלים,13.9,6186-485-8,6186/485,20961.53846153846,32.0745702776,34.8311767394,2011
2011-09-25,2011-09-25,"ביאליק 63, רמת גן",ביאליק 63,6127-121-8,דירה בבית קומות,3.0,קרקע,75.8,1380000,,,1940.0,,2.0,3225554435,1,6127121,False,,רמת גן,ביאליק,,6127-121-8,6127/121,18205.80474934037,32.0842939771,34.811915653,2011
2011-09-25,2011-09-25,"חצור 14, רמת גן",חצור 14,6158-1205-8,דירה בבית קומות,3.0,שלישית,60.0,950000,,,1965.0,,3.0,3225497276,1,61581205,False,,רמת גן,חצור,,6158-1205-8,6158/1205,15833.333333333334,32.0770958823,34.824566648,2011
2011-09-25,2011-09-25,"האמוראים 4, רמת גן",האמוראים 4,6158-1482-5,דירה בבית קומות,5.0,חמישית,115.0,1600000,1.0,אמוראים 4,1980.0,2011.0,4.0,3248280111,1,61581482,False,,רמת גן,האמוראים,,6158-1482-5,6158/1482,13913.04347826087,32.0759844024,34.8267245275,2011
2011-09-25,2011-09-25,"קריניצי 81, רמת גן",קריניצי 81,6125-706-5,דירה בבית קומות,4.0,שלישית,90.75,1530000,,,1965.0,,5.0,3248178872,1,6125706,False,,רמת גן,קריניצי,,6125-706-5,6125/706,16859.504132231406,32.0862209935,34.8196669148,2011
2011-09-23,2011-09-23,"נחלה 2, רמת גן",נחלה 2,6182-120-2,דירה בבית קומות,3.0,שניה,75.2,1550000,,,2010.0,,6.0,3225893503,1,6182120,False,,רמת גן,נחלה,,6182-120-2,6182/120,20611.702127659573,32.0640094997,34.8267560536,2011
2011-09-22,2011-09-22,"חיים לנדאו 6, רמת גן",חיים לנדאו 6,6186-640-7,משרד,,,153.0,4400000,,,1990.0,,1.0,3225851337,1,6186640,False,,רמת גן,לנדאו חיים,,6186-640-7,6186/640,28758.16993464052,32.0716846975,34.8290997228,2011
2011-09-22,2011-09-22,"אסף 19, רמת גן",אסף 19,6206-57-4,דירה בבית קומות,3.0,שניה,67.9,1820000,,,2003.0,,6.0,3225547765,1,620657,False,21% ב 0.6 שנים,רמת גן,אסף,35.0,6206-57-4,6206/57,26804.1237113402,32.0897809084,34.8080638832,2011
2011-09-22,2011-09-22,"נחלת יוסף 6, רמת גן",נחלת יוסף 6,6126-488-2,דירה בבית קומות,2.0,קרקע,45.0,730000,,,1960.0,,3.0,3225627196,1,6126488,False,,רמת גן,נחלת יוסף,,6126-488-2,6126/488,16222.222222222224,32.0803755066,34.8167552292,2011
2011-09-21,2011-09-21,"זבוטינסקי 78, רמת גן",זבוטינסקי 78,6127-745-19,דירה בבית קומות,2.0,ראשונה,50.0,333000,,,1965.0,,4.0,3226009039,1,6127745,False,,רמת גן,ז'בוטינסקי,,6127-745-19,6127/745,6660.0,32.0873627577,34.8134824581,2011
2011-09-21,2011-09-21,"אחד העם 9, רמת גן",אחד העם 9,6142-141-6,דירה בבית קומות,3.0,שניה,38.7,882000,,,1960.0,,2.0,3225732234,1,6142141,False,14% ב 0.4 שנים,רמת גן,אחד העם,35.0,6142-141-6,6142/141,22790.697674418603,32.0482790454,34.8170196272,2011
2011-09-21,2011-09-21,"שפירא 10, רמת גן",שפירא 10,6128-544-16,מחסנים,,שביעית,123.0,50000,,,2011.0,,8.0,3226051872,1,6128544,False,,רמת גן,שפירא,,6128-544-16,6128/544,406.5040650406504,32.0810265115,34.8046074725,2011
2011-09-21,2011-09-21,"נחליאלי 2, רמת גן",נחליאלי 2,6210-99-11,דירה בבית קומות,4.0,חמישית,111.0,2440000,1.0,רוקח 36,2013.0,,6.0,3225524594,1,621099,False,35% ב 0.2 שנים,רמת גן,נחליאלי,175.0,6210-99-11,6210/99,21981.981981981982,32.0904515806,34.8098100888,2011
2011-09-20,2011-09-20,"פנחס 53, רמת גן",פנחס 53,6182-122-0,דירת גג,4.0,רביעית,122.0,2250000,,,2008.0,,4.0,3225474801,1,6182122,False,,רמת גן,פנחס,,6182-122-0,6182/122,18442.622950819677,32.0637830934,34.8268914298,2011
2011-09-20,2011-09-20,"אבטליון 12, רמת גן",אבטליון 12,6125-401-3,דירה בבית קומות,5.0,שניה,119.8,1750000,,,1980.0,,4.0,3225391774,1,6125401,False,,רמת גן,אבטליון,,6125-401-3,6125/401,14607.679465776297,32.0856062533,34.8160412871,2011
2011-09-20,2011-09-20,"אבטליון 13, רמת גן",אבטליון 13,6125-572-5,דירה בבית קומות,1.5,קרקע,30.0,700000,,,1950.0,,3.0,3225744907,1,6125572,False,,רמת גן,אבטליון,,6125-572-5,6125/572,23333.33333333333,32.0851884364,34.8166297841,2011
2011-09-20,2011-09-20,"מאיר אבנר 2, רמת גן",מאיר אבנר 2,6182-25-17,דירה בבית קומות,3.0,שניה,56.0,1250000,,,2021.0,,5.0,3225383161,1,618225,False,,רמת גן,אבנר מאיר,,6182-25-17,6182/25,22321.42857142857,32.0634138007,34.8275344032,2011
2011-09-19,2011-09-19,"חיים לנדאו 6, רמת גן",חיים לנדאו 6,6186-640-15,חנות,,,52.0,1479000,,,1990.0,,1.0,3225580796,1,6186640,False,,רמת גן,לנדאו חיים,,6186-640-15,6186/640,28442.30769230769,32.0716846975,34.8290997228,2011
2011-09-19,2011-09-19,"יהושפט 12, רמת גן",יהושפט 12,6142-314-20,דירה בבית קומות,3.0,ראשונה,68.8,776000,,,1991.0,,6.0,3225437710,1,6142314,False,,רמת גן,יהושפט,,6142-314-20,6142/314,11279.06976744186,32.049018304,34.8188698205,2011
2011-09-19,2011-09-19,"ראש פינה 11, רמת גן",ראש פינה 11,6182-344-16,דירה בבית קומות,3.0,שלישית,45.47,929000,,,1960.0,,4.0,3225594165,1,6182344,False,,רמת גן,ראש פנה,,6182-344-16,6182/344,20431.05344182978,32.0649062847,34.8300825197,2011
2011-09-19,2011-09-19,"תנועת המרי 5, רמת גן",תנועת המרי 5,6157-240-1,דירה בבית קומות,3.0,שניה,48.0,1600000,,,1950.0,,2.0,3225391542,1,6157240,False,,רמת גן,תנועת המרי,,6157-240-1,6157/240,33333.333333333336,32.0695345236,34.8188106727,2011
2011-09-18,2011-09-18,"לאן 6, רמת גן",לאן 6,6128-106-4,דירה בבית קומות,4.0,ראשונה,109.61,1200000,,,1950.0,,2.0,3225387453,1,6128106,False,,רמת גן,לאן,,6128-106-4,6128/106,10947.906212936776,32.083281489,34.8079045786,2011
2011-09-15,2011-09-15,"קריניצי 67, רמת גן",קריניצי 67,6125-326-4,דירה בבית קומות,2.5,קומת עמודים,62.5,1200000,,,1960.0,,3.0,3225375534,1,6125326,False,21% ב 1.3 שנים,רמת גן,קריניצי,16.15,6125-326-4,6125/326,19200.0,32.0848280725,34.8192676484,2011
2011-09-15,2011-09-15,"סביון 9, רמת גן",סביון 9,6204-80-6,דירה בבית קומות,2.0,שניה,39.74,1020000,,,2002.0,,6.0,3225439595,1,620480,False,85% ב 9.7 שנים,רמת גן,סביון,8.76,6204-80-6,6204/80,25666.8344237544,32.0919485486,34.8212571172,2011
2011-09-15,2011-09-15,"סוקולוב 8, רמת גן",סוקולוב 8,6204-221-14,דירה בבית קומות,2.0,שניה,56.0,1150000,,,1950.0,,3.0,3225374780,1,6204221,False,125% ב 7.6 שנים,רמת גן,סוקולוב,16.45,6204-221-14,6204/221,20535.714285714286,32.0914567741,34.8205427877,2011
2011-09-15,2011-09-15,"תובל 21, רמת גן",תובל 21,6109-347-199,משרד,,שבע עשרה,103.0,2581000,,,1988.0,,29.0,3225763351,1,6109347,False,,רמת גן,תובל,,6109-347-199,6109/347,25058.252427184467,32.0838519184,34.8021240457,2011
2011-09-14,2011-09-14,"יוחנן באדר 4, רמת גן",יוחנן באדר 4,6186-668-55,דירה בבית קומות,4.0,ארבע עשרה,103.29,2010000,,,1999.0,,18.0,3225386960,1,6186668,False,,רמת גן,באדר יוחנן,,6186-668-55,6186/668,19459.77345338368,32.0728098208,34.8312425182,2011
2011-09-14,2011-09-14,"הרב חבה אליה 15, רמת גן",הרב חבה אליה 15,6127-598-17,דירה בבית קומות,2.5,שניה,58.0,1010000,,,1960.0,,2.0,3226597652,1,6127598,False,,רמת גן,הרב חבה אליהו,,6127-598-17,6127/598,17413.793103448275,32.0798590428,34.8104973142,2011
2011-09-13,2011-09-13,"נגבה 19, רמת גן",נגבה 19,6145-1214-1,חנות,,קרקע,47.6,400000,,,1960.0,,4.0,3225612319,1,61451214,False,,רמת גן,נגבה,,6145-1214-1,6145/1214,8403.361344537814,32.0705860556,34.8242742978,2011
2011-09-13,2011-09-13,"הצנחנים 27, רמת גן",הצנחנים 27,6145-843-5,דירה בבית קומות,5.0,ראשונה,155.0,2300000,,,1950.0,,2.0,3225257562,1,6145843,False,,רמת גן,הצנחנים,,6145-843-5,6145/843,14838.709677419354,32.0679388939,34.825736074,2011
2011-09-13,2011-09-13,"בית אל 9, רמת גן",בית אל 9,6128-192-16,דירה בבית קומות,2.0,שניה,54.0,900000,,,1950.0,,3.0,3225701088,1,6128192,False,,רמת גן,בית אל,,6128-192-16,6128/192,16666.666666666668,32.081704393,34.8091105495,2011
2011-09-12,2011-12-09,"י""א באדר 18, רמת גן","י""א באדר 18",6182-531-2,דירה בבית קומות,3.5,ראשונה,75.8,1350000,,,1980.0,,3.0,3226908880,1,6182531,False,18% ב 3.1 שנים,רמת גן,"י""א באדר",5.81,6182-531-2,6182/531,17810.026385224275,32.063734384,34.8275501115,2011
2011-09-11,2011-11-09,"אבא הלל 67, רמת גן",אבא הלל 67,6206-30-2,דירה בבית קומות,2.0,קרקע,63.0,1070000,,,1950.0,,2.0,3226242344,1,620630,False,117% ב 8 שנים,רמת גן,אבא הלל,14.62,6206-30-2,6206/30,16984.126984126986,32.0897665172,34.8093618139,2011
2011-09-11,2011-11-09,"יד שלום 14, רמת גן",יד שלום 14,6157-629-1,דירה בבית קומות,2.0,מרתף,33.95,200000,,,1977.0,,2.0,3226658117,1,6157629,False,,רמת גן,יד שלום,,6157-629-1,6157/629,5891.01620029455,32.0724359012,34.8197416227,2011
2011-09-10,2011-10-09,"נוה יהושע 35, רמת גן",נוה יהושע 35,6180-563-9,דירה בבית קומות,4.0,שלישית,74.85,1240000,,,1991.0,,4.0,3225698507,1,6180563,False,,רמת גן,נוה יהושע,,6180-563-9,6180/563,16566.466265865063,32.0602530922,34.8341924634,2011
2011-09-07,2011-07-09,"מטולה 1, רמת גן",מטולה 1,6182-339-8,דירה בבית קומות,2.0,שניה,41.76,1000000,,,1960.0,,4.0,3224080916,1,6182339,False,,רמת גן,מטולה,,6182-339-8,6182/339,23946.360153256705,32.0657244017,34.8295718226,2011
2011-09-06,2011-06-09,"ביאליק 57, רמת גן",ביאליק 57,6127-212-22,דירה בבית קומות,2.5,ראשונה,59.0,990000,,,1950.0,,3.0,3223408609,1,6127212,False,,רמת גן,ביאליק,,6127-212-22,6127/212,16779.661016949154,32.0842316661,34.812910084,2011
2011-09-05,2011-05-09,"אנה פרנק 15, רמת גן",אנה פרנק 15,6207-132-21,דירה בבית קומות,3.0,,68.0,1650000,,,2021.0,,7.0,3223085897,1,6207132,False,,רמת גן,אנה פרנק,,6207-132-21,6207/132,24264.70588235294,32.090566518,34.8036404099,2011
2011-09-05,2011-05-09,"תרפ""ב 6, רמת גן","תרפ""ב 6",6128-674-6,דירה בבית קומות,2.0,שניה,62.4,1200000,,,2024.0,,3.0,3222646634,1,6128674,False,,רמת גן,"תרפ""ב",,6128-674-6,6128/674,19230.76923076923,32.0800172634,34.8028825321,2011
2011-09-04,2011-04-09,"תלפיות 11, רמת גן",תלפיות 11,6205-629-5,דירה בבית קומות,3.0,שניה,64.0,1400000,,,1960.0,,3.0,3222007851,1,6205629,False,40% ב 12.3 שנים,רמת גן,תלפיות,3.25,6205-629-5,6205/629,21875.0,32.0876550714,34.8087418284,2011
2011-09-03,2011-03-09,"פרופס 3, רמת גן",פרופס 3,6182-525-32,דירה בבית קומות,5.0,"שמינית, תשיעית",113.2,2380000,,,1983.0,,9.0,3220998680,1,6182525,False,,רמת גן,פרופס,,6182-525-32,6182/525,21024.73498233216,32.0670645009,34.8292804016,2011
2011-09-03,2011-03-09,"הרא""ה 121, רמת גן","הרא""ה 121",6159-438-11,דירה בבית קומות,1.0,ראשונה,27.0,655000,,,1950.0,,5.0,3221006539,1,6159438,False,,רמת גן,"הרא""ה",,6159-438-11,6159/438,24259.25925925926,32.0792400568,34.8258256979,2011
2011-09-03,2011-03-09,"עמיקם 4, רמת גן",עמיקם 4,6158-151-9,דירה בבית קומות,2.0,שניה,60.0,1200000,,,1954.0,,2.0,3221314258,1,6158151,False,115% ב 5.9 שנים,רמת גן,עמיקם,19.49,6158-151-9,6158/151,20000.0,32.0773525703,34.8197528485,2011
2011-09-02,2011-02-09,"חירות 15, רמת גן",חירות 15,6205-467-2,דירה בבית קומות,2.0,ראשונה,54.5,1270000,,,1965.0,,3.0,3221255388,1,6205467,False,161% ב 7.5 שנים,רמת גן,חרות,21.47,6205-467-2,6205/467,23302.75229357798,32.0902855786,34.8120658181,2011
2011-09-02,2011-02-09,"אמנון ותמר 18, רמת גן",אמנון ותמר 18,6145-408-5,דירה בבית קומות,3.5,שלישית,74.0,1450000,,,1960.0,,3.0,3220327591,1,6145408,False,,רמת גן,אמנון ותמר,,6145-408-5,6145/408,19594.594594594597,32.0718172037,34.8267552403,2011
2011-09-02,2011-02-09,"עוזיאל 141, רמת גן",עוזיאל 141,6145-940-16,דירה בבית קומות,2.0,שלישית,56.0,1000000,,,1960.0,,3.0,3220832162,1,6145940,False,,רמת גן,עוזיאל,,6145-940-16,6145/940,17857.14285714286,32.0650277878,34.8209227903,2011
2011-09-02,2011-02-09,"בן-יוסף 9, רמת גן",בן-יוסף 9,6127-224-4,דירה בבית קומות,4.0,שניה,92.5,1700000,,,1980.0,,3.0,3220212258,1,6127224,False,62% ב 8.8 שנים,רמת גן,בן יוסף,7.05,6127-224-4,6127/224,18378.37837837838,32.0819005114,34.8137563429,2011
2011-09-02,2011-02-09,"יוחנן באדר 6, רמת גן",יוחנן באדר 6,6186-669-51,דירה בבית קומות,3.5,שלוש עשרה,89.5,1580000,,,2001.0,,,3220449391,1,6186669,False,70% ב 10.1 שנים,רמת גן,באדר יוחנן,6.93,6186-669-51,6186/669,17653.631284916202,32.0722478257,34.8319408174,2011
2011-09-02,2011-02-09,"ז'בוטינסקי 115, רמת גן",ז'בוטינסקי 115,6204-156-5,דירה בבית קומות,2.5,,50.0,700000,,,1960.0,,2.0,3220864439,1,6204156,False,,רמת גן,ז'בוטינסקי,,6204-156-5,6204/156,14000.0,32.0894885612,34.8174737007,2011
2011-09-01,2011-01-09,"זבוטינסקי 138, רמת גן",זבוטינסקי 138,6125-736-44,משרד,,שלישית,88.87,900000,,,1990.0,,5.0,3220147182,1,6125736,False,,רמת גן,ז'בוטינסקי,,6125-736-44,6125/736,10127.152019804207,32.0903773643,34.822168201,2011
2011-09-01,2011-01-09,"דב 13, רמת גן",דב 13,6128-435-4,דירה בבית קומות,4.0,שניה,90.19,1620000,,,2003.0,,6.0,3219757654,1,6128435,False,76% ב 5.8 שנים,רמת גן,דב,13.1,6128-435-4,6128/435,17962.08005322098,32.081010769,34.8019474874,2011
2011-08-31,2011-08-31,"תל חי 53, רמת גן",תל חי 53,6182-120-0,חלוקה/יחוד דירות,,,501.0,68000,,,2010.0,,6.0,3225527610,1,6182120,False,,רמת גן,תל חי,,6182-120-0,6182/120,135.72854291417167,32.0640094997,34.8267560536,2011
2011-08-31,2011-08-31,"אבא הלל 2, רמת גן",אבא הלל 2,6109-451-122,משרד,,עשרים ושבע,36.0,555000,,,2001.0,,20.0,3225163776,1,6109451,False,,רמת גן,אבא הלל,,6109-451-122,6109/451,15416.666666666666,32.0836776853,34.8039014161,2011
2011-08-31,2011-08-31,"קריניצי 81, רמת גן",קריניצי 81,6125-706-4,דירה בבית קומות,3.0,שניה,68.75,1440000,,,1965.0,,5.0,3224980235,1,6125706,False,77% ב 12.1 שנים,רמת גן,קריניצי,6.36,6125-706-4,6125/706,20945.454545454544,32.0862209935,34.8196669148,2011
2011-08-30,2011-08-30,"הרא""ה 31, רמת גן","הרא""ה 31",6125-743-14,דירה בבית קומות,3.0,רביעית,60.0,1250000,,,1986.0,,5.0,3225034784,1,6125743,False,,רמת גן,"הרא""ה",,6125-743-14,6125/743,20833.33333333333,32.0842388093,34.8192013872,2011
2011-08-30,2011-08-30,"אבא הלל 2, רמת גן",אבא הלל 2,6109-451-26,אחר,1.0,עשרים ושבע,37.0,643800,1.0,מגדל משה אביב,2001.0,,20.0,11181260384,1,6109451,False,,רמת גן,אבא הלל,,6109-451-26,6109/451,17400.0,32.0836776853,34.8039014161,2011
2011-08-30,2011-08-30,"השר משה 16, רמת גן",השר משה 16,6145-1615-16,דירה בבית קומות,4.0,רביעית,91.15,1901000,,,2013.0,,8.0,3225314982,1,61451615,False,,רמת גן,השר משה,,6145-1615-16,6145/1615,20855.732309380142,32.0666038321,34.8224924113,2011
2011-08-30,2011-08-30,"השר משה 16, רמת גן",השר משה 16,6145-1615-15,דירה בבית קומות,4.0,רביעית,91.15,1867000,,,2013.0,,8.0,3225315446,1,61451615,False,,רמת גן,השר משה,,6145-1615-15,6145/1615,20482.720789906747,32.0666038321,34.8224924113,2011
2011-08-30,2011-08-30,"הרא""ה 259, רמת גן","הרא""ה 259",6145-490-5,דירה בבית קומות,3.0,שלישית,70.0,1280000,,,1999.0,,4.0,3225235754,1,6145490,False,,רמת גן,"הרא""ה",,6145-490-5,6145/490,18285.714285714286,32.0655059585,34.8240646985,2011
2011-08-29,2011-08-29,"פבריגט 16, רמת גן",פבריגט 16,6157-178-7,דירה בבית קומות,4.0,ראשונה,80.0,1425000,,,1954.0,,2.0,3225241960,1,6157178,False,,רמת גן,פבריגט,,6157-178-7,6157/178,17812.5,32.0677123168,34.8187405357,2011
2011-08-29,2011-08-29,"עזריאל 20, רמת גן",עזריאל 20,6142-197-5,דירה בבית קומות,2.0,שלישית,38.0,1175000,,,1960.0,,3.0,3225700624,1,6142197,False,,רמת גן,עזריאל,,6142-197-5,6142/197,30921.052631578947,32.0510619566,34.8195186951,2011
2011-08-29,2011-08-29,"מנחם בגין 3, רמת גן",מנחם בגין 3,6207-877-166,דירה בבית קומות,3.0,קומה ‎26‏,91.3,2000000,,,2000.0,,24.0,3225072107,1,6207877,True,-1% ב 3.6 שנים,רמת גן,בגין מנחם,-0.28,6207-877-166,6207/877,21905.80503833516,32.0844858541,34.7994713944,2011
2011-08-29,2011-08-29,"למדן 6, רמת גן",למדן 6,6127-151-8,דירה בבית קומות,2.0,שניה,50.0,900000,,,1948.0,,3.0,3224886710,1,6127151,False,,רמת גן,למדן,,6127-151-8,6127/151,18000.0,32.0861851859,34.8146001138,2011
2011-08-29,2011-08-29,"משה דיין 36, רמת גן",משה דיין 36,6181-227-9,דירה בבית קומות,2.0,שלישית,48.6,1050000,,,1965.0,,3.0,3224992473,1,6181227,False,97% ב 8.3 שנים,רמת גן,דיין משה,11.69,6181-227-9,6181/227,21604.938271604937,32.0613675593,34.826740042,2011
2011-08-29,2011-08-29,"האחים בז'רנו 14, רמת גן",האחים בז'רנו 14,6207-743-7,דירה בבית קומות,4.0,שלישית,85.11,1690000,,,1970.0,,6.0,3225120189,1,6207743,False,,רמת גן,האחים בז'רנו,,6207-743-7,6207/743,19856.656092116085,32.0879299539,34.8043956527,2011
2011-08-29,2011-08-29,"לאן 20, רמת גן",לאן 20,6128-734-19,דירה בבית קומות,4.0,גג,101.5,3560000,,,1970.0,,7.0,3225299148,1,6128734,False,,רמת גן,לאן,,6128-734-19,6128/734,35073.89162561576,32.0815638768,34.8080291505,2011
2011-08-28,2011-08-28,"הקונגרס 40, רמת גן",הקונגרס 40,6181-256-2,דירה בבית קומות,3.0,ראשונה,71.22,1240000,,,1963.0,,3.0,3225249645,1,6181256,False,,רמת גן,הקונגרס,,6181-256-2,6181/256,17410.839651783208,32.0616953974,34.8278822886,2011
2011-08-28,2011-08-28,"מקדונלד 20, רמת גן",מקדונלד 20,6205-721-37,דירה בבית קומות,3.5,רביעית,92.0,1200000,,,1970.0,,12.0,3225264928,1,6205721,False,,רמת גן,מקדונלד,,6205-721-37,6205/721,13043.478260869566,32.085547587,34.8097677798,2011
2011-08-25,2011-08-25,"עוזיאל 46, רמת גן",עוזיאל 46,6158-1313-5,דירה בבית קומות,2.0,ראשונה,40.0,930000,,,1960.0,,5.0,3224911853,1,61581313,False,,רמת גן,עוזיאל,,6158-1313-5,6158/1313,23250.0,32.0756653917,34.8227869951,2011
2011-08-24,2011-08-24,"זוהר 8, רמת גן",זוהר 8,6127-748-12,דירה בבית קומות,2.0,שניה,45.0,977000,,,1950.0,,3.0,3224856550,1,6127748,False,87% ב 5.2 שנים,רמת גן,זוהר,16.73,6127-748-12,6127/748,21711.11111111111,32.0868856089,34.813899777,2011
2011-08-24,2011-08-24,"הגאון אליהו 16, רמת גן",הגאון אליהו 16,6186-667-125,דירה בבית קומות,5.0,ארבע עשרה,138.62,3300000,,,1997.0,,16.0,3224862524,1,6186667,False,,רמת גן,הגאון אליהו,,6186-667-125,6186/667,23806.08858750541,32.0731202683,34.8306494618,2011
2011-08-24,2011-08-24,"ארלוזורוב 30, רמת גן",ארלוזורוב 30,6127-765-3,דירה בבית קומות,1.0,מרתף,,410000,,,1950.0,,3.0,3225103688,1,6127765,False,,רמת גן,ארלוזורוב,,6127-765-3,6127/765,,32.0806903943,34.8125033424,2011
2011-08-24,2011-08-24,"בית אל 9, רמת גן",בית אל 9,6128-192-9,חנות,,,22.0,360000,,,1950.0,,3.0,3225114505,1,6128192,False,,רמת גן,בית אל,,6128-192-9,6128/192,16363.636363636364,32.081704393,34.8091105495,2011
2011-08-24,2011-08-24,"ז'בוטינסקי 1, רמת גן",ז'בוטינסקי 1,6207-769-94,משרד,,,292.0,5953000,,,1976.0,,23.0,3225643204,1,6207769,False,,רמת גן,ז'בוטינסקי,,6207-769-94,6207/769,20386.986301369863,32.0833649685,34.8003412005,2011
2011-08-24,2011-08-24,"תפארת ישראל 9, רמת גן",תפארת ישראל 9,6186-43-8,דירה בבית קומות,2.5,שניה,49.0,1305000,,,1965.0,,3.0,3224856115,1,618643,False,125% ב 12.4 שנים,רמת גן,תפארת ישראל,10.08,6186-43-8,6186/43,26632.65306122449,32.067742894,34.8295836191,2011
2011-08-23,2011-08-23,"עוזיאל 35, רמת גן",עוזיאל 35,6158-1223-1,דירה בבית קומות,2.0,מרתף,48.0,1035000,,,1960.0,,3.0,3224793910,1,61581223,False,30% ב 0.3 שנים,רמת גן,עוזיאל,100.0,6158-1223-1,6158/1223,21562.5,32.0758227443,34.8234170478,2011
2011-08-23,2011-08-23,"מולכו 5, רמת גן",מולכו 5,6186-276-13,דירה בבית קומות,2.0,רביעית,50.0,1200000,,,1950.0,,4.0,3224908257,1,6186276,False,47% ב 1 שנים,רמת גן,מולכו,47.0,6186-276-13,6186/276,24000.0,32.0750522117,34.8296842063,2011
2011-08-23,2011-08-23,"הרא""ה 92, רמת גן","הרא""ה 92",6159-443-16,דירה בבית קומות,2.0,שלישית,65.0,890000,,,1950.0,,15.0,3224924265,1,6159443,False,,רמת גן,"הרא""ה",,6159-443-16,6159/443,13692.307692307691,32.0805847651,34.8252696917,2011
2011-08-23,2011-08-23,"שושנים 8, רמת גן",שושנים 8,6203-131-8,דירה בבית קומות,3.0,שניה,67.35,1950000,,,1970.0,,3.0,3224906807,1,6203131,False,,רמת גן,שושנים,,6203-131-8,6203/131,28953.229398663698,32.0946596571,34.8131833885,2011
2011-08-23,2011-08-23,"אלוף דוד 183, רמת גן",אלוף דוד 183,6143-982-3,דירה בבית קומות,5.0,"קרקע, ראשונה",129.95,3250000,,,2010.0,,6.0,3225487735,1,6143982,False,,רמת גן,אלוף דוד,,6143-982-3,6143/982,25009.61908426318,32.0531947074,34.816725126,2011
2011-08-22,2011-08-22,"פנחס 35, רמת גן",פנחס 35,6145-1064-25,דירה בבית קומות,3.5,ראשונה,58.0,1300000,,,2023.0,,6.0,3225371213,1,61451064,False,,רמת גן,פנחס,,6145-1064-25,6145/1064,22413.793103448275,32.0640693126,34.8246893353,2011
2011-08-22,2011-08-22,"פרץ ברנשטיין 7, רמת גן",פרץ ברנשטיין 7,6179-221-72,דירת נופש,2.0,שלישית,60.0,1120000,,,2008.0,,7.0,3225487967,1,6179221,False,,רמת גן,ברנשטיין פרץ,,6179-221-72,6179/221,18666.666666666668,32.0549247972,34.8272449207,2011
2011-08-21,2011-08-21,"תל חי 53, רמת גן",תל חי 53,6182-120-7,דירה בבית קומות,4.0,שלישית,73.8,1425000,,,2010.0,,6.0,3225168822,1,6182120,False,,רמת גן,תל חי,,6182-120-7,6182/120,19308.943089430893,32.0640094997,34.8267560536,2011
2011-08-21,2011-08-21,"התקווה 16, רמת גן",התקווה 16,6205-62-3,דירה בבית קומות,2.0,שלישית,50.0,935000,,,1950.0,,2.0,3225263072,1,620562,False,,רמת גן,התקוה,,6205-62-3,6205/62,18700.0,32.0893606447,34.8132313112,2011
2011-08-21,2011-08-21,"ביאליק 56, רמת גן",ביאליק 56,6127-623-14,דירה בבית קומות,4.0,שניה,77.35,1350000,,,1972.0,,3.0,3224819227,1,6127623,False,,רמת גן,ביאליק,,6127-623-14,6127/623,17453.135100193926,32.0846208573,34.8134850024,2011
2011-08-21,2011-08-21,"ז'בוטינסקי 42, רמת גן",ז'בוטינסקי 42,6127-952-15,דירה בבית קומות,5.0,רביעית,100.65,1100000,,,1999.0,,14.0,3224726427,1,6127952,False,12% ב 8 שנים,רמת גן,ז'בוטינסקי,1.5,6127-952-15,6127/952,10928.96174863388,32.0840320108,34.8096254699,2011
2011-08-18,2011-08-18,"ביאליק 108, רמת גן",ביאליק 108,6205-421-25,דירה בבית קומות,2.0,שניה,64.0,930000,,,1950.0,,2.0,3224750613,1,6205421,False,,רמת גן,ביאליק,,6205-421-25,6205/421,14531.25,32.0872380017,34.8073641998,2011
2011-08-18,2011-08-18,"נחליאלי 2, רמת גן",נחליאלי 2,6210-99-9,דירה בבית קומות,5.0,שמינית,130.0,2750000,1.0,רוקח 36,2013.0,,6.0,3224853679,1,621099,False,,רמת גן,נחליאלי,,6210-99-9,6210/99,21153.846153846152,32.0904515806,34.8098100888,2011
2011-08-17,2011-08-17,"מחניים 8, רמת גן",מחניים 8,6181-55-2,דירה בבית קומות,4.0,ראשונה,73.21,1550000,,,1979.0,,5.0,3225271627,1,618155,False,,רמת גן,מחניים,,6181-55-2,6181/55,21171.97104220735,32.0626958808,34.8288718843,2011
2011-08-17,2011-08-17,"ז'בוטינסקי 35, רמת גן",ז'בוטינסקי 35,6109-327-191,משרד,,שביעית,63.31,860000,,,1994.0,,16.0,3225259679,1,6109327,True,-2% ב 11.6 שנים,רמת גן,ז'בוטינסקי,-0.17,6109-327-191,6109/327,13583.95198230927,32.0839977342,34.806704565,2011
2011-08-17,2011-08-17,"הנח""ל 1, רמת גן","הנח""ל 1",6158-307-4,דירה בבית קומות,3.0,שניה,65.96,1400000,,,2011.0,,5.0,3224811310,1,6158307,False,,רמת גן,"הנח""ל",,6158-307-4,6158/307,21224.984839296547,32.0765879959,34.8241155647,2011
2011-08-17,2011-08-17,"צוריאל 2, רמת גן",צוריאל 2,6205-283-11,דירה בבית קומות,2.0,שלישית,47.5,1000000,,,1960.0,,3.0,3225276934,1,6205283,False,,רמת גן,צוריאל,,6205-283-11,6205/283,21052.63157894737,32.0876864848,34.8067081245,2011
2011-08-16,2011-08-16,"ידע עם 16, רמת גן",ידע עם 16,6207-553-7,דירה בבית קומות,4.0,שלישית,63.3,1540000,,,2002.0,,7.0,3224827405,1,6207553,False,55% ב 4 שנים,רמת גן,ידע עם,13.75,6207-553-7,6207/553,24328.59399684044,32.0907999098,34.8018764845,2011
2011-08-16,2011-08-16,"ז'בוטינסקי 125, רמת גן",ז'בוטינסקי 125,6204-113-34,דירה בבית קומות,2.5,מרתף,54.0,930000,,,1950.0,,3.0,3224830943,1,6204113,False,156% ב 8.2 שנים,רמת גן,ז'בוטינסקי,19.02,6204-113-34,6204/113,17222.222222222223,32.0899305328,34.8183129728,2011
2011-08-15,2011-08-15,"הרצל 73, רמת גן",הרצל 73,6127-755-7,מחסנים,,חנויות,28.5,670000,,,1956.0,,5.0,3224777380,1,6127755,False,,רמת גן,הרצל,,6127-755-7,6127/755,23508.77192982456,32.0866296875,34.8147578801,2011
2011-08-15,2011-08-15,"קרסקי 11, רמת גן",קרסקי 11,6158-1196-59,דירה בבית קומות,2.0,ראשונה,47.0,985000,,,1950.0,,2.0,3225323769,1,61581196,False,,רמת גן,קרסקי,,6158-1196-59,6158/1196,20957.44680851064,32.0788277528,34.8243274712,2011
2011-08-14,2011-08-14,"עוזיאל 57, רמת גן",עוזיאל 57,6158-612-7,דירה בבית קומות,2.0,שניה,50.0,900000,,,1960.0,,3.0,3224630727,1,6158612,False,,רמת גן,עוזיאל,,6158-612-7,6158/612,18000.0,32.0741221374,34.8232535867,2011
2011-08-14,2011-08-14,"החי""ל 59, רמת גן","החי""ל 59",6145-187-5,דירה בבית קומות,2.0,ראשונה,56.8,1040000,,,1950.0,,1.0,3224642501,1,6145187,False,,רמת גן,"החי""ל",,6145-187-5,6145/187,18309.859154929574,32.0699585759,34.8272197888,2011
2011-08-12,2011-12-08,"השר משה 16, רמת גן",השר משה 16,6145-1615-35,דירה בבית קומות,5.0,קרקע,111.6,2586000,,,2013.0,,8.0,3248021228,1,61451615,False,,רמת גן,השר משה,,6145-1615-35,6145/1615,23172.043010752688,32.0666038321,34.8224924113,2011
2011-08-11,2011-11-08,"הגת 10, רמת גן",הגת 10,6125-464-1,דירה בבית קומות,4.0,ראשונה,94.22,1590000,,,1979.0,,3.0,3226203803,1,6125464,False,18% ב 2.4 שנים,רמת גן,הגת,7.5,6125-464-1,6125/464,16875.39800466992,32.0846023717,34.8207127757,2011
2011-08-11,2011-11-08,"עוזיאל 135, רמת גן",עוזיאל 135,6145-651-11,דירה בבית קומות,4.0,חמישית+ששית,87.86,2070000,,,2000.0,,5.0,3226216505,1,6145651,False,88% ב 9.5 שנים,רמת גן,עוזיאל,9.26,6145-651-11,6145/651,23560.20942408377,32.065624085,34.8210527427,2011
2011-08-11,2011-11-08,"עוזיאל 54, רמת גן",עוזיאל 54,6158-1234-16,דירה בבית קומות,2.0,שלישית,52.0,1050000,,,1960.0,,3.0,3226194204,1,61581234,False,,רמת גן,עוזיאל,,6158-1234-16,6158/1234,20192.30769230769,32.0751637337,34.8227482421,2011
2011-08-09,2011-09-08,"ז'בוטינסקי 1, רמת גן",ז'בוטינסקי 1,6207-769-95,משרד,,,25.0,515000,,,1976.0,,23.0,3225939903,1,6207769,False,,רמת גן,ז'בוטינסקי,,6207-769-95,6207/769,20600.0,32.0833649685,34.8003412005,2011
2011-08-09,2011-09-08,"שפירא 11, רמת גן",שפירא 11,6128-861-14,דירה בבית קומות,4.0,רביעית,97.65,2400000,,,2002.0,,19.0,3225226938,1,6128861,False,106% ב 9.5 שנים,רמת גן,שפירא,11.16,6128-861-14,6128/861,24577.572964669736,32.080566594,34.8052109604,2011
2011-08-09,2011-09-08,"השורה 20, רמת גן",השורה 20,6159-295-3,דירה בבית קומות,2.0,קרקע,48.0,1050000,,,1950.0,,1.0,3225404679,1,6159295,False,,רמת גן,השורה,,6159-295-3,6159/295,21875.0,32.0804320877,34.8226444127,2011
2011-08-09,2011-09-08,"השר משה 16, רמת גן",השר משה 16,6145-1615-34,דירה בבית קומות,6.0,"קרקע, ראשונה",134.25,2790000,,,2013.0,,8.0,3225635113,1,61451615,False,,רמת גן,השר משה,,6145-1615-34,6145/1615,20782.122905027933,32.0666038321,34.8224924113,2011
2011-08-08,2011-08-08,"הרא""ה 128, רמת גן","הרא""ה 128",6158-863-12,דירה בבית קומות,2.0,ראשונה,45.7,900000,,,1950.0,,2.0,3225147043,1,6158863,False,,רמת גן,"הרא""ה",,6158-863-12,6158/863,19693.654266958423,32.076970417,34.8249853649,2011
2011-08-08,2011-08-08,"שער הגיא 3, רמת גן",שער הגיא 3,6157-497-39,דירה בבית קומות,3.0,שניה,71.68,1500000,,,1960.0,,5.0,3224582442,1,6157497,False,,רמת גן,שער הגיא,,6157-497-39,6157/497,20926.339285714283,32.0658463881,34.816235763,2011
2011-08-05,2011-05-08,"תלפיות 21, רמת גן",תלפיות 21,6205-164-6,דירה בבית קומות,3.0,שניה,57.98,1409000,,,2011.0,,6.0,3222894236,1,6205164,False,,רמת גן,תלפיות,,6205-164-6,6205/164,24301.483270093137,32.0873100211,34.8097158524,2011
2011-08-05,2011-05-08,"הפודים 42, רמת גן",הפודים 42,6204-45-9,דירה בבית קומות,2.5,ראשונה,52.5,1115000,,,1960.0,,2.0,3222665281,1,620445,False,,רמת גן,הפודים,,6204-45-9,6204/45,21238.09523809524,32.0927857661,34.8211494973,2011
2011-08-05,2011-05-08,"עוזיאל 131, רמת גן",עוזיאל 131,6145-1009-5,דירה בבית קומות,3.0,שניה,58.0,1280000,,,1960.0,,3.0,3222532490,1,61451009,False,,רמת גן,עוזיאל,,6145-1009-5,6145/1009,22068.96551724138,32.0661039297,34.8213000832,2011
2011-08-05,2011-05-08,"תש""י 15, רמת גן","תש""י 15",6128-547-3,דירה בבית קומות,2.5,קרקע,44.0,1350000,,,1960.0,,2.0,3222481044,1,6128547,False,,רמת גן,"תש""י",,6128-547-3,6128/547,30681.81818181818,32.0799638839,34.8046772072,2011
2011-08-05,2011-05-08,"המתמיד 12, רמת גן",המתמיד 12,6128-738-10,דירה בבית קומות,4.0,שלישית,89.8,2078000,,,1974.0,,9.0,3222410690,1,6128738,False,,רמת גן,המתמיד,,6128-738-10,6128/738,23140.31180400891,32.0828681329,34.8067652713,2011
2011-08-05,2011-05-08,"קריניצי 43, רמת גן",קריניצי 43,6126-401-4,דירה בבית קומות,4.0,ראשונה,81.5,1500000,,,1970.0,,4.0,3222508594,1,6126401,False,,רמת גן,קריניצי,,6126-401-4,6126/401,18404.907975460123,32.0821633977,34.8187243478,2011
2011-08-05,2011-05-08,"מולכו 6, רמת גן",מולכו 6,6186-273-22,דירה בבית קומות,2.5,שלישית,60.0,1000000,,,1950.0,,3.0,3223035872,1,6186273,False,54% ב 3.8 שנים,רמת גן,מולכו,14.21,6186-273-22,6186/273,16666.666666666668,32.0748028704,34.829187108,2011
2011-08-05,2011-05-08,"אלימלך רימלט 16, רמת גן",אלימלך רימלט 16,6186-679-166,דירה בבית קומות,5.0,עשרים ושתים,174.6,5355000,,,2011.0,,24.0,3222985412,1,6186679,False,,רמת גן,רימלט אלימלך,,6186-679-166,6186/679,30670.103092783505,32.0710419125,34.8321186831,2011
2011-08-03,2011-03-08,"ז'בוטינסקי 35, רמת גן",ז'בוטינסקי 35,6109-327-134,חנות,,קרקע,29.53,420000,,,1994.0,,16.0,3221378348,1,6109327,False,,רמת גן,ז'בוטינסקי,,6109-327-134,6109/327,14222.824246528951,32.0839977342,34.806704565,2011
2011-08-03,2011-03-08,"ז'בוטינסקי 127, רמת גן",ז'בוטינסקי 127,6204-400-1,חנות,,ראשונה,34.0,509000,,,1950.0,,5.0,3221603301,1,6204400,False,,רמת גן,ז'בוטינסקי,,6204-400-1,6204/400,14970.588235294115,32.0899932999,34.8185624987,2011
2011-08-03,2011-03-08,"בית לחם 4, רמת גן",בית לחם 4,6158-604-2,קוטג' חד משפחתי,1.5,ראשונה,26.0,825000,,,1960.0,,3.0,3220993895,1,6158604,False,12% ב 1.8 שנים,רמת גן,בית לחם,6.67,6158-604-2,6158/604,31730.76923076923,32.0742798734,34.8235441293,2011
2011-08-03,2011-03-08,"אסף 2, רמת גן",אסף 2,6206-20-3,דירה בבית קומות,2.0,ראשונה,30.0,975000,,,1960.0,,3.0,3220846749,1,620620,False,72% ב 9.8 שנים,רמת גן,אסף,7.35,6206-20-3,6206/20,32500.0,32.0882841483,34.8062966807,2011
2011-08-03,2011-03-08,"טרומן 7, רמת גן",טרומן 7,6145-684-6,דירה בבית קומות,2.0,,52.0,1065000,,,1960.0,,2.0,3222036561,1,6145684,False,,רמת גן,טרומן,,6145-684-6,6145/684,20480.76923076923,32.0686054668,34.8231524828,2011
2011-08-03,2011-03-08,"קדמה 3, רמת גן",קדמה 3,6158-802-4,דירה בבית קומות,2.0,שניה,60.0,925000,,,1950.0,,2.0,3221052765,1,6158802,False,,רמת גן,קדמה,,6158-802-4,6158/802,15416.666666666666,32.0740110183,34.8268962994,2011
2011-08-03,2011-03-08,"ירושלים 81, רמת גן",ירושלים 81,6186-274-6,דירה בבית קומות,2.0,ראשונה,47.5,1000000,,,1950.0,,2.0,3220990067,1,6186274,False,,רמת גן,ירושלים,,6186-274-6,6186/274,21052.63157894737,32.0747665491,34.8287999859,2011
2011-08-02,2011-02-08,"סוקולוב 2, רמת גן",סוקולוב 2,6204-660-10,דירה בבית קומות,4.0,שלישית,104.75,1495000,,,2008.0,,25.0,3220418738,1,6204660,False,,רמת גן,סוקולוב,,6204-660-10,6204/660,14272.076372315036,32.0908920657,34.8207160633,2011
2011-08-02,2011-02-08,"ז'בוטינסקי 3, רמת גן",ז'בוטינסקי 3,6109-275-56,משרד,,,,349000,,,1966.0,,20.0,3221013267,1,6109275,False,,רמת גן,ז'בוטינסקי,,6109-275-56,6109/275,,32.0834052795,34.8014749201,2011
2011-08-02,2011-02-08,"קרסקי 13, רמת גן",קרסקי 13,6158-1196-27,דירה בבית קומות,2.0,ראשונה,53.0,950000,,,1950.0,,3.0,3220207734,1,61581196,False,,רמת גן,קרסקי,,6158-1196-27,6158/1196,17924.528301886792,32.0788277528,34.8243274712,2011
2011-08-02,2011-02-08,"השוטרת 7, רמת גן",השוטרת 7,6127-504-13,דירה בבית קומות,3.0,חמישית,53.91,1567000,,,2009.0,,5.0,3220599089,1,6127504,False,,רמת גן,השוטרת,,6127-504-13,6127/504,29066.963457614544,32.0807617447,34.8141253119,2011
2011-08-02,2011-02-08,"חורגין 30, רמת גן",חורגין 30,6158-720-4,דירה בבית קומות,2.0,שניה,59.5,1425000,,,1970.0,,2.0,3221501308,1,6158720,False,,רמת גן,חורגין,,6158-720-4,6158/720,23949.579831932773,32.0733728957,34.8216464724,2011
2011-08-02,2011-02-08,"טבנקין 7, רמת גן",טבנקין 7,6144-526-3,דירה בבית קומות,3.0,שניה,90.48,1585000,,,1965.0,,3.0,3220262747,1,6144526,False,,רמת גן,טבנקין,,6144-526-3,6144/526,17517.683465959326,32.0613320151,34.8200937202,2011
2011-08-02,2011-02-08,"הרכסים 9, רמת גן",הרכסים 9,6158-159-1,דירה בבית קומות,4.0,ראשונה,82.8,1620000,,,1996.0,,3.0,3221161892,1,6158159,False,,רמת גן,הרכסים,,6158-159-1,6158/159,19565.217391304348,32.0732393193,34.819392509,2011
2011-08-02,2011-02-08,"אבא הלל 40, רמת גן",אבא הלל 40,6205-109-1,דירה בבית קומות,2.0,ראשונה,31.11,800000,,,2005.0,,6.0,3220353894,1,6205109,False,50% ב 3.9 שנים,רמת גן,אבא הלל,12.82,6205-109-1,6205/109,25715.204114432658,32.0886379896,34.8082708025,2011
2011-08-01,2011-01-08,"גאולים 7, רמת גן",גאולים 7,6205-333-8,דירה בבית קומות,2.5,ראשונה,59.2,1450000,,,1960.0,,2.0,3220109569,1,6205333,False,167% ב 5.8 שנים,רמת גן,גאולים,28.79,6205-333-8,6205/333,24493.243243243243,32.0906100303,34.8149166127,2011
2011-07-31,2011-07-31,"המבדיל 10, רמת גן",המבדיל 10,6204-593-61,דירה בבית קומות,4.0,שמינית,93.58,1850000,,,1992.0,,11.0,3224285743,1,6204593,False,,רמת גן,המבדיל,,6204-593-61,6204/593,19769.18144902757,32.0906975616,34.8171417962,2011
2011-07-31,2011-07-31,"התמרים 8, רמת גן",התמרים 8,6125-287-1,דירה בבית קומות,3.0,קרקע,77.6,1225000,,,1960.0,,2.0,3224668311,1,6125287,False,,רמת גן,התמרים,,6125-287-1,6125/287,15786.082474226803,32.0896476937,34.8213168607,2011
2011-07-31,2011-07-31,"זבוטינסקי 133, רמת גן",זבוטינסקי 133,6204-534-21,דירה בבית קומות,3.5,רביעית,76.3,1350000,,,1970.0,,7.0,3226313133,1,6204534,False,,רמת גן,ז'בוטינסקי,,6204-534-21,6204/534,17693.315858453472,32.0904311056,34.8194875148,2011
2011-07-28,2011-07-28,"פבריגט 32, רמת גן",פבריגט 32,6157-170-6,דירה בבית קומות,2.5,ראשונה,35.52,1213000,,,1950.0,,2.0,3224262775,1,6157170,False,,רמת גן,פבריגט,,6157-170-6,6157/170,34149.77477477477,32.0672172862,34.8207155522,2011
2011-07-28,2011-07-28,"ז'בוטינסקי 112, רמת גן",ז'בוטינסקי 112,6125-723-35,דירה בבית קומות,4.0,שמינית,84.85,1315000,,,1970.0,,12.0,3224461106,1,6125723,False,,רמת גן,ז'בוטינסקי,,6125-723-35,6125/723,15497.9375368297,32.0890460481,34.8182702741,2011
2011-07-28,2011-07-28,"חורגין 12, רמת גן",חורגין 12,6158-1173-1,דירה בבית קומות,4.0,ראשונה,86.44,1900000,,,2005.0,,6.0,3224442430,1,61581173,False,72% ב 3.5 שנים,רמת גן,חורגין,20.57,6158-1173-1,6158/1173,21980.56455344748,32.0734369333,34.819871508,2011
2011-07-28,2011-07-28,"מנחם בגין 3, רמת גן",מנחם בגין 3,6207-877-204,דירה בבית קומות,3.0,קומה ‎30‏,105.55,2500000,,,2000.0,,24.0,3224291485,1,6207877,False,32% ב 3.7 שנים,רמת גן,בגין מנחם,8.65,6207-877-204,6207/877,23685.4571293226,32.0844858541,34.7994713944,2011
2011-07-28,2011-07-28,"ברקאי 17, רמת גן",ברקאי 17,6158-750-5,דירה בבית קומות,2.0,ראשונה,60.0,1035000,,,1950.0,,2.0,3224974725,1,6158750,False,,רמת גן,ברקאי,,6158-750-5,6158/750,17250.0,32.0771085923,34.8268042555,2011
2011-07-28,2011-07-28,"שלם 22, רמת גן",שלם 22,6142-94-8,דירה בבית קומות,3.0,קרקע,43.2,850000,,,1960.0,,2.0,3225226474,1,614294,False,,רמת גן,שלם,,6142-94-8,6142/94,19675.925925925923,32.0490555971,34.8145249758,2011
2011-07-27,2011-07-27,"צבי 14, רמת גן",צבי 14,6128-676-41,דירה בבית קומות,4.0,שישית,110.6,2200000,,,1998.0,,11.0,3225033798,1,6128676,False,,רמת גן,צבי,,6128-676-41,6128/676,19891.500904159133,32.0808638397,34.8022086095,2011
2011-07-27,2011-07-27,"הרא""ה 157, רמת גן","הרא""ה 157",6158-986-1,דירה בבית קומות,3.0,ראשונה,62.15,1380000,,,2006.0,,6.0,3224119457,1,6158986,False,,רמת גן,"הרא""ה",,6158-986-1,6158/986,22204.34432823813,32.0752524746,34.8252800648,2011
2011-07-27,2011-07-27,"הצלע 14, רמת גן",הצלע 14,6204-555-12,קוטג' חד משפחתי,3.0,רביעית,65.54,1490000,,,1974.0,,5.0,3224205587,1,6204555,False,,רמת גן,הצלע,,6204-555-12,6204/555,22734.208117180347,32.0946403566,34.8201417278,2011
2011-07-27,2011-07-27,"משה שרת 58, רמת גן",משה שרת 58,6125-259-9,דירה בבית קומות,2.0,ראשונה,25.0,797000,,,1960.0,,2.0,3224385010,1,6125259,False,15% ב 1.5 שנים,רמת גן,שרת משה,10.0,6125-259-9,6125/259,31880.0,32.0875799466,34.8152094059,2011
2011-07-27,2011-07-27,"אלימלך רימלט 16, רמת גן",אלימלך רימלט 16,6186-679-149,דירה בבית קומות,4.0,שבע עשרה,105.5,2271000,,,2011.0,,24.0,3224954396,1,6186679,False,,רמת גן,רימלט אלימלך,,6186-679-149,6186/679,21526.066350710906,32.0710419125,34.8321186831,2011
