DEALDATE,DEALDATETIME,FULLADRESS,DISPLAYADRESS,GUSH,DEALNATUREDESCRIPTION,ASSETROOMNUM,FLOORNO,DEALNATURE,DEALAMOUNT,NEWPROJECTTEXT,PROJECTNAME,BUILDINGYEAR,YEARBUILT,BUILDINGFLOORS,KEYVALUE,TYPE,POLYGON_ID,TREND_IS_NEGATIVE,TREND_FORMAT,city_name,street,presentage per year,GUSH - Copy,Gush_Helka,Price per sqm,lat,lon,Year
2007-12-31,2007-12-31,"חטיבת הראל 107, ירושלים",חטיבת הראל 107,30102-139-11,דירה בבית קומות,4.0,ראשונה,100.0,725000,,,1960.0,,5.0,3240381510,1,30102139,False,,ירושלים,חטיבת הראל,,30102-139-11,30102/139,7250.0,31.7955433297,35.2220180564,2007
2007-12-31,2007-12-31,"המשורר אצ""ג 54, ירושלים","המשורר אצ""ג 54",30732-6-1,דירה בבית קומות,7.0,ראשונה,287.0,2884000,,,1992.0,,,3240113430,1,307326,False,,ירושלים,"המשורר אצ""ג",,30732-6-1,30732/6,10048.780487804876,31.8254656373,35.1863598377,2007
2007-12-31,2007-12-31,"אברהם שטרן 49, ירושלים",אברהם שטרן 49,30415-135-14,דירה בבית קומות,3.0,רביעית,52.0,576000,,,1960.0,,9.0,3240101310,1,30415135,False,,ירושלים,שטרן אברהם,,30415-135-14,30415/135,11076.923076923076,31.753708951,35.1764797621,2007
2007-12-31,2007-12-31,"פסח חברוני 3, ירושלים",פסח חברוני 3,30397-56-18,דירה בבית קומות,4.0,שישית,76.9,749000,,,1970.0,,15.0,3240055500,1,3039756,False,,ירושלים,פסח חברוני,,30397-56-18,30397/56,9739.921976592976,31.7614703026,35.1697110601,2007
2007-12-31,2007-12-31,"יד חרוצים 4, ירושלים",יד חרוצים 4,30002-46-47,תעשיה,,שלישית,74.2,816000,,,1980.0,,4.0,3240405270,1,3000246,False,,ירושלים,יד חרוצים,,30002-46-47,30002/46,10997.30458221024,31.7546009708,35.2164256236,2007
2007-12-31,2007-12-31,"מנחם גלרנטר 20, ירושלים",מנחם גלרנטר 20,29937-53-16,דירה בבית קומות,4.0,ראשונה,88.0,920000,,,2007.0,,6.0,3240167640,1,2993753,False,,ירושלים,גלרנטר מנחם,,29937-53-16,29937/53,10454.545454545454,31.7216147241,35.2230437315,2007
2007-12-31,2007-12-31,"אהרון אשכולי 10, ירושלים",אהרון אשכולי 10,30714-5-46,דירה בבית קומות,4.0,ראשונה,79.8,880000,,,1980.0,,3.0,3240138210,1,307145,False,,ירושלים,אשכולי אהרון,,30714-5-46,30714/5,11027.568922305763,31.8111166632,35.1946123018,2007
2007-12-31,2007-12-31,"המאירי 8, ירושלים",המאירי 8,30153-18-6,חנות,,קרקע,44.0,320000,,,1950.0,,3.0,3240875460,1,3015318,False,,ירושלים,המאירי,,30153-18-6,30153/18,7272.727272727273,31.7859037843,35.1948640945,2007
2007-12-31,2007-12-31,"עזה 58, ירושלים",עזה 58,30025-150-9,דירה בבית קומות,3.0,ראשונה,65.0,1320000,,,1960.0,,2.0,3240529230,1,30025150,False,,ירושלים,עזה,,30025-150-9,30025/150,20307.69230769231,31.7710697156,35.2121675747,2007
2007-12-30,2007-12-30,"יערי אברהם 9, ירושלים",יערי אברהם 9,28046-5-282,דירה בבית קומות,5.0,שלישית,119.3,1000000,,,1980.0,,4.0,3240229020,1,280465,False,,ירושלים,יערי אברהם,,28046-5-282,28046/5,8382.229673093043,31.7342213902,35.1958463527,2007
2007-12-30,2007-12-30,"ימין אבות 7, ירושלים",ימין אבות 7,30157-155-7,דירה בבית קומות,4.0,שניה,107.7,1720000,,,1993.0,,5.0,3240117900,1,30157155,False,,ירושלים,ימין אבות,,30157-155-7,30157/155,15970.2878365831,,,2007
2007-12-30,2007-12-30,"גרמי ציון 18, ירושלים",גרמי ציון 18,30590-341-3,דירה בבית קומות,4.0,,80.0,788000,,,1998.0,,,3240136200,1,30590341,False,,ירושלים,גרמי ציון,,30590-341-3,30590/341,9850.0,31.8198365002,35.2570741743,2007
2007-12-30,2007-12-30,"היוזמה 16, ירושלים",היוזמה 16,31298-30-19,תעשיה,,ראשונה,1231.5,2229000,,,1975.0,,1.0,3240372060,1,3129830,False,,ירושלים,היזמה,,31298-30-19,31298/30,1809.987819732034,31.8510954944,35.2215426068,2007
2007-12-30,2007-12-30,"גואטמאלה 3, ירושלים",גואטמאלה 3,30413-83-9,דירה בבית קומות,2.0,תשיעית,50.0,906000,,,1993.0,,10.0,3240230730,1,3041383,False,,ירושלים,גואטמאלה,,30413-83-9,30413/83,18120.0,31.7605160849,35.1775239406,2007
2007-12-30,2007-12-30,"שושנה 7, ירושלים",שושנה 7,30153-44-11,דירה בבית קומות,2.0,ראשונה,45.0,782000,,,1960.0,,2.0,3240140940,1,3015344,False,0% ב 1.2 שנים,ירושלים,שושנה,0.0,30153-44-11,30153/44,17377.777777777777,31.7850803216,35.1956142467,2007
2007-12-30,2007-12-30,"פרימו לוי 1, ירושלים",פרימו לוי 1,30695-56-23,דירה בבית קומות,4.0,שלישית,95.0,1270000,,,2007.0,,,3240560160,1,3069556,False,,ירושלים,פרימו לוי,,30695-56-23,30695/56,13368.421052631578,31.7510111337,35.2273471086,2007
2007-12-30,2007-12-30,"ברזיל 26, ירושלים",ברזיל 26,30399-7-1,דירה בבית קומות,3.0,ראשונה,55.8,538000,,,1960.0,,8.0,3240010200,1,303997,False,,ירושלים,ברזיל,,30399-7-1,30399/7,9641.5770609319,31.7644100903,35.1721481831,2007
2007-12-30,2007-12-30,"ראובן מס 127, ירושלים",ראובן מס 127,30714-12-141,דירה בבית קומות,3.0,שניה,59.0,850000,,,1980.0,,6.0,3240023370,1,3071412,False,,ירושלים,מס ראובן,,30714-12-141,30714/12,14406.77966101695,31.8105989433,35.1973274506,2007
2007-12-28,2007-12-28,"הרצל 121, ירושלים",הרצל 121,30163-177-10,דירה בבית קומות,3.0,שניה,81.0,990000,,,1960.0,,2.0,3240533430,1,30163177,False,,ירושלים,הרצל,,30163-177-10,30163/177,12222.222222222224,31.7789421518,35.187417312,2007
2007-12-27,2007-12-27,"ציפורה 8, ירושלים",ציפורה 8,30001-31-13,דירה בבית קומות,3.0,שלישית,58.1,734000,,,1960.0,,4.0,3240608400,1,3000131,False,28% ב 5 שנים,ירושלים,צפורה,5.6,30001-31-13,30001/31,12633.390705679862,31.7553871593,35.2197028533,2007
2007-12-27,2007-12-27,"ארץ חפץ 102, ירושלים",ארץ חפץ 102,30102-131-14,דירה בבית קומות,4.0,שלישית,64.0,929000,,,1970.0,,5.0,3240341640,1,30102131,False,,ירושלים,ארץ חפץ,,30102-131-14,30102/131,14515.625,31.796283195,35.222570287,2007
2007-12-27,2007-12-27,"הצפירה 7, ירושלים",הצפירה 7,30010-77-7,דירה בבית קומות,3.0,ראשונה,38.8,1575000,,,1960.0,,2.0,3240509970,1,3001077,False,,ירושלים,הצפירה,,30010-77-7,30010/77,40592.78350515464,31.7640717118,35.2182700121,2007
2007-12-27,2007-12-27,"ברזיל 28, ירושלים",ברזיל 28,30399-6-38,דירה בבית קומות,2.0,שמינית,37.5,518000,,,1960.0,,8.0,3240031980,1,303996,False,,ירושלים,ברזיל,,30399-6-38,30399/6,13813.333333333334,31.7640194211,35.1720890419,2007
2007-12-27,2007-12-27,"החלוץ 58, ירושלים",החלוץ 58,30159-154-5,דירה בבית קומות,5.0,שלישית,113.0,1739000,,,1960.0,,3.0,3216043080,1,30159154,False,,ירושלים,החלוץ,,30159-154-5,30159/154,15389.38053097345,31.7763999577,35.1897189289,2007
2007-12-27,2007-12-27,"הרב הירשלר 9, ירושלים",הרב הירשלר 9,30562-42-10,דירה בבית קומות,3.0,קרקע,72.2,967000,,,1990.0,,2.0,3240051060,1,3056242,False,,ירושלים,הרב הירשלר,,30562-42-10,30562/42,13393.351800554015,31.8083984604,35.2221107371,2007
2007-12-27,2007-12-27,"הרב צבי יהודה 1, ירושלים",הרב צבי יהודה 1,30138-35-8,דירה בבית קומות,2.0,ראשונה,63.0,720000,,,1950.0,,2.0,3240229260,1,3013835,False,,ירושלים,הרב צבי יהודה,,30138-35-8,30138/35,11428.57142857143,,,2007
2007-12-27,2007-12-27,"נרות שבת 622, ירושלים",נרות שבת 622,30718-12-35,דירה בבית קומות,4.0,שניה,96.1,1128000,,,1980.0,,2.0,3240797520,1,3071812,False,,ירושלים,נרות שבת,,30718-12-35,30718/12,11737.77315296566,31.8172917773,35.2061581604,2007
2007-12-27,2007-12-27,"כתריאל טחורש 7, ירושלים",כתריאל טחורש 7,30338-252-5,דירה בבית קומות,3.0,ראשונה,71.15,1470000,,,1997.0,,3.0,3240054570,1,30338252,False,,ירושלים,טחורש כתריאל,,30338-252-5,30338/252,20660.57624736472,31.7725405223,35.1883750625,2007
2007-12-27,2007-12-27,"שחראי 1, ירושלים",שחראי 1,30164-275-35,דירה בבית קומות,5.0,חמישית,114.4,2214000,,,2007.0,,8.0,3240258480,1,30164275,False,,ירושלים,שחראי,,30164-275-35,30164/275,19353.146853146853,31.7700613753,35.1860243477,2007
2007-12-27,2007-12-27,"הרב צבי יהודה 1, ירושלים",הרב צבי יהודה 1,30138-35-8,דירה בבית קומות,2.0,ראשונה,63.0,720000,,,1950.0,,2.0,3240229260,1,3013835,False,,ירושלים,יהודה,,30138-35-8,30138/35,11428.57142857143,,,2007
2007-12-26,2007-12-26,"קורא הדורות 38, ירושלים",קורא הדורות 38,30117-33-3,דירה בבית קומות,5.0,קומה ‎1‏,141.8,1400000,,,1960.0,,6.0,3216004470,1,3011733,False,32% ב 3.6 שנים,ירושלים,קורא הדורות,8.89,30117-33-3,30117/33,9873.060648801127,31.7479679261,35.2215315591,2007
2007-12-26,2007-12-26,"האנפה 10, ירושלים",האנפה 10,28050-39-28,דירה בבית קומות,3.0,שניה,62.1,533000,,,1980.0,,4.0,3240144150,1,2805039,False,,ירושלים,האנפה,,28050-39-28,28050/39,8582.9307568438,31.7268291553,35.1895231729,2007
2007-12-26,2007-12-26,"תכלת מרדכי 5, ירושלים",תכלת מרדכי 5,30236-128-33,דירה בבית קומות,4.0,שלישית,93.3,1356000,,,2001.0,,9.0,3240270060,1,30236128,False,,ירושלים,תכלת מרדכי,,30236-128-33,30236/128,14533.762057877811,31.7934104225,35.2059994533,2007
2007-12-26,2007-12-26,"אל-קאעה 47, ירושלים",אל-קאעה 47,30286-71-1,דירה בבית קומות,6.0,ראשונה,280.0,1379000,,,1995.0,,1.0,3240565170,1,3028671,False,,ירושלים,אל-קאעה,,30286-71-1,30286/71,4925.0,31.7432493568,35.2093350419,2007
2007-12-26,2007-12-26,"עמק רפאים 59, ירושלים",עמק רפאים 59,30003-70-47,דירה בבית קומות,2.0,שלישית,48.4,936000,,,1980.0,,3.0,3240361890,1,3000370,False,47% ב 3.3 שנים,ירושלים,עמק רפאים,14.24,30003-70-47,30003/70,19338.84297520661,31.7606601525,35.216761404,2007
2007-12-26,2007-12-26,"ראובן גמזון 1, ירושלים",ראובן גמזון 1,30646-5-38,דירה בבית קומות,3.0,שלישית,56.3,568000,,,1970.0,,3.0,3240179520,1,306465,False,,ירושלים,גמזון ראובן,,30646-5-38,30646/5,10088.809946714033,31.8425163611,35.2397631244,2007
2007-12-26,2007-12-26,"כובשי קטמון 6, ירושלים",כובשי קטמון 6,30007-15-11,דירה בבית קומות,2.0,ראשונה,44.0,1220000,,,1960.0,,3.0,3240079050,1,3000715,False,82% ב 1 שנים,ירושלים,כובשי קטמון,82.0,30007-15-11,30007/15,27727.272727272728,31.7662554102,35.210325557,2007
2007-12-25,2007-12-25,"די זהב 1, ירושלים",די זהב 1,30245-177-7,דירה בבית קומות,3.0,שלישית,63.0,1000000,,,1970.0,,3.0,3240344610,1,30245177,False,,ירושלים,די זהב,,30245-177-7,30245/177,15873.015873015873,31.8015597991,35.2223252216,2007
2007-12-25,2007-12-25,"דב גרונר 13, ירושלים",דב גרונר 13,30204-16-38,דירה בבית קומות,2.0,חמישית,40.0,581000,,,1970.0,,7.0,3240096330,1,3020416,False,47% ב 5 שנים,ירושלים,גרונר דב,9.4,30204-16-38,30204/16,14525.0,31.7505792617,35.2356665307,2007
2007-12-25,2007-12-25,"בית חוגלה 4, ירושלים",בית חוגלה 4,30117-39-6,דירה בבית קומות,3.5,שניה,75.7,1040000,,,1970.0,,2.0,3215961210,1,3011739,False,19% ב 5.3 שנים,ירושלים,בית חגלה,3.58,30117-39-6,30117/39,13738.441215323646,31.751034357,35.2234604214,2007
2007-12-25,2007-12-25,"כמון 6, ירושלים",כמון 6,28113-9-21,דירה בבית קומות,4.0,שניה,98.5,932000,,,1980.0,,3.0,3216047040,1,281139,False,,ירושלים,כמון,,28113-9-21,28113/9,9461.928934010151,31.7315115789,35.1818168777,2007
2007-12-25,2007-12-25,"חרל""פ 21, ירושלים","חרל""פ 21",30023-168-8,דירה בבית קומות,2.0,שניה,52.0,988000,,,1950.0,,3.0,3240420300,1,30023168,False,,ירושלים,"חרל""פ",,30023-168-8,30023/168,19000.0,31.7692330695,35.2121507492,2007
2007-12-25,2007-12-25,"בן-ציון 20, ירושלים",בן-ציון 20,30151-84-13,דירה בבית קומות,3.5,ראשונה,72.0,1134000,,,1960.0,,6.0,3215979990,1,3015184,False,,ירושלים,בן ציון,,30151-84-13,30151/84,15750.0,31.7898695054,35.1942627293,2007
2007-12-25,2007-12-25,"בנימין מטודלה 19, ירושלים",בנימין מטודלה 19,30025-153-13,דירה בבית קומות,3.0,שלישית,64.0,1330000,,,1950.0,,4.0,3240254730,1,30025153,False,,ירושלים,בנימין מטודלה,,30025-153-13,30025/153,20781.25,31.7713007753,35.2114447395,2007
2007-12-25,2007-12-25,"יערי אברהם 1, ירושלים",יערי אברהם 1,28046-5-123,דירה בבית קומות,3.0,רביעית,70.5,515000,,,1980.0,,4.0,3240295140,1,280465,False,3% ב 6.6 שנים,ירושלים,יערי אברהם,0.45,28046-5-123,28046/5,7304.964539007092,31.7342213902,35.1958463527,2007
2007-12-25,2007-12-25,"אשר גולאק 26, ירושלים",אשר גולאק 26,30645-71-20,דירה בבית קומות,3.0,חמישית,64.5,717000,,,1970.0,,7.0,3215961450,1,3064571,False,,ירושלים,גולאק אשר,,30645-71-20,30645/71,11116.279069767445,31.8418103584,35.2430695807,2007
2007-12-25,2007-12-25,"אבשלום חביב 30, ירושלים",אבשלום חביב 30,30207-13-26,דירה בבית קומות,3.0,שניה,59.5,628000,,,1970.0,,4.0,3240746820,1,3020713,False,,ירושלים,חביב אבשלום,,30207-13-26,30207/13,10554.621848739496,31.7510289739,35.2395537747,2007
2007-12-25,2007-12-25,"משה זקס 7, ירושלים",משה זקס 7,30090-11-3,דירה בבית קומות,3.0,,75.0,1048000,,,1970.0,,1.0,3240373320,1,3009011,False,,ירושלים,זקס משה,,30090-11-3,30090/11,13973.333333333334,31.789930932,35.2258230993,2007
2007-12-24,2007-12-24,"מרגלית 305, ירושלים",מרגלית 305,28052-70-1,דירה בבית קומות,3.0,קרקע,63.9,450000,,,1980.0,,4.0,3216025770,1,2805270,False,,ירושלים,מרגלית,,28052-70-1,28052/70,7042.2535211267605,31.7275205984,35.187668939,2007
2007-12-24,2007-12-24,"הברכה 2, ירושלים",הברכה 2,30563-30-17,דירה בבית קומות,4.0,קרקע,111.9,1170000,,,1995.0,,2.0,3240261690,1,3056330,False,,ירושלים,הברכה,,30563-30-17,30563/30,10455.764075067023,31.8113870271,35.2186112378,2007
2007-12-24,2007-12-24,"דיזרעאלי 11, ירושלים",דיזרעאלי 11,30021-44-3,דירה בבית קומות,6.0,שניה+שלישית,208.1,11046000,,,2007.0,,2.0,3216047760,1,3002144,False,,ירושלים,דישראלי,,30021-44-3,30021/44,53080.24987986545,31.7700297319,35.2190635005,2007
2007-12-24,2007-12-24,"קונדר 3, ירושלים",קונדר 3,30506-5-1,דירה בבית קומות,5.0,ראשונה,140.0,1365000,,,1956.0,,1.0,3215998350,1,305065,False,,ירושלים,קונדר,,30506-5-1,30506/5,9750.0,31.7908336557,35.2280105961,2007
2007-12-24,2007-12-24,"שמואל ברוכים 5, ירושלים",שמואל ברוכים 5,30101-108-21,דירה בבית קומות,2.0,רביעית,63.0,990000,,,1960.0,,4.0,3240175320,1,30101108,False,,ירושלים,ברוכים שמואל,,30101-108-21,30101/108,15714.285714285714,31.794988531,35.2157068542,2007
2007-12-23,2007-12-23,"כנפי נשרים 3, ירושלים",כנפי נשרים 3,30261-160-42,משרד,,קרקע,116.4,844000,,,1960.0,,2.0,3240405990,1,30261160,False,,ירושלים,כנפי נשרים,,30261-160-42,30261/160,7250.859106529209,31.7865860544,35.190041519,2007
2007-12-23,2007-12-23,"שאר ישוב 36, ירושלים",שאר ישוב 36,30714-22-4,דירה בבית קומות,5.0,ראשונה + שניה,117.0,1617000,,,1985.0,,2.0,3240701250,1,3071422,False,,ירושלים,שאר ישוב,,30714-22-4,30714/22,13820.51282051282,31.8103960965,35.1959694791,2007
2007-12-23,2007-12-23,"גולומב 41, ירושלים",גולומב 41,30461-43-15,דירה בבית קומות,5.0,ראשונה,124.5,1930000,,,2008.0,,6.0,3240796500,1,3046143,False,,ירושלים,גולומב,,30461-43-15,30461/43,15502.008032128511,31.7545365345,35.1881235102,2007
2007-12-23,2007-12-23,"פנחס קהתי 2, ירושלים",פנחס קהתי 2,30230-102-206,דירה בבית קומות,4.0,,100.0,1327000,,,2005.0,,2.0,3216046050,1,30230102,False,,ירושלים,קהתי פנחס,,30230-102-206,30230/102,13270.0,31.7935431804,35.1917788862,2007
2007-12-23,2007-12-23,"בן-יפונה 13, ירושלים",בן-יפונה 13,30001-18-1,דירה בבית קומות,2.0,קרקע,48.0,2713000,,,1930.0,,3.0,3240857940,1,3000118,False,,ירושלים,בן יפונה,,30001-18-1,30001/18,56520.833333333336,31.7565633215,35.2189470359,2007
2007-12-23,2007-12-23,"אורוגוואי 3, ירושלים",אורוגוואי 3,30413-123-1,דירה בבית קומות,2.0,מרתף ‎-1‏,46.5,450000,,,2000.0,,11.0,3215923320,1,30413123,False,,ירושלים,אורוגואי,,30413-123-1,30413/123,9677.41935483871,31.7610182212,35.1771031137,2007
2007-12-23,2007-12-23,"בראנד אהרון 8, ירושלים",בראנד אהרון 8,30255-115-7,דירה בבית קומות,4.0,שלישית,95.0,1565000,,,1985.0,,6.0,3215971320,1,30255115,False,,ירושלים,בראנד אהרון,,30255-115-7,30255/115,16473.684210526317,31.7845294353,35.1723514161,2007
2007-12-23,2007-12-23,"צביה ויצחק 511, ירושלים",צביה ויצחק 511,28053-24-19,דירה בבית קומות,3.0,רביעית,65.1,512000,,,1980.0,,4.0,3240124080,1,2805324,False,,ירושלים,צביה ויצחק,,28053-24-19,28053/24,7864.823348694317,31.7323159304,35.183772045,2007
2007-12-23,2007-12-23,"בר-אילן 24, ירושלים",בר-אילן 24,30101-53-5,דירה בבית קומות,2.0,קרקע א',55.0,930000,,,1960.0,,2.0,3216036120,1,3010153,False,,ירושלים,בר אילן,,30101-53-5,30101/53,16909.090909090908,31.7946202856,35.21699312,2007
2007-12-20,2007-12-20,"הסביון 5, ירושלים",הסביון 5,30438-64-12,דירה בבית קומות,4.0,שניה,100.0,900000,,,1960.0,,2.0,3215912130,1,3043864,False,,ירושלים,הסביון,,30438-64-12,30438/64,9000.0,31.7543617408,35.1667995349,2007
2007-12-20,2007-12-20,"אבינדב 15, ירושלים",אבינדב 15,30103-39-2,דירה בבית קומות,3.0,,85.0,690000,,,1930.0,,4.0,3240366600,1,3010339,False,,ירושלים,אבינדב,,30103-39-2,30103/39,8117.64705882353,31.7943246437,35.2190909624,2007
2007-12-20,2007-12-20,"ז'בוטינסקי 6, ירושלים",ז'בוטינסקי 6,30027-86-13,דירה בבית קומות,3.0,ראשונה,73.0,1675000,,,1950.0,,3.0,3240542820,1,3002786,False,,ירושלים,ז'בוטינסקי,,30027-86-13,30027/86,22945.20547945205,31.7714756077,35.2218274202,2007
2007-12-20,2007-12-20,"יצחק קצנלסון 5, ירושלים",יצחק קצנלסון 5,30185-175-1,דירה בבית קומות,5.0,קרקע,141.3,2976000,,,1989.0,,5.0,3215968410,1,30185175,False,41% ב 7.8 שנים,ירושלים,קצנלסון,5.26,30185-175-1,30185/175,21061.571125265396,31.7621691761,35.2033001781,2007
2007-12-20,2007-12-20,"שרי ישראל 13, ירושלים",שרי ישראל 13,30076-195-42,דירה בבית קומות,5.0,שניה,126.55,2224000,,,2006.0,,8.0,3240762600,1,30076195,False,,ירושלים,שרי ישראל,,30076-195-42,30076/195,17574.081390754644,31.7894329646,35.2068171222,2007
2007-12-20,2007-12-20,"חביב חיים 7, ירושלים",חביב חיים 7,30407-117-2,דירה בבית קומות,4.0,ראשונה,74.0,819000,,,1970.0,,7.0,3240307200,1,30407117,False,,ירושלים,חביב חיים,,30407-117-2,30407/117,11067.567567567568,31.7681445454,35.1732539749,2007
2007-12-20,2007-12-20,"שלום יהודה 3, ירושלים",שלום יהודה 3,30115-38-15,דירה בבית קומות,3.0,שניה,77.0,1013000,,,1970.0,,3.0,3240133740,1,3011538,False,,ירושלים,שלום יהודה,,30115-38-15,30115/38,13155.844155844155,31.7527930787,35.2212233654,2007
2007-12-20,2007-12-20,"הנרי מורגנטאו 42, ירושלים",הנרי מורגנטאו 42,30719-16-40,דירה בבית קומות,5.0,ראשונה,147.1,1242000,,,1980.0,,3.0,3240211440,1,3071916,False,,ירושלים,מורגנטאו הנרי,,30719-16-40,30719/16,8443.235893949695,31.8126063331,35.2045224006,2007
2007-12-20,2007-12-20,"שמואל הנביא 34, ירושלים",שמואל הנביא 34,30090-3-19,דירה בבית קומות,5.0,שלישית,119.1,1451000,,,1970.0,,5.0,3215972790,1,300903,False,,ירושלים,שמואל הנביא,,30090-3-19,30090/3,12183.03946263644,31.7902604687,35.2253785959,2007
2007-12-19,2007-12-19,"משמר הגבול 10, ירושלים",משמר הגבול 10,30245-206-11,דירה בבית קומות,3.0,ראשונה,72.9,1050000,,,1970.0,,3.0,3215992860,1,30245206,False,,ירושלים,משמר הגבול,,30245-206-11,30245/206,14403.292181069955,31.8002765065,35.2221206207,2007
2007-12-19,2007-12-19,"אשר 2, ירושלים",אשר 2,30014-143-2,דירה בבית קומות,2.0,ראשונה,53.0,834000,,,1980.0,,4.0,3215907990,1,30014143,False,68% ב 5.4 שנים,ירושלים,אשר,12.59,30014-143-2,30014/143,15735.849056603774,31.7586602101,35.2158581791,2007
2007-12-19,2007-12-19,"צבייה ויצחק 238, ירושלים",צבייה ויצחק 238,28049-17-37,דירה בבית קומות,4.0,שלישית,70.9,597000,,,1980.0,,5.0,3240671070,1,2804917,False,15% ב 7.7 שנים,ירושלים,צביה ויצחק,1.95,28049-17-37,28049/17,8420.31029619182,31.7302830435,35.192928509,2007
2007-12-19,2007-12-19,"המליץ 1, ירושלים",המליץ 1,30010-103-20,דירה בבית קומות,2.0,שניה,51.0,910000,,,1960.0,,3.0,3240075060,1,30010103,False,31% ב 4.1 שנים,ירושלים,המליץ,7.56,30010-103-20,30010/103,17843.13725490196,31.7642242379,35.2195268116,2007
2007-12-19,2007-12-19,"מאיר אבנר 2, ירושלים",מאיר אבנר 2,30407-78-14,דירה בבית קומות,4.0,רביעית,100.0,712000,,,1960.0,,4.0,3240255990,1,3040778,False,,ירושלים,מאיר אבנר,,30407-78-14,30407/78,7120.0,31.7676090205,35.1725217825,2007
2007-12-19,2007-12-19,"חיים מרינוב 21, ירושלים",חיים מרינוב 21,29936-91-69,דירה בבית קומות,4.0,,96.0,840000,,,2008.0,,7.0,3240317880,1,2993691,False,,ירושלים,מרינוב חיים,,29936-91-69,29936/91,8750.0,31.7203131879,35.2185597177,2007
2007-12-19,2007-12-19,"הרב קצנלבוגן רפאל 62, ירושלים",הרב קצנלבוגן רפאל 62,30255-68-11,דירה בבית קומות,5.0,חמישית,132.0,1956000,,,1988.0,,8.0,3215948310,1,3025568,False,,ירושלים,הרב קצנלבוגן רפאל,,30255-68-11,30255/68,14818.181818181818,31.7826288083,35.175495889,2007
2007-12-19,2007-12-19,"הפלמ""ח 20, ירושלים","הפלמ""ח 20",30023-145-15,דירה בבית קומות,4.0,שלישית,86.0,2173000,,,1950.0,,4.0,3240253770,1,30023145,False,,ירושלים,"הפלמ""ח",,30023-145-15,30023/145,25267.441860465115,31.76764416,35.2113484914,2007
2007-12-19,2007-12-19,"חיים מרינוב 1, ירושלים",חיים מרינוב 1,29936-83-4,מחסנים,,שניה,116.6,1200000,,,2007.0,,,3240162660,1,2993683,False,,ירושלים,מרינוב חיים,,29936-83-4,29936/83,10291.595197255576,31.7211072006,35.2170369134,2007
2007-12-19,2007-12-19,"ליפסקי לואי 38, ירושלים",ליפסקי לואי 38,30718-6-42,דירה בבית קומות,2.0,ראשונה,41.7,596000,,,1980.0,,4.0,3240089430,1,307186,False,,ירושלים,ליפסקי לואי,,30718-6-42,30718/6,14292.565947242205,31.8167388263,35.2035081182,2007
2007-12-18,2007-12-18,"אברהם שטרן 57, ירושלים",אברהם שטרן 57,30415-210-26,דירה בבית קומות,2.5,חמישית,43.0,525000,,,1970.0,,9.0,3215913150,1,30415210,False,,ירושלים,שטרן אברהם,,30415-210-26,30415/210,12209.302325581397,31.7551525933,35.1763338015,2007
2007-12-18,2007-12-18,"ניקרגוואה 1, ירושלים",ניקרגוואה 1,30435-14-8,דירה בבית קומות,4.0,רביעית,67.8,586000,,,1960.0,,4.0,3215955990,1,3043514,False,24% ב 2.5 שנים,ירושלים,ניקרגואה,9.6,30435-14-8,30435/14,8643.06784660767,31.7585180078,35.16388822,2007
2007-12-18,2007-12-18,"שחראי 1, ירושלים",שחראי 1,30164-275-19,דירה בבית קומות,5.0,רביעית,116.7,1748000,,,2007.0,,8.0,3240518340,1,30164275,False,,ירושלים,שחראי,,30164-275-19,30164/275,14978.577549271637,31.7700613753,35.1860243477,2007
2007-12-18,2007-12-18,"אליהו קורן 17, ירושלים",אליהו קורן 17,29937-53-6,דירה בבית קומות,4.0,שניה,83.0,880000,,,2008.0,,6.0,3240198060,1,2993753,False,,ירושלים,קורן אליהו,,29937-53-6,29937/53,10602.409638554216,31.7216147241,35.2230437315,2007
2007-12-18,2007-12-18,"דב גרונר 16, ירושלים",דב גרונר 16,30204-3-9,דירה בבית קומות,4.0,שניה,87.0,821000,,,1980.0,,2.0,3215888910,1,302043,False,28% ב 6.8 שנים,ירושלים,גרונר דב,4.12,30204-3-9,30204/3,9436.781609195405,31.7509584558,35.2363584506,2007
2007-12-18,2007-12-18,"רבי תנחומא 11, ירושלים",רבי תנחומא 11,30143-187-38,דירה בבית קומות,3.0,שניה,61.4,681000,,,1970.0,,3.0,3240639120,1,30143187,False,,ירושלים,רבי תנחומא,,30143-187-38,30143/187,11091.205211726385,31.7520922624,35.2044069452,2007
2007-12-18,2007-12-18,"זרח ברנט 9, ירושלים",זרח ברנט 9,30255-159-9,דירה בבית קומות,4.0,חמישית,110.4,1192000,,,1980.0,,6.0,3240243090,1,30255159,False,34% ב 8.3 שנים,ירושלים,ברנט זרח,4.1,30255-159-9,30255/159,10797.101449275362,31.7822819568,35.1747152304,2007
2007-12-18,2007-12-18,"הרקפת 19, ירושלים",הרקפת 19,30438-3-8,דירה בבית קומות,2.0,שניה,36.6,580000,,,1960.0,,2.0,3240211890,1,304383,False,,ירושלים,הרקפת,,30438-3-8,30438/3,15846.994535519125,31.7543387515,35.1647159451,2007
2007-12-18,2007-12-18,"הצדיק משטפנשט 32, ירושלים",הצדיק משטפנשט 32,30566-33-2,קוטג' דו משפחתי,5.0,ראשונה,170.0,2424000,,,1995.0,,,3240793530,1,3056633,False,,ירושלים,הצדיק משטפנשט,,30566-33-2,30566/33,14258.823529411764,31.815885779,35.2160176229,2007
2007-12-18,2007-12-18,"קדיש לוז 2, ירושלים",קדיש לוז 2,30193-70-1,דירה בבית קומות,2.5,קרקע,62.4,735000,,,1980.0,,12.0,3215886900,1,3019370,False,,ירושלים,קדיש לוז,,30193-70-1,30193/70,11778.846153846154,31.758929604,35.1842610108,2007
2007-12-18,2007-12-18,"חנה 5, ירושלים",חנה 5,30079-70-7,דירה בבית קומות,3.0,ראשונה,47.0,983000,,,1950.0,,2.0,3240097110,1,3007970,False,,ירושלים,חנה,,30079-70-7,30079/70,20914.89361702128,31.7947034733,35.2140206404,2007
2007-12-18,2007-12-18,"טשרניחובסקי 27, ירושלים",טשרניחובסקי 27,30121-68-9,דירה בבית קומות,3.0,שלישית,65.0,1033000,,,1960.0,,3.0,3240249810,1,3012168,False,,ירושלים,טשרניחובסקי,,30121-68-9,30121/68,15892.307692307691,31.7671499642,35.2062673456,2007
2007-12-18,2007-12-18,"ניות 46, ירושלים",ניות 46,30145-24-8,דירה בבית קומות,4.5,שניה,110.0,1700000,,,1960.0,,1.0,3215887440,1,3014524,False,,ירושלים,ניות,,30145-24-8,30145/24,15454.545454545454,31.7694772664,35.2050081181,2007
2007-12-18,2007-12-18,"בן-מימון 39, ירושלים",בן-מימון 39,30025-54-3,דירה בבית קומות,3.0,קומה ‎1‏,110.0,2195000,,,1960.0,,5.0,3242457060,1,3002554,False,,ירושלים,בן מימון,,30025-54-3,30025/54,19954.545454545456,31.773381741,35.2113147862,2007
2007-12-17,2007-12-17,"כנפי נשרים 13, ירושלים",כנפי נשרים 13,30262-171-4,משרד,,,278.0,5617000,,,1999.0,,4.0,3240316620,1,30262171,False,,ירושלים,כנפי נשרים,,30262-171-4,30262/171,20205.03597122302,31.7872035924,35.1841517592,2007
2007-12-17,2007-12-17,"קורא הדורות 44, ירושלים",קורא הדורות 44,30117-36-1,דירה בבית קומות,3.0,קרקע,52.05,1175000,,,1970.0,,2.0,3240441630,1,3011736,False,,ירושלים,קורא הדורות,,30117-36-1,30117/36,22574.44764649376,31.7474868418,35.2213434741,2007
2007-12-17,2007-12-17,"מכסיקו 15, ירושלים",מכסיקו 15,30436-45-96,דירה בבית קומות,3.0,שלישית,68.9,556000,,,1970.0,,5.0,3215883450,1,3043645,False,,ירושלים,מכסיקו,,30436-45-96,30436/45,8069.66618287373,31.75638003,35.1685509807,2007
2007-12-17,2007-12-17,"פיכמן 4, ירושלים",פיכמן 4,30185-54-3,דירה בבית קומות,4.0,קרקע,95.0,1325000,,,1960.0,,2.0,3215931750,1,3018554,False,,ירושלים,פיכמן,,30185-54-3,30185/54,13947.368421052632,31.764486251,35.2055967569,2007
2007-12-17,2007-12-17,"ויטל חיים 39, ירושלים",ויטל חיים 39,30151-26-1,דירה בבית קומות,4.0,ראשונה,95.0,1563000,,,1970.0,,4.0,3240374070,1,3015126,False,,ירושלים,ויטל חיים,,30151-26-1,30151/26,16452.63157894737,31.7884720571,35.1917543633,2007
2007-12-17,2007-12-17,"מרווה 20, ירושלים",מרווה 20,28113-7-5,דירה בבית קומות,4.0,שלישית,91.0,833000,,,1990.0,,3.0,3215983200,1,281137,False,,ירושלים,מרוה,,28113-7-5,28113/7,9153.846153846154,31.7315011476,35.1812618471,2007
2007-12-16,2007-12-16,"מכסיקו 15, ירושלים",מכסיקו 15,30436-45-100,דירה בבית קומות,4.0,רביעית,72.0,535000,,,1970.0,,5.0,3240837150,1,3043645,False,,ירושלים,מכסיקו,,30436-45-100,30436/45,7430.555555555556,31.75638003,35.1685509807,2007
2007-12-16,2007-12-16,"ניסן הרפז 10, ירושלים",ניסן הרפז 10,30337-224-11,דירה בבית קומות,4.0,רביעית,98.8,1651000,,,2007.0,,6.0,3240016650,1,30337224,False,,ירושלים,הרפז ניסן,,30337-224-11,30337/224,16710.526315789473,31.7740697656,35.1917546032,2007
2007-12-16,2007-12-16,"רוזנבלט 5, ירושלים",רוזנבלט 5,30730-2-90,דירה בבית קומות,3.0,שניה,70.4,880000,,,1980.0,,5.0,3215945580,1,307302,False,,ירושלים,רוזנבלט,,30730-2-90,30730/2,12499.999999999998,31.8186283507,35.1926890789,2007
2007-12-16,2007-12-16,"בני בתירא 6, ירושלים",בני בתירא 6,30123-39-12,דירה בבית קומות,4.0,שניה,89.0,1055000,,,1970.0,,3.0,3215817660,1,3012339,False,,ירושלים,בני בתירא,,30123-39-12,30123/39,11853.932584269663,31.7570884948,35.2041999138,2007
2007-12-16,2007-12-16,"התקופה 6, ירושלים",התקופה 6,30122-10-5,דירה בבית קומות,3.0,שלישית,65.0,1303000,,,1970.0,,7.0,3240476040,1,3012210,False,89% ב 0.6 שנים,ירושלים,התקופה,148.33,30122-10-5,30122/10,20046.153846153848,31.7610397832,35.2006310261,2007
2007-12-16,2007-12-16,"הרב ניסים יצחק 75, ירושלים",הרב ניסים יצחק 75,29937-41-139,דירה בבית קומות,4.0,,90.0,950000,,,2003.0,,7.0,3215992410,1,2993741,False,,ירושלים,הרב ניסים יצחק,,29937-41-139,29937/41,10555.555555555557,31.7227424706,35.2215935355,2007
2007-12-16,2007-12-16,"כתב סופר 16, ירושלים",כתב סופר 16,30096-16-19,דירה בבית קומות,2.0,ראשונה,26.5,476000,,,1950.0,,2.0,3215939160,1,3009616,False,,ירושלים,כתב סופר,,30096-16-19,30096/16,17962.264150943396,31.7923317939,35.1944148397,2007
2007-12-16,2007-12-16,"רבנו גרשום 37, ירושלים",רבנו גרשום 37,30101-94-11,דירה בבית קומות,3.0,שניה,62.0,1528000,,,1950.0,,3.0,3215907270,1,3010194,False,,ירושלים,רבנו גרשום,,30101-94-11,30101/94,24645.16129032258,31.7935457182,35.2181262353,2007
2007-12-16,2007-12-16,"ארץ חפץ 102, ירושלים",ארץ חפץ 102,30102-131-24,דירה בבית קומות,3.0,רביעית,40.4,833000,,,1970.0,,5.0,3215821350,1,30102131,False,,ירושלים,ארץ חפץ,,30102-131-24,30102/131,20618.81188118812,31.796283195,35.222570287,2007
2007-12-16,2007-12-16,"הרב מן ההר 3, ירושלים",הרב מן ההר 3,29937-81-25,דירה בבית קומות,1.0,ראשונה שניה,115.7,1320000,,,2007.0,,7.0,3216007440,1,2993781,False,,ירושלים,הרב מן ההר,,29937-81-25,29937/81,11408.815903197925,31.7221675839,35.2246868689,2007
2007-12-16,2007-12-16,"סן מרטין 17, ירושלים",סן מרטין 17,30199-26-6,דירה בבית קומות,3.0,שלישית,53.5,480000,,,1970.0,,3.0,3241538070,1,3019926,False,,ירושלים,סן מרטין,,30199-26-6,30199/26,8971.96261682243,31.7538404398,35.1931909735,2007
2007-12-16,2007-12-16,"רבי צדוק 13, ירושלים",רבי צדוק 13,30199-21-3,דירה בבית קומות,3.0,ראשונה,79.5,700000,,,1950.0,,4.0,3240123300,1,3019921,False,,ירושלים,רבי צדוק,,30199-21-3,30199/21,8805.031446540881,31.7547390505,35.1931104139,2007
2007-12-16,2007-12-16,"גת 12, ירושלים",גת 12,30138-35-211,דירה בבית קומות,2.0,ראשונה,56.0,733000,,,1950.0,,2.0,3241730880,1,3013835,False,,ירושלים,גת,,30138-35-211,30138/35,13089.285714285714,,,2007
2007-12-14,2007-12-14,"כתריאל טחורש 5, ירושלים",כתריאל טחורש 5,30338-253-7,דירה בבית קומות,4.0,שלישית,72.5,1416000,,,2003.0,,4.0,3215804760,1,30338253,False,,ירושלים,טחורש כתריאל,,30338-253-7,30338/253,19531.03448275862,31.7725716031,35.1886167702,2007
2007-12-14,2007-12-14,"המעפילים 20, ירושלים",המעפילים 20,30185-177-4,דירה בבית קומות,4.0,,103.0,1647000,,,1980.0,,4.0,3240359460,1,30185177,False,,ירושלים,המעפילים,,30185-177-4,30185/177,15990.291262135925,31.7626465758,35.2049445585,2007
2007-12-13,2007-12-13,"הרב הרץ יוסף צבי 28, ירושלים",הרב הרץ יוסף צבי 28,30718-9-37,דירה בבית קומות,2.0,שישית,52.4,647000,,,1980.0,,7.0,3215931990,1,307189,False,64% ב 5.4 שנים,ירושלים,הרב הרץ יוסף צבי,11.85,30718-9-37,30718/9,12347.32824427481,31.8171800883,35.2050725632,2007
2007-12-13,2007-12-13,"ארלוזורוב 9, ירושלים",ארלוזורוב 9,30026-54-3,דירה בבית קומות,3.0,קרקע,96.4,2351000,,,2007.0,,5.0,3514114740,1,3002654,False,,ירושלים,ארלוזורוב,,30026-54-3,30026/54,24387.966804979253,31.7733307907,35.2162212871,2007
2007-12-13,2007-12-13,"פנמה 4, ירושלים",פנמה 4,30435-116-13,דירה בבית קומות,4.0,קרקע,72.0,672000,,,1960.0,,2.0,3240362130,1,30435116,False,,ירושלים,פנמה,,30435-116-13,30435/116,9333.333333333334,31.7571264066,35.1619027402,2007
2007-12-13,2007-12-13,"אודם 30, ירושלים",אודם 30,28055-3-86,דירה בבית קומות,3.5,קרקע,70.4,720000,,,1980.0,,3.0,3215886420,1,280553,False,,ירושלים,אודם,,28055-3-86,28055/3,10227.272727272726,31.7381375421,35.1815347717,2007
2007-12-13,2007-12-13,"זאב חקלאי 2, ירושלים",זאב חקלאי 2,30164-214-62,דירה בבית קומות,3.0,שלישית,55.0,861000,,,1960.0,,4.0,3215884920,1,30164214,False,,ירושלים,חקלאי זאב,,30164-214-62,30164/214,15654.545454545454,31.7730718576,35.1834712364,2007
2007-12-13,2007-12-13,"גואטמאלה 3, ירושלים",גואטמאלה 3,30413-83-166,דירה בבית קומות,2.0,,51.0,687000,,,1993.0,,10.0,3240167880,1,3041383,False,,ירושלים,גואטמאלה,,30413-83-166,30413/83,13470.588235294115,31.7605160849,35.1775239406,2007
2007-12-13,2007-12-13,"נגבה 3, ירושלים",נגבה 3,30007-126-8,דירה בבית קומות,3.0,שניה,49.12,1001000,,,1967.0,,2.0,3240253260,1,30007126,False,,ירושלים,נגבה,,30007-126-8,30007/126,20378.664495114008,31.7632879084,35.2116959613,2007
2007-12-13,2007-12-13,"התיבונים 8, ירושלים",התיבונים 8,30025-158-3,דירה בבית קומות,4.0,שניה,62.0,1300000,,,1950.0,,4.0,3215751300,1,30025158,False,,ירושלים,התיבונים,,30025-158-3,30025/158,20967.74193548387,31.7709980091,35.2114781697,2007
2007-12-13,2007-12-13,"יצחק ברויאר 13, ירושלים",יצחק ברויאר 13,30342-95-15,דירה בבית קומות,3.0,שניה,52.0,866000,,,1960.0,,3.0,3215972310,1,3034295,False,,ירושלים,ברויאר יצחק,,30342-95-15,30342/95,16653.846153846152,31.7665974987,35.1830049355,2007
2007-12-13,2007-12-13,"מיכל 2, ירושלים",מיכל 2,30099-77-1,דירה בבית קומות,4.0,ראשונה,100.0,1354000,,,1970.0,,1.0,3240271530,1,3009977,False,,ירושלים,מיכל,,30099-77-1,30099/77,13540.0,31.7980302252,35.2207216058,2007
2007-12-12,2007-12-12,"הפלמ""ח 64, ירושלים","הפלמ""ח 64",30185-61-3,דירה בבית קומות,3.0,קרקע,59.0,1170000,,,1960.0,,2.0,3215753070,1,3018561,False,,ירושלים,"הפלמ""ח",,30185-61-3,30185/61,19830.508474576272,31.7641764261,35.2063443309,2007
2007-12-12,2007-12-12,"הרב שאולזון 2, ירושלים",הרב שאולזון 2,30272-79-16,דירה בבית קומות,4.0,שישית,87.2,1181000,,,1980.0,,7.0,3215752320,1,3027279,False,,ירושלים,הרב שאולזון,,30272-79-16,30272/79,13543.577981651377,31.7909140162,35.1758958791,2007
2007-12-12,2007-12-12,"שרי ראובן 27, ירושלים",שרי ראובן 27,30732-129-1,דירה בבית קומות,6.0,ראשונה,150.0,3032000,,,1994.0,,1.0,3240314130,1,30732129,False,,ירושלים,שרי ראובן,,30732-129-1,30732/129,20213.33333333333,31.8225092116,35.1847221217,2007
2007-12-12,2007-12-12,"חנוך אלבק 17, ירושלים",חנוך אלבק 17,30112-37-2,דירה בבית קומות,3.0,ראשונה,70.18,1229000,,,1970.0,,3.0,3240055050,1,3011237,False,61% ב 2.1 שנים,ירושלים,אלבק חנוך,29.05,30112-37-2,30112/37,17512.11171273867,31.758393438,35.2254917435,2007
2007-12-12,2007-12-12,"מקווה ישראל 119, ירושלים",מקווה ישראל 119,30100-130-10,דירה בבית קומות,3.0,ראשונה,70.0,1173000,,,1970.0,,4.0,3215818440,1,30100130,False,6% ב 2.4 שנים,ירושלים,מקוה ישראל,2.5,30100-130-10,30100/130,16757.14285714286,31.7975449784,35.2240948815,2007
2007-12-12,2007-12-12,"יחזקאל מרטון 5, ירושלים",יחזקאל מרטון 5,30013-27-4,דירה בבית קומות,3.0,ראשונה,41.0,1220000,,,1960.0,,2.0,3240503730,1,3001327,False,77% ב 0.5 שנים,ירושלים,מרטון יחזקאל,154.0,30013-27-4,30013/27,29756.09756097561,31.7596136326,35.2224716152,2007
2007-12-12,2007-12-12,"ברנר 8, ירושלים",ברנר 8,30027-38-4,דירה בבית קומות,1.0,שלישית,,4331000,,,1970.0,,2.0,3215828760,1,3002738,False,,ירושלים,ברנר,,30027-38-4,30027/38,,31.772367916,35.2183710049,2007
2007-12-12,2007-12-12,"לייב יפה 54, ירושלים",לייב יפה 54,30119-40-3,דירה בבית קומות,7.0,"מרתף,קרקע וראשונה",178.0,4200000,,,1990.0,,,3215722830,1,3011940,False,,ירושלים,לייב יפה,,30119-40-3,30119/40,23595.505617977527,31.7436695702,35.2200074802,2007
2007-12-11,2007-11-12,"בודנהיימר 7, ירושלים",בודנהיימר 7,30412-70-1,דירה בבית קומות,4.0,קרקע,97.2,1924000,,,1950.0,,1.0,3215238510,1,3041270,False,,ירושלים,בודנהימר,,30412-70-1,30412/70,19794.238683127573,31.76363159,35.1755174628,2007
2007-12-11,2007-11-12,"אנטיגונוס 22, ירושלים",אנטיגונוס 22,30133-27-7,דירה בבית קומות,4.0,שניה,120.0,1188000,,,1950.0,,2.0,3215267160,1,3013327,False,,ירושלים,אנטיגנוס,,30133-27-7,30133/27,9900.0,31.7566825629,35.2065232162,2007
2007-12-11,2007-11-12,"בן-מימון 12, ירושלים",בן-מימון 12,30026-7-9,דירה בבית קומות,4.0,שניה,85.0,2733000,,,1950.0,,3.0,3215349330,1,300267,False,,ירושלים,בן מימון,,30026-7-9,30026/7,32152.941176470587,31.7742487631,35.2166214853,2007
2007-12-11,2007-11-12,"בן יוסף שלמה 6, ירושלים",בן יוסף שלמה 6,30209-41-3,דירה בבית קומות,3.0,ראשונה,57.9,484000,,,1970.0,,3.0,3215248890,1,3020941,False,3% ב 6.9 שנים,ירושלים,בן יוסף שלמה,0.43,30209-41-3,30209/41,8359.240069084628,31.7449417015,35.2382469557,2007
2007-12-11,2007-11-12,"ירושלים 52, ראשון לציון",ירושלים 52,3930-346-28,דירה בבית קומות,3.0,שלישית,58.1,484000,,,1970.0,,4.0,9009897876,1,3930346,False,,ירושלים,ראשון לציון,,3930-346-28,3930/346,8330.464716006885,31.9621560653,34.814395911,2007
2007-12-10,2007-10-12,"שלמה דוגה 25, ירושלים",שלמה דוגה 25,28110-35-5,דירה בבית קומות,5.0,ראשונה,125.0,1248000,,,1980.0,,2.0,3215623110,1,2811035,False,,ירושלים,דוגה שלמה,,28110-35-5,28110/35,9984.0,31.7299145131,35.1998266575,2007
2007-12-10,2007-10-12,"שמעוני 33, ירושלים",שמעוני 33,30185-21-2,דירה בבית קומות,2.0,קרקע,42.15,724000,,,1950.0,,1.0,3214893210,1,3018521,False,,ירושלים,שמעוני,,30185-21-2,30185/21,17176.749703440095,31.7635243729,35.2016127644,2007
2007-12-09,2007-09-12,"הפסגה 33, ירושלים",הפסגה 33,30166-103-7,דירה בבית קומות,4.0,ראשונה,77.0,1579000,,,1960.0,,2.0,3214630140,1,30166103,False,21% ב 1.6 שנים,ירושלים,הפסגה,13.12,30166-103-7,30166/103,20506.493506493505,31.767645758,35.1835504619,2007
2007-12-08,2007-08-12,"כובשי קטמון 6, ירושלים",כובשי קטמון 6,30007-15-7,דירה בבית קומות,2.0,קרקע,45.0,1042000,,,1960.0,,3.0,3213922020,1,3000715,False,,ירושלים,כובשי קטמון,,30007-15-7,30007/15,23155.555555555555,31.7662554102,35.210325557,2007
2007-12-08,2007-08-12,"לוי אשכול 26, ירושלים",לוי אשכול 26,30246-18-10,דירה בבית קומות,3.0,קרקע,72.9,1124000,,,1970.0,,3.0,3213895500,1,3024618,False,,ירושלים,לוי אשכול,,30246-18-10,30246/18,15418.381344307269,31.8001081785,35.226096668,2007
2007-12-08,2007-08-12,"איסלנד 20, ירושלים",איסלנד 20,30435-32-5,דירה בבית קומות,3.0,רביעית,40.6,557000,,,1960.0,,4.0,3213892080,1,3043532,False,59% ב 7.7 שנים,ירושלים,איסלנד,7.66,30435-32-5,30435/32,13719.211822660098,31.7592247091,35.1672821585,2007
2007-12-08,2007-08-12,"קשאני אליעזר 43, ירושלים",קשאני אליעזר 43,30206-10-6,דירה בבית קומות,5.0,שניה,87.5,948000,,,1980.0,,4.0,3214096230,1,3020610,False,,ירושלים,קשאני אליעזר,,30206-10-6,30206/10,10834.285714285714,31.7445714194,35.2341999708,2007
2007-12-08,2007-08-12,"ארץ חפץ 102, ירושלים",ארץ חפץ 102,30102-131-54,דירה בבית קומות,4.0,ראשונה,100.0,836000,,,1970.0,,5.0,3213893790,1,30102131,False,81% ב 8 שנים,ירושלים,ארץ חפץ,10.12,30102-131-54,30102/131,8360.0,31.796283195,35.222570287,2007
2007-12-08,2007-08-12,"מיס לנדאו 5, ירושלים",מיס לנדאו 5,30427-16-17,דירה בבית קומות,4.0,שניה,96.4,1124000,,,1999.0,,3.0,3213981180,1,3042716,False,,ירושלים,מיס לנדאו,,30427-16-17,30427/16,11659.751037344398,31.7481731897,35.1720501799,2007
2007-12-08,2007-08-12,"שחראי 12, ירושלים",שחראי 12,30166-61-11,דירה בבית קומות,2.5,שניה,42.0,731000,,,1960.0,,8.0,3214087320,1,3016661,False,14% ב 2 שנים,ירושלים,שחראי,7.0,30166-61-11,30166/61,17404.761904761905,31.7693976178,35.1859798654,2007
2007-12-07,2007-07-12,"שרון 11, ירושלים",שרון 11,30399-21-1,דירה בבית קומות,3.0,קרקע,52.5,669000,,,1960.0,,2.0,3213468060,1,3039921,False,,ירושלים,שרון,,30399-21-1,30399/21,12742.857142857143,31.7652994003,35.1728384527,2007
2007-12-07,2007-07-12,"ברל לוקר 15, ירושלים",ברל לוקר 15,30501-44-10,דירה בבית קומות,3.0,קרקע,62.1,693000,,,1970.0,,3.0,3213758100,1,3050144,False,,ירושלים,ברל לוקר,,30501-44-10,30501/44,11159.420289855072,31.7502993374,35.2013232265,2007
2007-12-07,2007-07-12,"רבנו גרשום 37, ירושלים",רבנו גרשום 37,30101-94-20,דירה בבית קומות,3.0,שלישית,66.0,1236000,,,1950.0,,3.0,3213405480,1,3010194,False,,ירושלים,רבנו גרשום,,30101-94-20,30101/94,18727.272727272728,31.7935457182,35.2181262353,2007
2007-12-07,2007-07-12,"בן-מימון 22, ירושלים",בן-מימון 22,30026-15-6,דירה בבית קומות,5.0,ראשונה,120.0,3027000,,,1950.0,,1.0,3213450240,1,3002615,False,,ירושלים,בן מימון,,30026-15-6,30026/15,25225.0,31.7741977214,35.2158157708,2007
2007-12-07,2007-07-12,"נווה שאנן 18, ירושלים",נווה שאנן 18,30180-65-1,דירה בבית קומות,4.0,ראשונה,97.95,1232000,,,1970.0,,7.0,3214070250,1,3018065,False,,ירושלים,נווה שאנן,,30180-65-1,30180/65,12577.84583971414,31.7703655926,35.2009163188,2007
2007-12-07,2007-07-12,"נווה שאנן 18, ירושלים",נווה שאנן 18,30180-65-8,דירה בבית קומות,4.0,שניה,99.6,1321000,,,1970.0,,7.0,3213578430,1,3018065,False,,ירושלים,נווה שאנן,,30180-65-8,30180/65,13263.052208835345,31.7703655926,35.2009163188,2007
2007-12-07,2007-07-12,"כ""ט בנובמבר 25, ירושלים","כ""ט בנובמבר 25",30009-56-4,דירה בבית קומות,3.0,קרקע,63.0,2089000,,,1930.0,,1.0,3213599760,1,3000956,False,,ירושלים,כט' בנובמבר,,30009-56-4,30009/56,33158.730158730155,31.765968972,35.2143593865,2007
2007-12-07,2007-07-12,"גרוסמן 16, ירושלים",גרוסמן 16,30437-1-7,דירה בבית קומות,3.5,שניה,36.6,600000,,,1960.0,,2.0,3213402270,1,304371,False,,ירושלים,גרוסמן,,30437-1-7,30437/1,16393.44262295082,31.7583406224,35.1696605388,2007
2007-12-06,2007-06-12,"מנדלי מוכר ספרים 5, ירושלים",מנדלי מוכר ספרים 5,30027-123-40,דירה בבית קומות,5.0,חמישית,125.0,3182000,,,1970.0,,7.0,3213638850,1,30027123,False,,ירושלים,מנדלי מוכר ספרים,,30027-123-40,30027/123,25456.0,31.7714243113,35.2205044788,2007
2007-12-06,2007-06-12,"סורוצקין 18, ירושלים",סורוצקין 18,30236-102-7,דירה בבית קומות,3.0,,71.0,1318000,,,1970.0,,9.0,3212828580,1,30236102,False,,ירושלים,סורוצקין,,30236-102-7,30236/102,18563.38028169014,31.7947182373,35.2051207254,2007
2007-12-06,2007-06-12,"אבשלום חביב 18, ירושלים",אבשלום חביב 18,30207-9-40,דירה בבית קומות,3.0,רביעית,59.0,400000,,,1970.0,,4.0,3212713980,1,302079,False,,ירושלים,חביב אבשלום,,30207-9-40,30207/9,6779.661016949152,31.7509355155,35.2382608591,2007
2007-12-06,2007-06-12,"אשר גולאק 26, ירושלים",אשר גולאק 26,30645-71-23,דירה בבית קומות,4.0,חמישית,81.5,679000,,,1970.0,,7.0,3212757060,1,3064571,False,34% ב 7.3 שנים,ירושלים,גולאק אשר,4.66,30645-71-23,30645/71,8331.288343558283,31.8418103584,35.2430695807,2007
2007-12-06,2007-06-12,"קליינמן 14, ירושלים",קליינמן 14,30398-74-26,דירה בבית קומות,3.5,שניה,47.5,723000,,,1960.0,,3.0,3212728590,1,3039874,False,10% ב 8.8 שנים,ירושלים,קליינמן,1.14,30398-74-26,30398/74,15221.052631578948,31.7626476596,35.1745557786,2007
2007-12-06,2007-06-12,"יורדי הסירה 4, ירושלים",יורדי הסירה 4,30007-144-9,דירה בבית קומות,3.0,ראשונה,53.0,1255000,,,1960.0,,2.0,3212810520,1,30007144,False,,ירושלים,יורדי הסירה,,30007-144-9,30007/144,23679.245283018867,31.7628345522,35.2106459872,2007
2007-12-06,2007-06-12,"אב""א אחימאיר 1, ירושלים","אב""א אחימאיר 1",30642-18-34,דירה בבית קומות,4.0,חמישית,72.1,563000,,,1970.0,,6.0,3212870130,1,3064218,False,,ירושלים,אבא אחימאיר,,30642-18-34,30642/18,7808.599167822469,31.8375406152,35.2362860831,2007
2007-12-06,2007-06-12,"איסלנד 30, ירושלים",איסלנד 30,30435-25-3,דירה בבית קומות,2.0,שניה,38.3,528000,,,1960.0,,2.0,3212756820,1,3043525,False,,ירושלים,איסלנד,,30435-25-3,30435/25,13785.90078328982,31.760184472,35.165604551,2007
2007-12-06,2007-06-12,"סן מרטין 1, ירושלים",סן מרטין 1,30169-9-63,דירה בבית קומות,2.0,שניה,35.0,300000,,,1960.0,,5.0,3213693810,1,301699,False,,ירושלים,סן מרטין,,30169-9-63,30169/9,8571.42857142857,31.7564308876,35.1951839023,2007
2007-12-06,2007-06-12,"בן גמלא יהושע 4, ירושלים",בן גמלא יהושע 4,30004-96-4,דירה בבית קומות,3.5,ראשונה,47.06,1097000,,,1950.0,,3.0,3212970360,1,3000496,False,67% ב 4.2 שנים,ירושלים,בן גמלא יהושע,15.95,30004-96-4,30004/96,23310.667233319167,31.759685208,35.2124821429,2007
2007-12-06,2007-06-12,"שמואל הנביא 86, ירושלים",שמואל הנביא 86,30102-46-16,דירה בבית קומות,4.0,,120.0,1632000,,,1960.0,,3.0,3212925870,1,3010246,False,,ירושלים,שמואל הנביא,,30102-46-16,30102/46,13600.0,31.7934957241,35.2223004404,2007
2007-12-06,2007-06-12,"קולומביה 14, ירושלים",קולומביה 14,30435-38-6,דירה בבית קומות,3.0,ראשונה,74.2,600000,,,1960.0,,1.0,3212847420,1,3043538,False,201% ב 2.1 שנים,ירושלים,קולומביה,95.71,30435-38-6,30435/38,8086.253369272237,31.7588709936,35.165698005,2007
2007-12-06,2007-06-12,"האייל 65, ירושלים",האייל 65,30454-55-6,דירה בבית קומות,5.0,שניה,129.69,2449000,,,2000.0,,5.0,3212758530,1,3045455,False,87% ב 7.2 שנים,ירושלים,האייל,12.08,30454-55-6,30454/55,18883.49140257537,31.7493693068,35.1820672637,2007
2007-12-06,2007-06-12,"הורקניה 8, ירושלים",הורקניה 8,30123-15-10,דירה בבית קומות,4.0,שלישית,79.0,1088000,,,1970.0,,6.0,3213932100,1,3012315,False,,ירושלים,הורקניה,,30123-15-10,30123/15,13772.151898734175,31.7562767812,35.2027379445,2007
2007-12-06,2007-06-12,"הרב ישראל שרייבר 1, ירושלים",הרב ישראל שרייבר 1,30729-3-43,דירה בבית קומות,5.0,שלישית ורביעית,149.8,1256000,,,1980.0,,5.0,3212707050,1,307293,False,,ירושלים,הרב שרייבר ישראל,,30729-3-43,30729/3,8384.512683578103,31.819894677,35.188108517,2007
2007-12-06,2007-06-12,"הדולב 1, ירושלים",הדולב 1,28051-31-2,דירה בבית קומות,3.0,קרקע,63.4,682000,,,1980.0,,4.0,3212801610,1,2805131,False,,ירושלים,הדולב,,28051-31-2,28051/31,10757.097791798107,31.7331175255,35.188064239,2007
2007-12-06,2007-06-12,"גנרל פייר קניג 21, ירושלים",גנרל פייר קניג 21,30002-22-163,דירה בבית קומות,3.0,ראשונה,55.0,628000,,,1970.0,,6.0,3212771910,1,3000222,False,15% ב 4.4 שנים,ירושלים,גנרל קניג פייר,3.41,30002-22-163,30002/22,11418.181818181818,31.7561490806,35.215115081,2007
2007-12-04,2007-04-12,"בורוכוב 2, ירושלים",בורוכוב 2,30408-144-8,דירה בבית קומות,3.0,שניה,63.0,203000,,,1950.0,,3.0,3211784610,1,30408144,False,,ירושלים,בורוכוב,,30408-144-8,30408/144,3222.222222222222,31.7679726408,35.1777207481,2007
2007-12-04,2007-04-12,"חכמי יוסף 23, ירושלים",חכמי יוסף 23,30341-269-2,דירה בבית קומות,4.0,שלישית,100.0,1437000,,,1980.0,,2.0,3212505090,1,30341269,False,,ירושלים,חכמי יוסף,,30341-269-2,30341/269,14370.0,31.7626026974,35.1902238758,2007
2007-12-04,2007-04-12,"עזה 47, ירושלים",עזה 47,30023-28-4,דירה בבית קומות,1.0,שלישית,26.0,830000,,,1960.0,,3.0,3212165730,1,3002328,False,,ירושלים,עזה,,30023-28-4,30023/28,31923.07692307692,31.770469339,35.2122349433,2007
2007-12-04,2007-04-12,"לוי אשכול 2, ירושלים",לוי אשכול 2,30246-6-41,דירה בבית קומות,3.0,רביעית,84.2,935000,,,1970.0,,6.0,3212186580,1,302466,False,,ירושלים,לוי אשכול,,30246-6-41,30246/6,11104.513064133016,31.8006460552,35.2315817709,2007
2007-12-04,2007-04-12,"שמגר 16, ירושלים",שמגר 16,30079-178-55,דירה בבית קומות,4.0,,100.0,1089000,,,2003.0,,6.0,3211776660,1,30079178,False,,ירושלים,שמגר,,30079-178-55,30079/178,10890.0,31.7946915582,35.2085243935,2007
2007-12-04,2007-04-12,"מקור חיים 10, ירושלים",מקור חיים 10,30198-81-11,דירה בבית קומות,4.0,שלישית,100.0,1155000,,,1960.0,,4.0,3211805640,1,3019881,False,,ירושלים,מקור חיים,,30198-81-11,30198/81,11550.0,31.7573876374,35.2132595298,2007
2007-12-03,2007-03-12,"התאנה 22, ירושלים",התאנה 22,28051-67-138,דירה בבית קומות,4.0,קרקע,88.0,871000,,,1980.0,,5.0,3211590030,1,2805167,False,,ירושלים,התאנה,,28051-67-138,28051/67,9897.727272727272,31.7346177816,35.1902014269,2007
2007-12-03,2007-03-12,"אלקנה 23, ירושלים",אלקנה 23,30079-96-6,דירה בבית קומות,4.0,ראשונה,67.0,1470000,,,1953.0,,2.0,3211394520,1,3007996,False,110% ב 2.3 שנים,ירושלים,אלקנה,47.83,30079-96-6,30079/96,21940.298507462685,31.7937650798,35.2137735359,2007
2007-12-03,2007-03-12,"קובובי 57, ירושלים",קובובי 57,30190-191-19,דירה בבית קומות,4.0,קרקע ראשונה,121.0,1436000,,,1995.0,,4.0,3211327200,1,30190191,False,17% ב 3.7 שנים,ירושלים,קובובי,4.59,30190-191-19,30190/191,11867.768595041322,31.7614740187,35.1814823477,2007
2007-12-03,2007-03-12,"רבקה 7, ירושלים",רבקה 7,30001-50-69,דירה בבית קומות,4.0,רביעית,81.3,726000,,,1970.0,,8.0,3211339590,1,3000150,False,,ירושלים,רבקה,,30001-50-69,30001/50,8929.88929889299,31.7538968709,35.2186954593,2007
2007-12-03,2007-03-12,"אלעזר בן-יאיר 8, ירושלים",אלעזר בן-יאיר 8,30172-25-3,דירה בבית קומות,5.0,שניה,145.0,1510000,,,1970.0,,2.0,3211517310,1,3017225,False,,ירושלים,בן יאיר אלעזר,,30172-25-3,30172/25,10413.793103448275,31.7553003472,35.200517226,2007
2007-12-03,2007-03-12,"טוביה בן-חפץ 14, ירושלים",טוביה בן-חפץ 14,30133-15-17,דירה בבית קומות,4.0,,120.0,1575000,,,1970.0,,4.0,3211735830,1,3013315,False,,ירושלים,בן חפץ טוביה,,30133-15-17,30133/15,13125.0,31.75761228,35.2076671644,2007
2007-12-03,2007-03-12,"הרב שרירא 9, ירושלים",הרב שרירא 9,30151-103-1,דירה בבית קומות,3.0,מרתף,62.0,1008000,,,1970.0,,3.0,3212075130,1,30151103,False,,ירושלים,הרב שרירא,,30151-103-1,30151/103,16258.064516129032,31.7883509457,35.1925984816,2007
2007-12-02,2007-02-12,"חזון ציון 9, ירושלים",חזון ציון 9,30147-146-16,דירה בבית קומות,2.0,שלישית,55.0,665000,,,1960.0,,3.0,3210864390,1,30147146,False,,ירושלים,חזון ציון,,30147-146-16,30147/146,12090.90909090909,31.7823043095,35.1949803389,2007
2007-12-02,2007-02-12,"החלוץ 54, ירושלים",החלוץ 54,30159-39-12,דירה בבית קומות,3.0,שניה,62.0,1093000,,,1960.0,,3.0,3211043610,1,3015939,False,,ירושלים,החלוץ,,30159-39-12,30159/39,17629.032258064515,31.7766742341,35.1901301234,2007
2007-12-02,2007-02-12,"טשרניחובסקי 62, ירושלים",טשרניחובסקי 62,30185-36-9,דירה בבית קומות,2.0,ראשונה,55.46,762000,,,1950.0,,3.0,3210895800,1,3018536,False,,ירושלים,טשרניחובסקי,,30185-36-9,30185/36,13739.632167327803,31.7634333203,35.2020872829,2007
2007-12-02,2007-02-12,"ירמיהו 60, ירושלים",ירמיהו 60,30235-199-16,דירה בבית קומות,6.0,שלישית,127.1,1525000,,,2007.0,,12.0,3211557660,1,30235199,False,,ירושלים,ירמיהו,,30235-199-16,30235/199,11998.426435877263,31.7921338051,35.203685005,2007
2007-12-02,2007-02-12,"שח""ל 53, ירושלים","שח""ל 53",30183-124-59,דירה בבית קומות,3.0,שישית,59.0,685000,,,1970.0,,10.0,3211131210,1,30183124,False,,ירושלים,"שח""ל",,30183-124-59,30183/124,11610.169491525425,31.7634371624,35.1950066235,2007
2007-12-02,2007-02-12,"שבזי 39, ירושלים",שבזי 39,30040-43-3,דירה בבית קומות,4.0,,65.0,486000,,,1940.0,,1.0,3211142070,1,3004043,False,,ירושלים,שבזי,,30040-43-3,30040/43,7476.923076923077,31.7809923898,35.2093562179,2007
2007-12-02,2007-02-12,"מרדכי אלקחי 21, ירושלים",מרדכי אלקחי 21,30203-11-48,דירה בבית קומות,4.0,חמישית,79.8,638000,,,1980.0,,11.0,3211057890,1,3020311,False,,ירושלים,אלקחי מרדכי,,30203-11-48,30203/11,7994.987468671679,31.7522335278,35.2328090206,2007
2007-12-02,2007-02-12,"זבולון 7, ירושלים",זבולון 7,30014-60-1,דירה בבית קומות,4.0,קרקע,119.3,2585000,,,1960.0,,2.0,3211519050,1,3001460,False,,ירושלים,זבולון,,30014-60-1,30014/60,21668.063704945514,31.7583808783,35.2185354766,2007
2007-12-01,2007-01-12,"צביה ויצחק 515, ירושלים",צביה ויצחק 515,28053-24-132,דירה בבית קומות,3.0,רביעית,65.9,494000,,,1980.0,,4.0,3210337680,1,2805324,False,,ירושלים,צביה ויצחק,,28053-24-132,28053/24,7496.206373292867,31.7323159304,35.183772045,2007
2007-11-30,2007-11-30,"עין גדי 5, ירושלים",עין גדי 5,30114-38-4,דירה בבית קומות,4.0,שניה,87.0,990000,,,1960.0,,4.0,3215631780,1,3011438,False,,ירושלים,עין גדי,,30114-38-4,30114/38,11379.310344827589,31.7536737482,35.2212357033,2007
2007-11-29,2007-11-29,"יסמין 5, ירושלים",יסמין 5,28046-33-1,דירה בבית קומות,3.0,קרקע,48.9,652000,,,1970.0,,4.0,3215571600,1,2804633,False,,ירושלים,יסמין,,28046-33-1,28046/33,13333.333333333334,31.7346588457,35.1981080877,2007
2007-11-29,2007-11-29,"מרדכי היהודי 6, ירושלים",מרדכי היהודי 6,30013-65-15,דירה בבית קומות,3.0,שלישית,64.0,864000,,,2018.0,,4.0,3215580510,1,3001365,False,,ירושלים,מרדכי היהודי,,30013-65-15,30013/65,13500.0,31.7570214826,35.2219156217,2007
2007-11-29,2007-11-29,"חברון 114, ירושלים",חברון 114,30001-86-24,דירה בבית קומות,4.0,ראשונה,84.4,808000,,,1960.0,,4.0,3215641170,1,3000186,False,,ירושלים,חברון,,30001-86-24,30001/86,9573.45971563981,31.7519565659,35.219106775,2007
2007-11-29,2007-11-29,"רוזנבלט 3, ירושלים",רוזנבלט 3,30730-2-14,דירה בבית קומות,4.0,"קרקע,ראשונה",111.6,923000,,,1980.0,,5.0,3215888670,1,307302,False,,ירושלים,רוזנבלט,,30730-2-14,30730/2,8270.609318996416,31.8186283507,35.1926890789,2007
2007-11-29,2007-11-29,"שלמה בן-יוסף 28, ירושלים",שלמה בן-יוסף 28,30204-29-3,דירה בבית קומות,2.0,קרקע,40.0,406000,,,1970.0,,2.0,3215632770,1,3020429,False,6% ב 3.8 שנים,ירושלים,בן יוסף שלמה,1.58,30204-29-3,30204/29,10150.0,31.7490819239,35.2356795187,2007
2007-11-29,2007-11-29,"דולצ'ין 116, ירושלים",דולצ'ין 116,30424-20-11,דירה בבית קומות,3.0,קרקע,102.5,1240000,,,1996.0,,2.0,3215667660,1,3042420,False,,ירושלים,דולצ'ין,,30424-20-11,30424/20,12097.560975609756,31.7503572926,35.16780398,2007
2007-11-29,2007-11-29,"צ'ארלס לוץ 12, ירושלים",צ'ארלס לוץ 12,30644-56-1,חנות,,,800.0,3925000,,,1970.0,,1.0,3215988900,1,3064456,False,,ירושלים,לוץ צארלס,,30644-56-1,30644/56,4906.25,31.8397827506,35.2444644952,2007
2007-11-29,2007-11-29,"אברהם אידלזון 9, ירושלים",אברהם אידלזון 9,30729-2-33,דירה בבית קומות,5.0,קרקע+ראשונה,111.5,1300000,,,1980.0,,5.0,3215637240,1,307292,False,,ירושלים,אידלזון אברהם,,30729-2-33,30729/2,11659.192825112108,31.8194708863,35.1906444484,2007
2007-11-29,2007-11-29,"הנרי מורגנטאו 5, ירושלים",הנרי מורגנטאו 5,30720-5-8,דירה בבית קומות,3.0,קרקע,60.0,226000,,,1980.0,,2.0,3215607000,1,307205,False,,ירושלים,מורגנטאו הנרי,,30720-5-8,30720/5,3766.6666666666665,31.8153775474,35.2005033286,2007
2007-11-29,2007-11-29,"אלי תבין 22, ירושלים",אלי תבין 22,30542-41-11,דירה בבית קומות,3.0,,75.0,646000,,,2000.0,,6.0,3240141900,1,3054241,False,,ירושלים,תבין אלי,,30542-41-11,30542/41,8613.333333333334,31.8171286073,35.2410442724,2007
2007-11-29,2007-11-29,"ברל לוקר 27, ירושלים",ברל לוקר 27,30501-33-3,דירה בבית קומות,4.0,ראשונה,64.0,644000,,,1970.0,,8.0,3215652030,1,3050133,False,,ירושלים,ברל לוקר,,30501-33-3,30501/33,10062.5,31.7491712342,35.2016686096,2007
2007-11-29,2007-11-29,"לוי אשכול 14, ירושלים",לוי אשכול 14,30246-15-86,דירה בבית קומות,4.0,שביעית,83.3,1199000,,,1969.0,,,3215630760,1,3024615,False,,ירושלים,לוי אשכול,,30246-15-86,30246/15,14393.7575030012,31.800690841,35.2276726494,2007
2007-11-28,2007-11-28,"אורוגוואי 3, ירושלים",אורוגוואי 3,30413-123-86,דירה בבית קומות,2.0,קומה ‎8‏,34.2,251000,,,2000.0,,11.0,3215572380,1,30413123,False,,ירושלים,אורוגואי,,30413-123-86,30413/123,7339.181286549707,31.7610182212,35.1771031137,2007
2007-11-28,2007-11-28,"איסלנד 12, ירושלים",איסלנד 12,30436-8-8,דירה בבית קומות,2.0,שניה,31.0,396000,,,1960.0,,4.0,3215579790,1,304368,False,7% ב 7.9 שנים,ירושלים,איסלנד,0.89,30436-8-8,30436/8,12774.193548387097,31.7577652615,35.1689019234,2007
2007-11-28,2007-11-28,"הנורית 5, ירושלים",הנורית 5,30439-21-9,דירה בבית קומות,3.0,רביעית,44.6,430000,,,1960.0,,5.0,3215810460,1,3043921,False,21% ב 3 שנים,ירושלים,הנורית,7.0,30439-21-9,30439/21,9641.255605381166,31.7532935908,35.1703194148,2007
2007-11-28,2007-11-28,"אדמונד פלג 12, ירושלים",אדמונד פלג 12,30644-26-5,דירה בבית קומות,4.0,ראשונה,73.2,682000,,,1980.0,,7.0,3215534010,1,3064426,False,,ירושלים,פלג אדמונד,,30644-26-5,30644/26,9316.939890710382,31.8408709933,35.2441369303,2007
2007-11-28,2007-11-28,"הבנאי 20, ירושלים",הבנאי 20,30154-12-1,דירה בבית קומות,7.0,קרקע,164.0,2200000,,,1960.0,,4.0,3215912910,1,3015412,False,,ירושלים,הבנאי,,30154-12-1,30154/12,13414.634146341465,31.7761901207,35.1923018461,2007
2007-11-28,2007-11-28,"הטורים 5, ירושלים",הטורים 5,30076-115-0,חנות,,,436.0,120000,,,1938.0,,3.0,3240962610,1,30076115,False,,ירושלים,הטורים,,30076-115-0,30076/115,275.22935779816515,31.787441084,35.2102132611,2007
2007-11-28,2007-11-28,"הנטקה 50, ירושלים",הנטקה 50,30408-52-11,דירה בבית קומות,3.0,שניה,64.0,580000,,,1960.0,,4.0,3215566440,1,3040852,False,,ירושלים,הנטקה,,30408-52-11,30408/52,9062.5,31.7670017881,35.1740452371,2007
2007-11-28,2007-11-28,"הארי טרומן 11, ירושלים",הארי טרומן 11,30719-16-6,דירה בבית קומות,5.0,שניה שלישית,100.5,1310000,,,1980.0,,5.0,3215525820,1,3071916,False,,ירושלים,טרומן הרי,,30719-16-6,30719/16,13034.825870646766,31.8126063331,35.2045224006,2007
2007-11-28,2007-11-28,"רמב""ן 37, ירושלים","רמב""ן 37",30025-4-5,דירה בבית קומות,9.0,שניה,250.0,4456000,,,2008.0,,2.0,3216006420,1,300254,False,,ירושלים,"רמב""ן",,30025-4-5,30025/4,17824.0,31.7742407966,35.2133231673,2007
2007-11-28,2007-11-28,"חיים הלר 23, ירושלים",חיים הלר 23,30183-169-2,דירה בבית קומות,4.0,קרקע,125.2,2070000,,,2007.0,,5.0,3240397530,1,30183169,False,,ירושלים,הלר חיים,,30183-169-2,30183/169,16533.546325878593,31.7647211877,35.1977379,2007
2007-11-28,2007-11-28,"אלי תבין 22, ירושלים",אלי תבין 22,30542-41-88,דירה בבית קומות,4.0,ראשונה,95.0,790000,,,2000.0,,6.0,3215531760,1,3054241,False,,ירושלים,תבין אלי,,30542-41-88,30542/41,8315.78947368421,31.8171286073,35.2410442724,2007
2007-11-27,2007-11-27,"לוי אשכול 2, ירושלים",לוי אשכול 2,30246-6-3,דירה בבית קומות,4.0,ראשונה,101.8,1409000,,,1970.0,,6.0,3215687970,1,302466,False,15% ב 5 שנים,ירושלים,לוי אשכול,3.0,30246-6-3,30246/6,13840.864440078583,31.8006460552,35.2315817709,2007
2007-11-27,2007-11-27,"בני בתירא 8, ירושלים",בני בתירא 8,30123-38-28,דירה בבית קומות,4.0,שביעית,113.7,1332000,,,1970.0,,7.0,3215645850,1,3012338,False,,ירושלים,בני בתירא,,30123-38-28,30123/38,11715.03957783641,31.757475244,35.2045954151,2007
2007-11-27,2007-11-27,"הגומא 451, ירושלים",הגומא 451,28051-50-13,דירה בבית קומות,5.0,קרקע וראשונה,128.3,1042000,,,1980.0,,3.0,3215524110,1,2805150,False,,ירושלים,הגומא,,28051-50-13,28051/50,8121.590023382696,31.7362992181,35.1901574971,2007
2007-11-26,2007-11-26,"דקר 3, ירושלים",דקר 3,30654-15-8,דירה בבית קומות,5.0,רביעית,104.5,1045000,,,1970.0,,7.0,3215500560,1,3065415,False,,ירושלים,דקר,,30654-15-8,30654/15,10000.0,31.8015853064,35.2372939253,2007
2007-11-26,2007-11-26,"לאה גולדברג 2, ירושלים",לאה גולדברג 2,30645-55-30,דירה בבית קומות,4.0,שביעית,82.7,672000,,,1970.0,,8.0,3215535510,1,3064555,False,,ירושלים,גולדברג לאה,,30645-55-30,30645/55,8125.755743651753,31.8417128559,35.2408443065,2007
2007-11-26,2007-11-26,"חיל האוויר 33, ירושלים",חיל האוויר 33,30669-10-7,דירה בבית קומות,3.0,שלישית,59.8,563000,,,1987.0,,3.0,3240233700,1,3066910,False,,ירושלים,חיל האויר,,30669-10-7,30669/10,9414.715719063546,31.8328335433,35.2440833349,2007
2007-11-26,2007-11-26,"הרב שאולזון 34, ירושלים",הרב שאולזון 34,30271-38-21,דירה בבית קומות,5.0,קרקע ושניה,122.49,1933000,,,1990.0,,9.0,3215971080,1,3027138,False,34% ב 1.3 שנים,ירושלים,הרב שאולזון,26.15,30271-38-21,30271/38,15780.8800718426,31.7889651573,35.1719665567,2007
2007-11-26,2007-11-26,"פרחי חיים 3, ירושלים",פרחי חיים 3,30080-189-4,דירה בבית קומות,2.0,שלישית,45.0,773000,,,1950.0,,4.0,3215525580,1,30080189,False,,ירושלים,פרחי חיים,,30080-189-4,30080/189,17177.777777777777,31.7928132088,35.2162301459,2007
2007-11-26,2007-11-26,"יפו 202, ירושלים",יפו 202,30076-157-27,דירה בבית קומות,3.0,שניה,46.0,857000,,,1960.0,,3.0,3215526060,1,30076157,False,,ירושלים,יפו,,30076-157-27,30076/157,18630.434782608696,31.7875953346,35.2081126227,2007
2007-11-26,2007-11-26,"הרב עוזיאל 79, ירושלים",הרב עוזיאל 79,30166-368-2,דירה בבית קומות,3.0,ראשונה,66.0,1275000,,,1980.0,,3.0,3240244350,1,30166368,False,,ירושלים,הרב עוזיאל,,30166-368-2,30166/368,19318.18181818182,31.7665330876,35.1861489793,2007
2007-11-26,2007-11-26,"יפה רום 13, ירושלים",יפה רום 13,28051-20-41,דירה בבית קומות,4.0,ראשונה,74.7,746000,,,1980.0,,3.0,3215521830,1,2805120,False,,ירושלים,יפה רום,,28051-20-41,28051/20,9986.61311914324,31.73310113,35.1900034519,2007
2007-11-25,2007-11-25,"ברזיל 12, ירושלים",ברזיל 12,30407-9-18,דירה בבית קומות,3.0,שישית,45.0,600000,,,1960.0,,9.0,3215637720,1,304079,False,,ירושלים,ברזיל,,30407-9-18,30407/9,13333.333333333334,,,2007
2007-11-25,2007-11-25,"טשרניחובסקי 38, ירושלים",טשרניחובסקי 38,30121-30-1,דירה בבית קומות,3.0,קרקע תחתונה,85.0,1069000,,,1970.0,,3.0,3215418420,1,3012130,False,11% ב 8.6 שנים,ירושלים,טשרניחובסקי,1.28,30121-30-1,30121/30,12576.470588235294,31.7659170989,35.2058243435,2007
2007-11-25,2007-11-25,"שלמה בן-יוסף 47, ירושלים",שלמה בן-יוסף 47,30204-39-6,דירה בבית קומות,3.0,שניה,75.9,568000,,,1970.0,,4.0,3215417940,1,3020439,False,,ירושלים,בן יוסף שלמה,,30204-39-6,30204/39,7483.530961791831,31.7492388742,35.2351443817,2007
2007-11-25,2007-11-25,"בית וגן 71, ירושלים",בית וגן 71,30166-20-13,דירה בבית קומות,2.0,ראשונה,47.0,928000,,,1960.0,,2.0,3215411700,1,3016620,False,57% ב 7.5 שנים,ירושלים,בית וגן,7.6,30166-20-13,30166/20,19744.68085106383,,,2007
2007-11-25,2007-11-25,"אליהו קורן 24, ירושלים",אליהו קורן 24,29937-82-30,דירה בבית קומות,1.0,שלישית,88.9,920000,,,2007.0,,4.0,3215810700,1,2993782,False,,ירושלים,קורן אליהו,,29937-82-30,29937/82,10348.706411698537,31.7224486886,35.2254303846,2007
2007-11-25,2007-11-25,"פנחס קהתי 2, ירושלים",פנחס קהתי 2,30230-102-208,דירה בבית קומות,4.0,,100.0,1307000,,,2005.0,,2.0,3215465160,1,30230102,False,,ירושלים,קהתי פנחס,,30230-102-208,30230/102,13070.0,31.7935431804,35.1917788862,2007
2007-11-25,2007-11-25,"הרב שאולזון 54, ירושלים",הרב שאולזון 54,30255-105-1,דירה בבית קומות,4.0,קרקע,103.25,1216000,,,1990.0,,6.0,3215673840,1,30255105,False,,ירושלים,הרב שאולזון,,30255-105-1,30255/105,11777.2397094431,31.7864895671,35.1735290398,2007
2007-11-23,2007-11-23,"עמק רפאים 23, ירושלים",עמק רפאים 23,30011-39-5,חנות,,ראשונה,25.0,1320000,,,1960.0,,1.0,3215431260,1,3001139,False,,ירושלים,עמק רפאים,,30011-39-5,30011/39,52800.0,31.7646355248,35.2210616671,2007
2007-11-22,2007-11-22,"שוהם 3, ירושלים",שוהם 3,28053-27-30,דירה בבית קומות,2.0,קרקע,36.1,439000,,,1980.0,,3.0,3215523090,1,2805327,False,,ירושלים,שוהם,,28053-27-30,28053/27,12160.664819944595,31.7313681209,35.1831436451,2007
2007-11-22,2007-11-22,"קריית משה 8, ירושלים",קריית משה 8,30157-41-1,דירה בבית קומות,2.0,קרקע,47.0,993000,,,1970.0,,3.0,3215580750,1,3015741,False,40% ב 2.9 שנים,ירושלים,קרית משה,13.79,30157-41-1,30157/41,21127.659574468085,31.7859763998,35.1961709483,2007
2007-11-22,2007-11-22,"דב בר-יקר 2, ירושלים",דב בר-יקר 2,30644-19-36,דירה בבית קומות,3.0,חמישית,63.4,591000,,,1970.0,,6.0,3215551500,1,3064419,False,,ירושלים,בר יקר דב,,30644-19-36,30644/19,9321.766561514196,31.84141318,35.2453384111,2007
2007-11-22,2007-11-22,"מאיר נקר 27, ירושלים",מאיר נקר 27,30207-21-12,דירה בבית קומות,4.0,ראשונה,112.0,953000,,,1970.0,,2.0,3215827290,1,3020721,False,,ירושלים,נקר מאיר,,30207-21-12,30207/21,8508.92857142857,31.7506434779,35.2404970472,2007
2007-11-22,2007-11-22,"שלמה דוגה 47, ירושלים",שלמה דוגה 47,28110-24-6,דירה בבית קומות,5.0,שניה עליית גג,137.5,1104000,,,1996.0,,2.0,3215532000,1,2811024,False,5% ב 8.5 שנים,ירושלים,דוגה שלמה,0.59,28110-24-6,28110/24,8029.090909090909,31.728950425,35.1972097496,2007
2007-11-22,2007-11-22,"יד חרוצים 12, ירושלים",יד חרוצים 12,30002-48-9,חנות,,ראשונה,333.84,4100000,,,1980.0,,3.0,3240109230,1,3000248,False,,ירושלים,יד חרוצים,,30002-48-9,30002/48,12281.33237479032,31.7533653645,35.2162294335,2007
2007-11-22,2007-11-22,"חובבי ציון 27, ירושלים",חובבי ציון 27,30021-25-3,דירה בבית קומות,3.0,קרקע,68.0,2003000,,,1960.0,,3.0,3215626080,1,3002125,False,65% ב 1.9 שנים,ירושלים,חובבי ציון,34.21,30021-25-3,30021/25,29455.88235294117,31.7705268044,35.2208330853,2007
2007-11-22,2007-11-22,"נווה יעקב 23, ירושלים",נווה יעקב 23,30642-7-2,דירה בבית קומות,3.0,קרקע,82.5,660000,,,1970.0,,3.0,3215484540,1,306427,False,,ירושלים,נוה יעקב,,30642-7-2,30642/7,8000.0,31.8385120684,35.2363851454,2007
2007-11-22,2007-11-22,"זאב חקלאי 4, ירושלים",זאב חקלאי 4,30164-218-26,דירה בבית קומות,3.0,שניה,55.0,739000,,,1960.0,,4.0,3215548410,1,30164218,False,,ירושלים,חקלאי זאב,,30164-218-26,30164/218,13436.363636363636,31.7726270332,35.1842841283,2007
2007-11-22,2007-11-22,"חטיבת הראל 111, ירושלים",חטיבת הראל 111,30100-64-3,דירה בבית קומות,2.0,שלישית,48.2,505000,,,1970.0,,5.0,3215705490,1,3010064,False,,ירושלים,חטיבת הראל,,30100-64-3,30100/64,10477.178423236512,31.7972798062,35.2234217131,2007
2007-11-22,2007-11-22,"הנורית 23, ירושלים",הנורית 23,30439-7-11,דירה בבית קומות,4.0,שלישית,100.0,478000,,,1960.0,,4.0,3215522850,1,304397,False,,ירושלים,הנורית,,30439-7-11,30439/7,4780.0,31.7541505053,35.1703877389,2007
2007-11-22,2007-11-22,"בובליק גדליה 17, ירושלים",בובליק גדליה 17,30720-4-19,דירה בבית קומות,4.0,ראשונה,87.0,1050000,,,1980.0,,3.0,3215433990,1,307204,False,,ירושלים,בובליק גדליה,,30720-4-19,30720/4,12068.96551724138,31.8150069901,35.2026099007,2007
2007-11-21,2007-11-21,"הפלמ""ח 42, ירושלים","הפלמ""ח 42",30024-135-32,דירה בבית קומות,6.0,שישית+גג,136.0,2546000,,,1960.0,,7.0,3215697120,1,30024135,True,-16% ב 1 שנים,ירושלים,"הפלמ""ח",-16.0,30024-135-32,30024/135,18720.58823529412,31.7667021154,35.2089655141,2007
2007-11-21,2007-11-21,"משה שרת 3, ירושלים",משה שרת 3,30193-115-23,דירה בבית קומות,4.0,רביעית,107.0,632000,,,2007.0,,12.0,3215654760,1,30193115,False,,ירושלים,שרת משה,,30193-115-23,30193/115,5906.542056074766,31.7566743093,35.1841273634,2007
2007-11-21,2007-11-21,"קדיש לוז 6, ירושלים",קדיש לוז 6,30191-26-47,דירה בבית קומות,3.0,חמישית,63.9,872000,,,1970.0,,7.0,3215360730,1,3019126,False,,ירושלים,קדיש לוז,,30191-26-47,30191/26,13646.322378716744,31.7593748579,35.18383329,2007
2007-11-21,2007-11-21,"טשרניחובסקי 44, ירושלים",טשרניחובסקי 44,30121-34-10,דירה בבית קומות,4.0,שניה,81.0,1500000,,,1968.0,,2.0,3215427870,1,3012134,False,,ירושלים,טשרניחובסקי,,30121-34-10,30121/34,18518.51851851852,31.7652842927,35.2058271365,2007
2007-11-21,2007-11-21,"סורוצקין 17, ירושלים",סורוצקין 17,30299-7-1,דירה בבית קומות,5.0,ראשונה,128.0,1248000,,,1970.0,,2.0,3215907510,1,302997,False,,ירושלים,סורוצקין,,30299-7-1,30299/7,9750.0,31.7963415301,35.205760567,2007
2007-11-21,2007-11-21,"רחל אימנו 26, ירושלים",רחל אימנו 26,30009-90-9,דירה בבית קומות,5.0,שניה שלישית,106.4,1906000,,,1970.0,,2.0,3215419890,1,3000990,False,,ירושלים,רחל אמנו,,30009-90-9,30009/90,17913.533834586466,31.7644989019,35.2130125987,2007
2007-11-21,2007-11-21,"ירושלים 29, ראשון לציון",ירושלים 29,3931-54-3,דירה בבית קומות,3.0,שניה,60.43,540000,,,1970.0,,4.0,9010252692,1,393154,False,,ירושלים,ראשון לציון,,3931-54-3,3931/54,8935.958960781069,31.9625136524,34.811884756,2007
2007-11-21,2007-11-21,"יורדי הסירה 19, ירושלים",יורדי הסירה 19,30007-154-3,דירה בבית קומות,2.0,שניה,53.0,1600000,,,1960.0,2008.0,3.0,3240131010,1,30007154,False,,ירושלים,יורדי הסירה,,30007-154-3,30007/154,30188.67924528302,31.7624124732,35.2111791066,2007
2007-11-21,2007-11-21,"ראובן מס 128, ירושלים",ראובן מס 128,30723-4-8,דירה בבית קומות,3.0,קרקע,63.0,920000,,,1980.0,,10.0,3215492910,1,307234,False,,ירושלים,מס ראובן,,30723-4-8,30723/4,14603.174603174602,31.8103648585,35.1982973532,2007
2007-11-20,2007-11-20,"שבתאי הנגבי 39, ירושלים",שבתאי הנגבי 39,28048-56-35,דירה בבית קומות,4.0,שניה,73.0,788000,,,1980.0,,3.0,3215407770,1,2804856,False,,ירושלים,הנגבי שבתאי,,28048-56-35,28048/56,10794.520547945203,31.7380865415,35.1976428495,2007
2007-11-20,2007-11-20,"פארן 7, ירושלים",פארן 7,30246-15-197,דירה בבית קומות,3.0,שלוש עשרה,70.7,1032000,,,1970.0,,17.0,3215777310,1,3024615,False,25% ב 1.5 שנים,ירושלים,פארן,16.67,30246-15-197,30246/15,14596.888260254596,31.800690841,35.2276726494,2007
2007-11-20,2007-11-20,"גדוד חרמש 8, ירושלים",גדוד חרמש 8,30665-17-18,דירה בבית קומות,4.0,שניה,74.0,682000,,,1985.0,,4.0,3215377320,1,3066517,False,,ירושלים,גדוד חרמש,,30665-17-18,30665/17,9216.216216216217,31.8297839471,35.241485937,2007
2007-11-20,2007-11-20,"עולי הגרדום 31, ירושלים",עולי הגרדום 31,30208-20-17,דירה בבית קומות,2.0,קרקע,42.0,483000,,,1970.0,,4.0,3215417160,1,3020820,False,,ירושלים,עולי הגרדום,,30208-20-17,30208/20,11500.0,31.7490052347,35.2375147369,2007
2007-11-20,2007-11-20,"קדיש לוז 14, ירושלים",קדיש לוז 14,30191-23-3,דירה בבית קומות,3.0,ראשונה,63.9,920000,,,1970.0,,7.0,3215691660,1,3019123,False,21% ב 5.5 שנים,ירושלים,קדיש לוז,3.82,30191-23-3,30191/23,14397.496087636931,31.7605934869,35.1840654142,2007
2007-11-20,2007-11-20,"רד""ק 19, ירושלים","רד""ק 19",30026-98-11,דירה בבית קומות,3.0,שניה,65.0,1589000,,,1950.0,,2.0,3215386230,1,3002698,False,,ירושלים,"רד""ק",,30026-98-11,30026/98,24446.153846153848,31.7716446359,35.2148071916,2007
2007-11-20,2007-11-20,"צבייה ויצחק 10, ירושלים",צבייה ויצחק 10,28051-6-1,דירה בבית קומות,2.0,ראשונה,45.9,138000,,,1980.0,,4.0,3215537700,1,280516,False,,ירושלים,צביה ויצחק,,28051-6-1,28051/6,3006.5359477124184,31.7321389921,35.1877660534,2007
2007-11-19,2007-11-19,"שלמה בן-יוסף 2, ירושלים",שלמה בן-יוסף 2,30209-42-18,דירה בבית קומות,3.0,שניה,63.2,489000,,,1970.0,,4.0,3215391450,1,3020942,True,-14% ב 8.6 שנים,ירושלים,בן יוסף שלמה,-1.63,30209-42-18,30209/42,7737.341772151898,31.7451952971,35.2388368489,2007
2007-11-19,2007-11-19,"שמואל פינלס 1, ירושלים",שמואל פינלס 1,30501-40-3,דירה בבית קומות,5.0,ראשונה,92.7,865000,,,1973.0,,3.0,3215390970,1,3050140,False,,ירושלים,פינלס שמואל,,30501-40-3,30501/40,9331.175836030205,31.7497076465,35.2025697077,2007
2007-11-19,2007-11-19,"ויקטור ויוליוס 11, ירושלים",ויקטור ויוליוס 11,30644-4-20,דירה בבית קומות,3.5,רביעית,67.1,642000,,,1970.0,,4.0,3215389710,1,306444,False,,ירושלים,ויקטור ויוליוס,,30644-4-20,30644/4,9567.809239940389,31.8409350679,35.2431458543,2007
2007-11-19,2007-11-19,"המיסדים 17, ירושלים",המיסדים 17,30163-114-5,דירה בבית קומות,3.0,ראשונה,72.0,1400000,,,1955.0,,2.0,3215685960,1,30163114,False,,ירושלים,המיסדים,,30163-114-5,30163/114,19444.444444444445,31.7778414231,35.1876398817,2007
2007-11-19,2007-11-19,"בנימין מטודלה 7, ירושלים",בנימין מטודלה 7,30025-141-20,דירה בבית קומות,3.0,שלישית,69.6,1485000,,,1970.0,,3.0,3215418900,1,30025141,False,,ירושלים,בנימין מטודלה,,30025-141-20,30025/141,21336.206896551725,31.7720126945,35.2124372618,2007
2007-11-19,2007-11-19,"האנפה 5, ירושלים",האנפה 5,28050-32-3,דירה בבית קומות,4.0,ראשונה,75.9,665000,,,1970.0,,4.0,3215403810,1,2805032,False,,ירושלים,האנפה,,28050-32-3,28050/32,8761.528326745718,31.7273157196,35.1890922535,2007
2007-11-19,2007-11-19,"טשרניחובסקי 4, ירושלים",טשרניחובסקי 4,30024-13-31,דירה בבית קומות,3.0,שישית,71.0,1150000,,,1970.0,,8.0,3215452560,1,3002413,False,,ירושלים,טשרניחובסקי,,30024-13-31,30024/13,16197.18309859155,31.7691892984,35.2083827016,2007
2007-11-19,2007-11-19,"חיים הלר 1, ירושלים",חיים הלר 1,30183-159-34,דירה בבית קומות,4.5,קרקע,97.3,1152000,,,1970.0,,7.0,3215531520,1,30183159,False,,ירושלים,הלר חיים,,30183-159-34,30183/159,11839.67112024666,,,2007
2007-11-19,2007-11-19,"אלכסנדר איג 126, ירושלים",אלכסנדר איג 126,30714-12-22,דירה בבית קומות,3.0,שניה,58.0,775000,,,1980.0,,7.0,3215382000,1,3071412,False,,ירושלים,איג אלכסנדר,,30714-12-22,30714/12,13362.06896551724,31.8105989433,35.1973274506,2007
2007-11-19,2007-11-19,"שלמה בן-יוסף 43, ירושלים",שלמה בן-יוסף 43,30204-41-7,דירה בבית קומות,3.0,שלישית,72.2,654000,,,1970.0,,4.0,3215982240,1,3020441,False,,ירושלים,בן יוסף שלמה,,30204-41-7,30204/41,9058.171745152356,31.7488263715,35.2353467422,2007
2007-11-19,2007-11-19,"טור סיני 21, ירושלים",טור סיני 21,30397-49-10,דירה בבית קומות,3.0,שניה,62.4,511000,,,1970.0,,4.0,3240604710,1,3039749,False,,ירושלים,טור סיני,,30397-49-10,30397/49,8189.102564102564,31.7625463906,35.1695904653,2007
2007-11-19,2007-11-19,"הפסגה 40, ירושלים",הפסגה 40,30342-43-5,דירה בבית קומות,3.0,שניה,72.6,1003000,,,1970.0,,3.0,3215436240,1,3034243,False,,ירושלים,הפסגה,,30342-43-5,30342/43,13815.42699724518,31.7665485316,35.1835513943,2007
2007-11-19,2007-11-19,"יעקב פולוצקי 8, ירושלים",יעקב פולוצקי 8,28110-36-2,דירה בבית קומות,1.0,קרקע,106.45,1307000,,,1970.0,,2.0,3215398170,1,2811036,False,4% ב 7.9 שנים,ירושלים,פולוצקי יעקב,0.51,28110-36-2,28110/36,12278.064819163928,31.7294929427,35.1974130332,2007
2007-11-18,2007-11-18,"דגן 27, ירושלים",דגן 27,28109-38-1,דירה בבית קומות,6.0,,180.0,3990000,,,1997.0,,3.0,3215890860,1,2810938,False,,ירושלים,דגן,,28109-38-1,28109/38,22166.666666666668,31.7375421399,35.1832620323,2007
2007-11-18,2007-11-18,"מאיר בלבן 22, ירושלים",מאיר בלבן 22,30645-3-21,דירה בבית קומות,4.0,שניה,70.0,757000,,,1970.0,,3.0,3215416680,1,306453,False,,ירושלים,בלבן מאיר,,30645-3-21,30645/3,10814.285714285714,31.8437066223,35.2407853255,2007
2007-11-18,2007-11-18,"מכסיקו 22, ירושלים",מכסיקו 22,30436-13-14,דירה בבית קומות,3.0,רביעית,58.5,550000,,,1970.0,,4.0,3215368680,1,3043613,False,,ירושלים,מכסיקו,,30436-13-14,30436/13,9401.709401709402,31.7576068698,35.1676663617,2007
2007-11-18,2007-11-18,"אשר גולאק 19, ירושלים",אשר גולאק 19,30645-27-23,דירה בבית קומות,3.0,שלישית,59.2,630000,,,1970.0,,3.0,3240746340,1,3064527,False,,ירושלים,גולאק אשר,,30645-27-23,30645/27,10641.891891891892,31.8419073754,35.2436600568,2007
2007-11-18,2007-11-18,"פנחס קהתי 2, ירושלים",פנחס קהתי 2,30230-102-209,דירה בבית קומות,4.0,,85.0,1200000,,,2005.0,,2.0,3215465940,1,30230102,False,,ירושלים,קהתי פנחס,,30230-102-209,30230/102,14117.64705882353,31.7935431804,35.1917788862,2007
2007-11-18,2007-11-18,"קויפמן יחזקאל 21, ירושלים",קויפמן יחזקאל 21,30730-10-47,דירה בבית קומות,3.0,שלישית,65.0,973000,,,1980.0,,4.0,3215491890,1,3073010,False,,ירושלים,קויפמן יחזקאל,,30730-10-47,30730/10,14969.23076923077,31.8162824947,35.1938789743,2007
2007-11-18,2007-11-18,"שח""ל 59, ירושלים","שח""ל 59",30183-152-8,דירה בבית קומות,4.0,רביעית,77.0,1084000,,,1970.0,,4.0,3215489220,1,30183152,False,,ירושלים,"שח""ל",,30183-152-8,30183/152,14077.922077922078,31.7638747003,35.194400355,2007
2007-11-18,2007-11-18,"ראובן מס 127, ירושלים",ראובן מס 127,30714-12-136,דירה בבית קומות,4.0,קרקע,73.0,936000,,,1980.0,,6.0,3215573850,1,3071412,False,,ירושלים,מס ראובן,,30714-12-136,30714/12,12821.917808219176,31.8105989433,35.1973274506,2007
2007-11-18,2007-11-18,"אבו רביע 18, ירושלים",אבו רביע 18,30208-2-2,דירה בבית קומות,4.0,רביעית,88.0,1543000,,,2008.0,,,3215867880,1,302082,False,,ירושלים,אבו רביע,,30208-2-2,30208/2,17534.090909090908,31.7475782804,35.2391691948,2007
2007-11-18,2007-11-18,"שלום יהודה 23, ירושלים",שלום יהודה 23,30116-124-24,דירה בבית קומות,3.0,שניה,52.63,620000,,,1950.0,,2.0,3215358000,1,30116124,False,,ירושלים,שלום יהודה,,30116-124-24,30116/124,11780.353410602318,31.7503506459,35.2200985088,2007
2007-11-18,2007-11-18,"הרב אור שרגא 5, ירושלים",הרב אור שרגא 5,30734-8-9,דירה בבית קומות,4.0,שלישית,82.2,1042000,,,1997.0,,5.0,3215264970,1,307348,False,,ירושלים,הרב אור שרגא,,30734-8-9,30734/8,12676.39902676399,31.8251261789,35.1900949256,2007
2007-11-18,2007-11-18,"המ""ג 27, ירושלים","המ""ג 27",30234-29-10,דירה בבית קומות,3.0,חמישית,51.7,787000,,,1970.0,,5.0,3215766390,1,3023429,False,,ירושלים,"המ""ג",,30234-29-10,30234/29,15222.437137330751,31.7943905828,35.1994752289,2007
2007-11-18,2007-11-18,"עלי הכהן 28, ירושלים",עלי הכהן 28,30080-256-9,דירה בבית קומות,3.0,רביעית,82.6,1337000,,,1970.0,,5.0,3215311950,1,30080256,False,49% ב 9.3 שנים,ירושלים,עלי הכהן,5.27,30080-256-9,30080/256,16186.440677966102,31.7963086717,35.2149598072,2007
2007-11-16,2007-11-16,"קוסטה ריקה 33, ירושלים",קוסטה ריקה 33,30428-10-15,דירה בבית קומות,3.0,חמישית,61.6,510000,,,1960.0,,7.0,3215488740,1,3042810,False,,ירושלים,קוסטה ריקה,,30428-10-15,30428/10,8279.22077922078,31.7527182657,35.1736603857,2007
2007-11-16,2007-11-16,"יואל 21, ירושלים",יואל 21,30085-106-3,דירה בבית קומות,3.0,,81.0,6886000,,,1960.0,,3.0,3215577060,1,30085106,False,,ירושלים,יואל,,30085-106-3,30085/106,85012.34567901235,31.7905005909,35.2210416392,2007
2007-11-15,2007-11-15,"אריה בן-אליעזר 62, ירושלים",אריה בן-אליעזר 62,28048-55-1,דירה בבית קומות,7.0,"מרתף, קרקע",158.6,1806000,,,1970.0,,4.0,3215430780,1,2804855,False,,ירושלים,בן אליעזר אריה,,28048-55-1,28048/55,11387.137452711224,31.7365852919,35.1992908563,2007
2007-11-15,2007-11-15,"רבקה 30, ירושלים",רבקה 30,30002-28-6,דירה בבית קומות,4.0,שניה,104.2,1068000,,,1979.0,,2.0,3215553540,1,3000228,False,,ירושלים,רבקה,,30002-28-6,30002/28,10249.520153550864,31.7553362555,35.2152207351,2007
2007-11-15,2007-11-15,"שילר 3, ירושלים",שילר 3,30159-45-7,דירה בבית קומות,2.0,ראשונה,50.0,880000,,,1955.0,,3.0,3215396130,1,3015945,False,,ירושלים,שילר,,30159-45-7,30159/45,17600.0,31.7774544814,35.1884463662,2007
2007-11-15,2007-11-15,"סמאטס 3, ירושלים",סמאטס 3,30011-27-13,דירה בבית קומות,5.0,שלישית ורביעית,141.3,3479000,,,1980.0,,3.0,3215408730,1,3001127,False,,ירושלים,סמאטס,,30011-27-13,30011/27,24621.372965322007,31.7649250223,35.2231061698,2007
2007-11-15,2007-11-15,"ירושלים 70, ראשון לציון",ירושלים 70,3930-549-7,דירה בבית קומות,4.0,שלישית,101.4,756000,,,1996.0,,4.0,9072518448,1,3930549,False,,ירושלים,ראשון לציון,,3930-549-7,3930/549,7455.621301775148,31.9623523613,34.8161505405,2007
2007-11-15,2007-11-15,"שבתאי הנגבי 39, ירושלים",שבתאי הנגבי 39,28048-56-43,דירה בבית קומות,4.5,ראשונה,87.0,775000,,,1980.0,,3.0,3215555490,1,2804856,False,21% ב 6 שנים,ירושלים,הנגבי שבתאי,3.5,28048-56-43,28048/56,8908.045977011494,31.7380865415,35.1976428495,2007
2007-11-15,2007-11-15,"גרטרוד קראוס 4, ירושלים",גרטרוד קראוס 4,30424-28-21,דירה בבית קומות,4.0,ראשונה,103.9,1101000,,,1990.0,,2.0,3215351820,1,3042428,False,,ירושלים,קראוס גרטרוד,,30424-28-21,30424/28,10596.727622714148,31.7483436062,35.1700183375,2007
2007-11-15,2007-11-15,"בר-יוחאי 21, ירושלים",בר-יוחאי 21,30199-7-36,דירה בבית קומות,3.0,שניה,52.9,523000,,,1950.0,,5.0,3215357760,1,301997,False,,ירושלים,בר יוחאי,,30199-7-36,30199/7,9886.578449905484,31.753408519,35.192758545,2007
2007-11-15,2007-11-15,"אברהם שטרן 43, ירושלים",אברהם שטרן 43,30415-138-26,דירה בבית קומות,3.0,שישית,61.0,582000,,,1970.0,,8.0,3215488980,1,30415138,False,55% ב 3 שנים,ירושלים,שטרן אברהם,18.33,30415-138-26,30415/138,9540.983606557376,31.7526141667,35.1768664525,2007
2007-11-15,2007-11-15,"וולטה העילית 7, ירושלים",וולטה העילית 7,30413-53-12,דירה בבית קומות,2.0,שלישית,48.0,615000,,,1950.0,,3.0,3215421150,1,3041353,False,,ירושלים,וולטה העלית,,30413-53-12,30413/53,12812.5,31.7586020908,35.1777443018,2007
2007-11-15,2007-11-15,"קוסטה ריקה 122, ירושלים",קוסטה ריקה 122,30439-75-7,דירה בבית קומות,3.0,רביעית,53.3,483000,,,1960.0,,4.0,3215480310,1,3043975,True,-8% ב 8.2 שנים,ירושלים,קוסטה ריקה,-0.98,30439-75-7,30439/75,9061.913696060035,31.7527865878,35.1697316395,2007
2007-11-15,2007-11-15,"כובשי קטמן 1, ירושלים",כובשי קטמן 1,30023-135-2,דירה בבית קומות,2.0,,50.0,1940000,,,1960.0,,3.0,3215710710,1,30023135,False,,ירושלים,כובשי קטמון,,30023-135-2,30023/135,38800.0,31.7669399367,35.2103329569,2007
2007-11-15,2007-11-15,"כובשי קטמן 1, ירושלים",כובשי קטמן 1,30023-135-4,דירה בבית קומות,6.0,ראשונה,180.0,5400000,,,1960.0,,3.0,3215709960,1,30023135,False,,ירושלים,כובשי קטמון,,30023-135-4,30023/135,30000.0,31.7669399367,35.2103329569,2007
2007-11-15,2007-11-15,"קויפמן יחזקאל 21, ירושלים",קויפמן יחזקאל 21,30730-10-64,דירה בבית קומות,2.0,ראשונה,62.0,799000,,,1980.0,,4.0,3215533260,1,3073010,False,,ירושלים,קויפמן יחזקאל,,30730-10-64,30730/10,12887.09677419355,31.8162824947,35.1938789743,2007
2007-11-14,2007-11-14,"הרב שאולזון 24, ירושלים",הרב שאולזון 24,30271-34-15,דירה בבית קומות,7.0,שמינית,105.0,4088000,,,1980.0,,8.0,3215427090,1,3027134,False,,ירושלים,הרב שאולזון,,30271-34-15,30271/34,38933.333333333336,31.7899799566,35.172907166,2007
2007-11-14,2007-11-14,"הרב ברלין 35, ירושלים",הרב ברלין 35,30024-91-6,דירה בבית קומות,3.0,,60.0,1238000,,,1950.0,,3.0,3216022500,1,3002491,False,,ירושלים,הרב ברלין,,30024-91-6,30024/91,20633.33333333333,31.7680385288,35.2094207529,2007
2007-11-14,2007-11-14,"שבו 1, ירושלים",שבו 1,28053-37-27,דירה בבית קומות,3.0,"קרקע, תחתונה",62.5,680000,,,1980.0,,3.0,3215726340,1,2805337,False,20% ב 3.5 שנים,ירושלים,שבו,5.71,28053-37-27,28053/37,10880.0,31.7315540055,35.1855274126,2007
2007-11-14,2007-11-14,"בוליביה 9, ירושלים",בוליביה 9,30415-245-3,דירה בבית קומות,4.0,ראשונה,90.0,880000,,,1960.0,,1.0,3215315940,1,30415245,False,,ירושלים,בוליביה,,30415-245-3,30415/245,9777.777777777776,31.7550598921,35.1789897538,2007
2007-11-14,2007-11-14,"דגניה 11, ירושלים",דגניה 11,30150-68-1,דירה בבית קומות,3.0,ראשונה,57.0,1035000,,,1970.0,,4.0,3215406000,1,3015068,False,,ירושלים,דגניה,,30150-68-1,30150/68,18157.894736842107,31.7831935378,35.189595771,2007
2007-11-14,2007-11-14,"עזה 33, ירושלים",עזה 33,30026-130-6,דירה בבית קומות,1.0,קרקע,21.0,632000,,,1960.0,,3.0,3215265450,1,30026130,False,,ירושלים,עזה,,30026-130-6,30026/130,30095.23809523809,31.7715405711,35.2132912199,2007
2007-11-14,2007-11-14,"הנשיא השישי 18, ירושלים",הנשיא השישי 18,30864-8-22,דירה בבית קומות,1.0,ראשונה,63.7,1570000,,,2012.0,,16.0,3215687430,1,308648,False,,ירושלים,הנשיא השישי,,30864-8-22,30864/8,24646.78178963893,31.7862075151,35.2043113802,2007
2007-11-14,2007-11-14,"אנטיגונוס 28, ירושלים",אנטיגונוס 28,30143-27-1,דירה בבית קומות,2.0,ראשונה,35.84,1179000,,,1960.0,,2.0,3215391210,1,3014327,False,,ירושלים,אנטיגנוס,,30143-27-1,30143/27,32896.205357142855,31.7560028496,35.2057399141,2007
2007-11-14,2007-11-14,"נוה שאנן 29, ירושלים",נוה שאנן 29,30180-63-16,דירה בבית קומות,4.0,שניה,100.0,1222000,,,1970.0,,6.0,3215963400,1,3018063,False,,ירושלים,נווה שאנן,,30180-63-16,30180/63,12220.0,31.7704717673,35.2013549234,2007
2007-11-13,2007-11-13,"בן-סרוק 4, ירושלים",בן-סרוק 4,30025-164-7,דירה בבית קומות,3.0,,75.0,1298000,,,1940.0,,1.0,3215237730,1,30025164,False,,ירושלים,בן סרוק,,30025-164-7,30025/164,17306.666666666668,31.7705941456,35.2114024066,2007
2007-11-13,2007-11-13,"נשר 4, ירושלים",נשר 4,28053-16-26,דירה בבית קומות,3.0,ראשונה,61.3,630000,,,1980.0,,7.0,3215252310,1,2805316,False,12% ב 2.3 שנים,ירושלים,נשר,5.22,28053-16-26,28053/16,10277.324632952692,31.7321798742,35.1825532657,2007
2007-11-13,2007-11-13,"אורוגוואי 29, ירושלים",אורוגוואי 29,30415-188-29,דירה בבית קומות,3.0,שניה,55.3,600000,,,1960.0,,2.0,3215235540,1,30415188,False,36% ב 5.9 שנים,ירושלים,אורוגואי,6.1,30415-188-29,30415/188,10849.9095840868,31.7556233321,35.1775244786,2007
2007-11-13,2007-11-13,"מרדכי אלקחי 3, ירושלים",מרדכי אלקחי 3,30178-62-58,דירה בבית קומות,5.0,שלישית,139.0,1267000,,,1980.0,,14.0,3215228820,1,3017862,False,,ירושלים,אלקחי מרדכי,,30178-62-58,30178/62,9115.107913669064,31.7501657889,35.2312131091,2007
2007-11-13,2007-11-13,"גואטמאלה 18, ירושלים",גואטמאלה 18,30415-187-24,דירה בבית קומות,3.0,שניה,48.6,731000,,,1970.0,,2.0,3215693910,1,30415187,False,14% ב 0.7 שנים,ירושלים,גואטמאלה,20.0,30415-187-24,30415/187,15041.152263374484,31.7564334467,35.1783750937,2007
2007-11-13,2007-11-13,"טללים 10, ירושלים",טללים 10,30717-19-23,דירה בבית קומות,3.0,רביעית,64.8,729000,,,1970.0,,4.0,3240036930,1,3071719,False,,ירושלים,טללים,,30717-19-23,30717/19,11250.0,31.8162587311,35.1984869678,2007
2007-11-13,2007-11-13,"אפרתה 8, ירושלים",אפרתה 8,30114-65-2,דירה בבית קומות,4.0,קומה ‎1‏,121.45,1350000,,,1966.0,,4.0,3215378070,1,3011465,False,,ירושלים,אפרתה,,30114-65-2,30114/65,11115.68546727048,31.7536547486,35.2224148694,2007
2007-11-13,2007-11-13,"צפניה 28, ירושלים",צפניה 28,30082-69-4,דירה בבית קומות,4.0,ראשונה,65.0,1456000,,,1950.0,,2.0,3215278560,1,3008269,False,,ירושלים,צפניה,,30082-69-4,30082/69,22400.0,31.7913031637,35.2166089698,2007
2007-11-13,2007-11-13,"מאיר נקר 12, ירושלים",מאיר נקר 12,30207-17-24,דירה בבית קומות,2.0,שניה,42.5,430000,,,1970.0,,4.0,3215393160,1,3020717,False,,ירושלים,נקר מאיר,,30207-17-24,30207/17,10117.64705882353,31.7511449254,35.2413279489,2007
2007-11-13,2007-11-13,"הקבלן 5, ירושלים",הקבלן 5,30333-38-7,דירה בבית קומות,5.0,שניה,112.53,1426000,,,1990.0,,5.0,3215231070,1,3033338,False,,ירושלים,הקבלן,,30333-38-7,30333/38,12672.176308539943,31.7874551045,35.1750628296,2007
2007-11-13,2007-11-13,"בן-טבאי 1, ירושלים",בן-טבאי 1,30123-41-77,דירה בבית קומות,3.0,רביעית,63.0,620000,,,1960.0,,6.0,3215470860,1,3012341,False,,ירושלים,בן טבאי,,30123-41-77,30123/41,9841.26984126984,31.7570053844,35.2051486703,2007
2007-11-12,2007-12-11,"אחלמה 307, ירושלים",אחלמה 307,28050-35-25,דירה בבית קומות,3.0,שניה,62.0,568000,,,1980.0,,4.0,3215996850,1,2805035,False,,ירושלים,אחלמה,,28050-35-25,28050/35,9161.290322580646,31.7273502742,35.1884624665,2007
2007-11-12,2007-12-11,"כנפי נשרים 13, ירושלים",כנפי נשרים 13,30262-171-3,משרד,,,115.0,1200000,,,1999.0,,4.0,3240567360,1,30262171,False,,ירושלים,כנפי נשרים,,30262-171-3,30262/171,10434.782608695652,31.7872035924,35.1841517592,2007
2007-11-12,2007-12-11,"בר-יוחאי 1, ירושלים",בר-יוחאי 1,30200-18-11,דירה בבית קומות,3.0,שלישית,71.0,500000,,,1970.0,,4.0,3215970300,1,3020018,False,,ירושלים,בר יוחאי,,30200-18-11,30200/18,7042.2535211267605,31.753998493,35.1992734644,2007
2007-11-12,2007-12-11,"לאה גולדברג 2, ירושלים",לאה גולדברג 2,30645-55-88,קוטג' חד משפחתי,4.0,חמישית,84.8,735000,,,1970.0,,8.0,3215912670,1,3064555,False,,ירושלים,גולדברג לאה,,30645-55-88,30645/55,8667.45283018868,31.8417128559,35.2408443065,2007
2007-11-12,2007-12-11,"יפו 141, ירושלים",יפו 141,30073-28-14,דירה בבית קומות,3.0,שלישית,47.0,600000,,,1950.0,,5.0,3215749110,1,3007328,False,,ירושלים,יפו,,30073-28-14,30073/28,12765.95744680851,31.7858801673,35.2110268657,2007
2007-11-12,2007-12-11,"רבדים 35, ירושלים",רבדים 35,30139-291-2,דירה בבית קומות,4.0,שניה,82.0,1142000,,,1980.0,,3.0,3215796330,1,30139291,False,,ירושלים,רבדים,,30139-291-2,30139/291,13926.829268292682,31.747867928,35.2185861332,2007
2007-11-12,2007-12-11,"הל""ה 30, ירושלים","הל""ה 30",30007-235-10,דירה בבית קומות,3.0,שניה,57.88,843000,,,1950.0,,3.0,3242009580,1,30007235,False,,ירושלים,"הל""ה",,30007-235-10,30007/235,14564.616447823082,31.7641623451,35.2087423811,2007
2007-11-12,2007-12-11,"השישה עשר 44, ירושלים",השישה עשר 44,30667-15-12,דירה בבית קומות,3.0,שלישית,66.2,525000,,,1990.0,,4.0,3215882430,1,3066715,False,,ירושלים,השישה עשר,,30667-15-12,30667/15,7930.513595166163,31.8301849532,35.2463146983,2007
2007-11-12,2007-12-11,"הרב מן ההר 3, ירושלים",הרב מן ההר 3,29937-81-33,דירה בבית קומות,4.0,רביעית,84.0,905000,,,2007.0,,7.0,3215808510,1,2993781,False,,ירושלים,הרב מן ההר,,29937-81-33,29937/81,10773.809523809525,31.7221675839,35.2246868689,2007
2007-11-12,2007-12-11,"מנחם גלרנטר 9, ירושלים",מנחם גלרנטר 9,29937-61-30,דירה בבית קומות,4.0,רביעית,92.2,925000,,,2008.0,,6.0,3215871330,1,2993761,False,,ירושלים,גלרנטר מנחם,,29937-61-30,29937/61,10032.537960954449,31.7204328622,35.2211571449,2007
2007-11-12,2007-12-11,"חיים מרינוב 31, ירושלים",חיים מרינוב 31,29936-96-8,דירה בבית קומות,5.0,שלישית+רביעית,110.5,1150000,,,2007.0,,8.0,3215800080,1,2993696,False,,ירושלים,מרינוב חיים,,29936-96-8,29936/96,10407.239819004524,31.7198528605,35.2200613508,2007
2007-11-12,2007-12-11,"פנמה 6, ירושלים",פנמה 6,30435-115-14,דירה בבית קומות,3.0,קרקע,38.8,858000,,,1950.0,,2.0,3215791620,1,30435115,False,,ירושלים,פנמה,,30435-115-14,30435/115,22113.40206185567,31.7568758978,35.1616819742,2007
2007-11-12,2007-12-11,"המשוררת 11, ירושלים",המשוררת 11,30150-4-11,דירה בבית קומות,4.0,חמישית,71.0,1148000,,,1970.0,,5.0,3215797110,1,301504,False,35% ב 7 שנים,ירושלים,המשוררת,5.0,30150-4-11,30150/4,16169.014084507042,31.7815659189,35.1877905678,2007
2007-11-11,2007-11-11,"ברזיל 4, ירושלים",ברזיל 4,30407-13-27,דירה בבית קומות,3.0,תשיעית,45.0,510000,,,1960.0,,10.0,3215224380,1,3040713,False,55% ב 3 שנים,ירושלים,ברזיל,18.33,30407-13-27,30407/13,11333.333333333334,,,2007
2007-11-11,2007-11-11,"האנפה 4, ירושלים",האנפה 4,28050-38-5,דירה בבית קומות,3.0,ראשונה,50.0,664000,,,1970.0,,4.0,3215238990,1,2805038,False,29% ב 0.4 שנים,ירושלים,האנפה,72.5,28050-38-5,28050/38,13280.0,31.7267305354,35.1887992029,2007
2007-11-11,2007-11-11,"בית לחם 127, ירושלים",בית לחם 127,30092-5-64,דירה בבית קומות,3.0,רביעית,48.2,337000,,,1960.0,,4.0,3215224830,1,300925,True,-17% ב 7 שנים,ירושלים,בית לחם,-2.43,30092-5-64,30092/5,6991.701244813277,31.7464000553,35.2162571902,2007
2007-11-11,2007-11-11,"אגריפס 82, ירושלים",אגריפס 82,30073-62-2,דירה בבית קומות,2.0,,43.0,520000,,,1930.0,,2.0,3215460480,1,3007362,False,,ירושלים,אגריפס,,30073-62-2,30073/62,12093.023255813954,31.7849794489,35.2106726339,2007
2007-11-11,2007-11-11,"צונדק 12, ירושלים",צונדק 12,30723-37-115,דירה בבית קומות,4.0,קרקע ראשונה,101.0,1150000,,,1980.0,,3.0,3215219970,1,3072337,False,,ירושלים,צונדק,,30723-37-115,30723/37,11386.138613861383,31.8109703513,35.2004211199,2007
2007-11-11,2007-11-11,"אהרון פישל 19, ירושלים",אהרון פישל 19,30103-83-18,דירה בבית קומות,3.0,ראשונה,57.0,981000,,,1960.0,,3.0,3215204340,1,3010383,False,10% ב 6.5 שנים,ירושלים,פישל אהרן,1.54,30103-83-18,30103/83,17210.526315789473,31.7937000372,35.2192556415,2007
2007-11-11,2007-11-11,"חברון 88, ירושלים",חברון 88,30001-66-5,דירה בבית קומות,2.0,שניה,39.5,392000,,,1950.0,,3.0,3215788710,1,3000166,False,13% ב 6.9 שנים,ירושלים,חברון,1.88,30001-66-5,30001/66,9924.050632911392,31.7552909357,35.2209945534,2007
2007-11-11,2007-11-11,"קולומביה 7, ירושלים",קולומביה 7,30435-15-40,דירה בבית קומות,3.0,שלישית,41.8,640000,,,1960.0,,5.0,3215652570,1,3043515,False,,ירושלים,קולומביה,,30435-15-40,30435/15,15311.004784688996,31.7585261466,35.1652799566,2007
2007-11-11,2007-11-11,"חסדא 6, ירושלים",חסדא 6,30004-101-136,דירה בבית קומות,3.0,רביעית,58.02,726000,,,1960.0,,4.0,3215350800,1,30004101,False,,ירושלים,חסדא,,30004-101-136,30004/101,12512.9265770424,31.7598289136,35.2141016675,2007
2007-11-11,2007-11-11,"הרב חנוך גרוסברג 3, ירושלים",הרב חנוך גרוסברג 3,30080-262-8,דירה בבית קומות,4.0,שלישית,100.0,768000,,,1990.0,,3.0,3215374560,1,30080262,False,,ירושלים,הרב גרוסברג חנוך,,30080-262-8,30080/262,7680.0,31.795827434,35.2153104795,2007
2007-11-11,2007-11-11,"עולי הגרדום 41, ירושלים",עולי הגרדום 41,30208-14-7,דירה בבית קומות,4.0,שניה,78.2,580000,,,1970.0,,4.0,3215270130,1,3020814,False,,ירושלים,עולי הגרדום,,30208-14-7,30208/14,7416.8797953964195,31.7469987825,35.2381545372,2007
2007-11-11,2007-11-11,"הרב בלוי 37, ירושלים",הרב בלוי 37,30106-130-7,דירה בבית קומות,4.0,שניה,71.0,1309000,,,1985.0,,5.0,3215934240,1,30106130,False,,ירושלים,הרב בלוי,,30106-130-7,30106/130,18436.61971830986,31.7991904312,35.2202224603,2007
2007-11-10,2007-10-11,"ירמיהו 43, ירושלים",ירמיהו 43,30235-198-3,חנות,,,955.0,6263000,,,1980.0,,1.0,3215141190,1,30235198,False,,ירושלים,ירמיהו,,30235-198-3,30235/198,6558.115183246074,31.7897278388,35.2007652472,2007
2007-11-10,2007-10-11,"מנחת יצחק 7, ירושלים",מנחת יצחק 7,30079-170-21,דירה בבית קומות,3.0,ראשונה,93.0,1616000,,,1994.0,,8.0,3215062260,1,30079170,False,,ירושלים,מנחת יצחק,,30079-170-21,30079/170,17376.344086021505,31.7946943505,35.2102181992,2007
2007-11-10,2007-10-11,"מסריק 4, ירושלים",מסריק 4,30003-2-3,דירה בבית קומות,2.0,קרקע,42.0,1697000,,,1960.0,,3.0,3215330070,1,300032,False,49% ב 1 שנים,ירושלים,מסריק,49.0,30003-2-3,30003/2,40404.76190476191,31.7634058731,35.2203864421,2007
2007-11-10,2007-10-11,"הרב משה כלפון הכהן 10, ירושלים",הרב משה כלפון הכהן 10,29937-73-75,דירה בבית קומות,4.0,רביעית,99.5,843000,,,2008.0,,9.0,3214894920,1,2993773,False,,ירושלים,הרב כלפון משה הכהן,,29937-73-75,29937/73,8472.361809045226,31.7201944886,35.2233919348,2007
2007-11-10,2007-10-11,"אורוגוואי 29, ירושלים",אורוגוואי 29,30415-188-30,דירה בבית קומות,3.0,שניה,55.3,533000,,,1960.0,,2.0,3215029560,1,30415188,False,,ירושלים,אורוגואי,,30415-188-30,30415/188,9638.336347197108,31.7556233321,35.1775244786,2007
2007-11-10,2007-10-11,"בית לחם 137, ירושלים",בית לחם 137,30092-10-16,דירה בבית קומות,4.0,רביעית,85.0,561000,,,1960.0,,4.0,3215155800,1,3009210,False,,ירושלים,בית לחם,,30092-10-16,30092/10,6600.0,31.7452589489,35.2154402299,2007
2007-11-10,2007-10-11,"הרצל 52, ירושלים",הרצל 52,30153-93-3,דירה בבית קומות,3.0,ראשונה,59.0,646000,,,1950.0,,3.0,3215031060,1,3015393,False,,ירושלים,הרצל,,30153-93-3,30153/93,10949.152542372882,31.7833729855,35.1943089885,2007
2007-11-10,2007-10-11,"פנים מאירות 13, ירושלים",פנים מאירות 13,30234-83-13,דירה בבית קומות,4.0,חמישית,89.39,1418000,,,1970.0,,7.0,3215231790,1,3023483,False,,ירושלים,פנים מאירות,,30234-83-13,30234/83,15863.071931983442,31.7953485028,35.2021936734,2007
2007-11-10,2007-10-11,"המחתרות 1, ירושלים",המחתרות 1,30209-46-10,דירה בבית קומות,3.0,רביעית,57.0,444000,,,1970.0,,4.0,3214800120,1,3020946,False,,ירושלים,המחתרות,,30209-46-10,30209/46,7789.473684210527,31.7453804337,35.2384613553,2007
2007-11-10,2007-10-11,"חברון 113, ירושלים",חברון 113,30115-18-11,דירה בבית קומות,3.0,שלישית,80.0,1050000,,,1970.0,,3.0,3214785810,1,3011518,False,,ירושלים,חברון,,30115-18-11,30115/18,13125.0,31.7527976951,35.2202312278,2007
2007-11-10,2007-10-11,"זאב חקלאי 15, ירושלים",זאב חקלאי 15,30164-219-44,דירה בבית קומות,3.0,שניה,55.0,716000,,,1960.0,,4.0,3214835280,1,30164219,False,,ירושלים,חקלאי זאב,,30164-219-44,30164/219,13018.181818181818,31.7719320151,35.1853173616,2007
2007-11-09,2007-09-11,"כפר עציון 8, ירושלים",כפר עציון 8,30118-70-18,דירה בבית קומות,4.0,שניה,108.0,1968000,,,1980.0,,3.0,3214444950,1,3011870,False,,ירושלים,כפר עציון,,30118-70-18,30118/70,18222.222222222223,31.7475510335,35.2234453491,2007
2007-11-09,2007-09-11,"אברהם שטרן 12, ירושלים",אברהם שטרן 12,30415-170-5,דירה בבית קומות,4.0,ראשונה,80.0,767000,,,1960.0,,2.0,3214415250,1,30415170,False,,ירושלים,שטרן אברהם,,30415-170-5,30415/170,9587.5,31.7558723733,35.1799935774,2007
2007-11-09,2007-09-11,"השיירות 26, ירושלים",השיירות 26,30006-12-10,דירה בבית קומות,2.0,שלישית,58.0,730000,,,1960.0,,3.0,3214541490,1,3000612,False,,ירושלים,השיירות,,30006-12-10,30006/12,12586.206896551725,31.7625311961,35.2068835793,2007
2007-11-09,2007-09-11,"צונדק 129, ירושלים",צונדק 129,30723-4-146,דירה בבית קומות,4.0,ראשונה,75.0,1037000,,,1980.0,,4.0,3214474890,1,307234,False,,ירושלים,צונדק,,30723-4-146,30723/4,13826.666666666666,31.8103648585,35.1982973532,2007
2007-11-09,2007-09-11,"לאה פורת 11, ירושלים",לאה פורת 11,30424-18-41,דירה בבית קומות,4.0,שניה,107.0,1625000,,,1997.0,,1.0,3214468260,1,3042418,False,,ירושלים,פורת לאה,,30424-18-41,30424/18,15186.915887850468,31.7503657009,35.1683630146,2007
2007-11-09,2007-09-11,"ש""י עגנון 13, ירושלים","ש""י עגנון 13",30006-130-7,דירה בבית קומות,6.0,,152.0,3099000,,,1980.0,,3.0,3214612320,1,30006130,False,,ירושלים,"ש""י עגנון",,30006-130-7,30006/130,20388.157894736843,31.7610570794,35.205212442,2007
2007-11-09,2007-09-11,"צפניה 66, ירושלים",צפניה 66,30084-4-1,דירה בבית קומות,2.0,ראשונה,56.0,246000,,,1950.0,,4.0,3214528890,1,300844,False,,ירושלים,צפניה,,30084-4-1,30084/4,4392.857142857143,31.7929571973,35.2151540783,2007
2007-11-09,2007-09-11,"גרינשפן הרשל 12, ירושלים",גרינשפן הרשל 12,30206-22-4,דירה בבית קומות,2.0,ראשונה,45.3,471000,,,1980.0,,4.0,3214419960,1,3020622,False,,ירושלים,גרינשפן הרשל,,30206-22-4,30206/22,10397.350993377484,31.7467482438,35.2335373129,2007
2007-11-09,2007-09-11,"יורם 4, ירושלים",יורם 4,30023-108-2,דירה בבית קומות,3.0,ראשונה,74.0,2133000,,,1970.0,,3.0,3214684050,1,30023108,False,,ירושלים,יורם,,30023-108-2,30023/108,28824.324324324323,31.7674526722,35.2133579384,2007
2007-11-09,2007-09-11,"המעפילים 20, ירושלים",המעפילים 20,30185-177-15,דירה בבית קומות,4.0,שביעית,102.0,1653000,,,1980.0,,4.0,3214961010,1,30185177,False,,ירושלים,המעפילים,,30185-177-15,30185/177,16205.882352941177,31.7626465758,35.2049445585,2007
2007-11-09,2007-09-11,"הרצל 66, ירושלים",הרצל 66,30153-109-2,דירה בבית קומות,3.0,מרתף,64.0,816000,,,1960.0,,4.0,3214463310,1,30153109,False,,ירושלים,הרצל,,30153-109-2,30153/109,12750.0,31.7830626574,35.1925757139,2007
2007-11-09,2007-09-11,"אצ""ל 11, ירושלים","אצ""ל 11",30654-4-12,דירה בבית קומות,4.0,שישית,96.7,955000,,,1970.0,,7.0,3214924170,1,306544,False,,ירושלים,"אצ""ל",,30654-4-12,30654/4,9875.904860392968,31.8020923695,35.2358654625,2007
2007-11-09,2007-09-11,"רבי בנימין 11, ירושלים",רבי בנימין 11,30147-147-47,דירה בבית קומות,4.0,תשיעית,106.0,1333000,,,1991.0,,,3214444710,1,30147147,False,,ירושלים,רבי בנימין,,30147-147-47,30147/147,12575.471698113208,31.7819373732,35.1955326804,2007
2007-11-09,2007-09-11,"חברון 120, ירושלים",חברון 120,30187-28-17,חנות,,קרקע,393.1,2940000,,,1990.0,,4.0,3214510320,1,3018728,False,,ירושלים,חברון,,30187-28-17,30187/28,7479.012973798015,31.751203445,35.2186895916,2007
2007-11-09,2007-09-11,"משכן שילה 6, ירושלים",משכן שילה 6,30338-219-5,דירה בבית קומות,4.0,ראשונה,92.5,1840000,,,2005.0,,5.0,3214986510,1,30338219,False,,ירושלים,משכן שילה,,30338-219-5,30338/219,19891.891891891893,31.7744476706,35.1887295964,2007
2007-11-07,2007-07-11,"ברזיל 6, ירושלים",ברזיל 6,30407-12-11,דירה בבית קומות,3.0,חמישית,45.0,612000,,,1970.0,,10.0,3213528480,1,3040712,False,65% ב 2.6 שנים,ירושלים,ברזיל,25.0,30407-12-11,30407/12,13600.0,,,2007
2007-11-07,2007-07-11,"אגסי שמעון 8, ירושלים",אגסי שמעון 8,30255-73-17,דירה בבית קומות,5.0,שביעית,172.13,1650000,,,1980.0,,9.0,3213517080,1,3025573,False,,ירושלים,אגסי שמעון,,30255-73-17,30255/73,9585.778190902223,31.7856017137,35.1748831203,2007
2007-11-07,2007-07-11,"אברהם שטרן 33, ירושלים",אברהם שטרן 33,30415-230-32,דירה בבית קומות,3.0,תשיעית,56.0,480000,,,1970.0,,9.0,3213292380,1,30415230,False,,ירושלים,שטרן אברהם,,30415-230-32,30415/230,8571.42857142857,31.7525055198,35.1788106276,2007
2007-11-07,2007-07-11,"הורקניה 2, ירושלים",הורקניה 2,30143-16-6,דירה בבית קומות,3.0,,75.0,693000,,,1992.0,,2.0,3213291360,1,3014316,False,,ירושלים,הורקניה,,30143-16-6,30143/16,9240.0,31.7553997106,35.2031000588,2007
2007-11-07,2007-07-11,"הורקניה 16, ירושלים",הורקניה 16,30123-7-10,דירה בבית קומות,4.0,,94.0,1325000,,,1980.0,,3.0,3213463380,1,301237,False,,ירושלים,הורקניה,,30123-7-10,30123/7,14095.744680851063,31.7575172399,35.2024235162,2007
2007-11-07,2007-07-11,"כרפס 6, ירושלים",כרפס 6,28051-2-10,דירה בבית קומות,2.0,ראשונה,50.9,507000,,,1980.0,,4.0,3213549270,1,280512,False,,ירושלים,כרפס,,28051-2-10,28051/2,9960.707269155206,31.732654781,35.1875517614,2007
2007-11-07,2007-07-11,"אופירה 8, ירושלים",אופירה 8,30244-72-2,דירה בבית קומות,5.0,עמודים,104.0,433000,,,1970.0,,3.0,3213286440,1,3024472,False,,ירושלים,אופירה,,30244-72-2,30244/72,4163.461538461538,31.8003828599,35.2197572214,2007
2007-11-07,2007-07-11,"שחראי 18, ירושלים",שחראי 18,30166-65-4,דירה בבית קומות,4.0,קרקע,70.0,1170000,,,1970.0,,3.0,3213360150,1,3016665,False,,ירושלים,שחראי,,30166-65-4,30166/65,16714.285714285714,31.7689541703,35.1864572769,2007
2007-11-07,2007-07-11,"הסוללים 5, ירושלים",הסוללים 5,30154-48-5,דירה בבית קומות,3.0,ראשונה,65.0,1119000,,,1960.0,,1.0,3213504480,1,3015448,False,,ירושלים,הסוללים,,30154-48-5,30154/48,17215.384615384617,31.7759935667,35.1905458651,2007
2007-11-06,2007-06-11,"אהרון אשכולי 6, ירושלים",אהרון אשכולי 6,30714-5-10,דירה בבית קומות,4.0,שניה,86.9,1046000,,,1980.0,,3.0,3212788770,1,307145,False,47% ב 8 שנים,ירושלים,אשכולי אהרון,5.88,30714-5-10,30714/5,12036.823935558112,31.8111166632,35.1946123018,2007
2007-11-06,2007-06-11,"יעל 8, ירושלים",יעל 8,30016-42-10,דירה בבית קומות,2.0,ראשונה+ שניה,37.0,896000,,,1920.0,,3.0,3212791920,1,3001642,False,,ירושלים,יעל,,30016-42-10,30016/42,24216.216216216217,31.7609558845,35.2212295683,2007
2007-11-06,2007-06-11,"אשר גולאק 2, ירושלים",אשר גולאק 2,30645-10-20,דירה בבית קומות,3.0,שניה,76.8,661000,,,1970.0,,3.0,3212763480,1,3064510,False,35% ב 8.6 שנים,ירושלים,גולאק אשר,4.07,30645-10-20,30645/10,8606.770833333334,31.8437106468,35.2430218257,2007
2007-11-06,2007-06-11,"יצחק ניידיץ 13, ירושלים",יצחק ניידיץ 13,30407-76-8,דירה בבית קומות,2.0,ראשונה,60.7,565000,,,1960.0,,3.0,3212694450,1,3040776,False,62% ב 3.5 שנים,ירושלים,ניידיץ,17.71,30407-76-8,30407/76,9308.07248764415,31.7678283334,35.1728514973,2007
2007-11-06,2007-06-11,"יוסף אבידר 8, ירושלים",יוסף אבידר 8,30427-25-15,דירה בבית קומות,1.0,מרתף+ קרקע+ ראשונה,139.0,1926000,,,2007.0,,,3214725630,1,3042725,False,,ירושלים,אבידר יוסף,,30427-25-15,30427/25,13856.115107913669,31.7498877756,35.1720883226,2007
2007-11-06,2007-06-11,"קדיש לוז 22, ירושלים",קדיש לוז 22,30191-18-27,דירה בבית קומות,5.0,,142.0,1657000,,,1996.0,,6.0,3212727360,1,3019118,False,,ירושלים,קדיש לוז,,30191-18-27,30191/18,11669.014084507042,31.7613342966,35.1836786133,2007
2007-11-06,2007-06-11,"הרב קוסובסקי 13, ירושלים",הרב קוסובסקי 13,30153-14-3,דירה בבית קומות,4.0,ראשונה,120.5,1046000,,,1990.0,,4.0,3212966970,1,3015314,False,,ירושלים,הרב קוסובסקי,,30153-14-3,30153/14,8680.497925311203,31.7853352392,35.1940391618,2007
2007-11-06,2007-06-11,"פנמה 2, ירושלים",פנמה 2,30435-117-13,דירה בבית קומות,3.0,קרקע,44.9,695000,,,1960.0,,2.0,3213044370,1,30435117,False,,ירושלים,פנמה,,30435-117-13,30435/117,15478.841870824052,31.7573846212,35.1621365581,2007
2007-11-06,2007-06-11,"בר-יוחאי 18, ירושלים",בר-יוחאי 18,30199-32-33,דירה בבית קומות,3.0,ראשונה,48.3,544000,,,1960.0,,4.0,3212777370,1,3019932,False,53% ב 8.8 שנים,ירושלים,בר יוחאי,6.02,30199-32-33,30199/32,11262.939958592133,31.7532097832,35.1937197996,2007
2007-11-06,2007-06-11,"הצוף 28, ירושלים",הצוף 28,28046-8-62,דירה בבית קומות,3.0,ראשונה,60.4,466000,,,1970.0,,3.0,3212879340,1,280468,False,,ירושלים,הצוף,,28046-8-62,28046/8,7715.231788079471,31.7330028902,35.1989610044,2007
2007-11-06,2007-06-11,"יאנוש קורצ'אק 23, ירושלים",יאנוש קורצ'אק 23,30397-62-1,דירה בבית קומות,4.0,שלוש עשרה,77.0,636000,,,1980.0,,,3212883270,1,3039762,False,,ירושלים,קורצאק,,30397-62-1,30397/62,8259.74025974026,31.7597936019,35.1711542317,2007
2007-11-06,2007-06-11,"האזוב 3, ירושלים",האזוב 3,28051-52-32,דירה בבית קומות,3.0,שלישית,70.0,605000,,,1980.0,,4.0,3213155430,1,2805152,False,,ירושלים,האזוב,,28051-52-32,28051/52,8642.857142857143,31.7360691868,35.1889653764,2007
2007-11-06,2007-06-11,"הגדנ""ע 11, ירושלים","הגדנ""ע 11",30007-57-2,דירה בבית קומות,4.0,ראשונה,81.0,1528000,,,1971.0,,3.0,3212798100,1,3000757,False,,ירושלים,"הגדנ""ע",,30007-57-2,30007/57,18864.1975308642,31.7630792674,35.2079912283,2007
2007-11-06,2007-06-11,"קויפמן יחזקאל 21, ירושלים",קויפמן יחזקאל 21,30730-10-17,דירה בבית קומות,2.0,שניה,70.0,799000,,,1980.0,,4.0,3212773410,1,3073010,False,,ירושלים,קויפמן יחזקאל,,30730-10-17,30730/10,11414.285714285714,31.8162824947,35.1938789743,2007
2007-11-06,2007-06-11,"ישראל פונט 9, ירושלים",ישראל פונט 9,30644-39-9,דירה בבית קומות,4.0,שניה,79.0,753000,,,1970.0,,2.0,3213226020,1,3064439,False,,ירושלים,פונט ישראל,,30644-39-9,30644/39,9531.645569620254,31.838341597,35.2448286665,2007
2007-11-06,2007-06-11,"יערי אברהם 9, ירושלים",יערי אברהם 9,28046-5-317,דירה בבית קומות,5.0,ראשונה,104.5,983000,,,1980.0,,4.0,3212980500,1,280465,False,,ירושלים,יערי אברהם,,28046-5-317,28046/5,9406.698564593302,31.7342213902,35.1958463527,2007
2007-11-05,2007-05-11,"מעגלי הרי""ם לוין 107, ירושלים","מעגלי הרי""ם לוין 107",30244-130-26,דירה בבית קומות,3.5,חמישית,62.5,356000,,,1970.0,,5.0,3212293950,1,30244130,False,,ירושלים,"מעגלי הרי""ם לוין",,30244-130-26,30244/130,5696.0,31.8025294412,35.2168602169,2007
2007-11-05,2007-05-11,"הנטקה 52, ירושלים",הנטקה 52,30408-52-25,דירה בבית קומות,3.0,ראשונה,64.0,664000,,,1960.0,,6.0,3212246220,1,3040852,False,34% ב 2.8 שנים,ירושלים,הנטקה,12.14,30408-52-25,30408/52,10375.0,31.7670017881,35.1740452371,2007
2007-11-04,2007-04-11,"ירמיהו 60, ירושלים",ירמיהו 60,30235-199-53,דירה בבית קומות,5.0,חמישית,98.3,1180000,,,2007.0,,12.0,3212395200,1,30235199,False,,ירושלים,ירמיהו,,30235-199-53,30235/199,12004.069175991865,31.7921338051,35.203685005,2007
2007-11-04,2007-04-11,"ירמיהו 60, ירושלים",ירמיהו 60,30235-199-55,דירה בבית קומות,6.0,חמישית,147.1,1416000,,,2007.0,,12.0,3212396970,1,30235199,False,,ירושלים,ירמיהו,,30235-199-55,30235/199,9626.104690686609,31.7921338051,35.203685005,2007
2007-11-04,2007-04-11,"השליו 410, ירושלים",השליו 410,28052-32-15,דירה בבית קומות,4.0,שלישית,73.7,620000,,,1980.0,,4.0,3211799700,1,2805232,False,,ירושלים,השליו,,28052-32-15,28052/32,8412.48303934871,31.729793047,35.1875694948,2007
2007-11-04,2007-04-11,"מינץ 21, ירושלים",מינץ 21,30727-31-6,דירה בבית קומות,3.0,שניה,65.0,698000,,,1987.0,,3.0,3211762110,1,3072731,False,,ירושלים,מינץ,,30727-31-6,30727/31,10738.46153846154,31.8228846014,35.1923220187,2007
2007-11-04,2007-04-11,"פינסקר 1, ירושלים",פינסקר 1,30021-65-7,דירה בבית קומות,2.0,,37.0,811000,,,1960.0,,4.0,3211643070,1,3002165,False,,ירושלים,פינסקר,,30021-65-7,30021/65,21918.91891891892,31.7690646226,35.2180249428,2007
2007-11-03,2007-03-11,"בוסתנאי 4, ירושלים",בוסתנאי 4,30009-12-10,דירה בבית קומות,3.0,שלישית,74.0,2035000,,,1980.0,,4.0,3211353660,1,3000912,False,,ירושלים,בוסתנאי,,30009-12-10,30009/12,27500.0,31.766158576,35.2122575769,2007
2007-11-03,2007-03-11,"ציפורה 4, ירושלים",ציפורה 4,30001-32-27,דירה בבית קומות,4.0,שניה,62.6,1049000,,,1960.0,,4.0,3211329210,1,3000132,False,113% ב 9.1 שנים,ירושלים,צפורה,12.42,30001-32-27,30001/32,16757.188498402556,31.7551657507,35.2195836299,2007
