DEALDATE,DEALDATETIME,FULLADRESS,DISPLAYADRESS,GUSH,DEALNATUREDESCRIPTION,ASSETROOMNUM,FLOORNO,DEALNATURE,DEALAMOUNT,NEWPROJECTTEXT,PROJECTNAME,BUILDINGYEAR,YEARBUILT,BUILDINGFLOORS,KEYVALUE,TYPE,POLYGON_ID,TREND_IS_NEGATIVE,TREND_FORMAT,city_name,street,presentage per year,GUSH - Copy,Gush_Helka,Price per sqm,lat,lon,Year
2019-12-31,2019-12-31,"הרב קוטלר 12, בני ברק",הרב קוטלר 12,6122-1179-3,דירה בבית קומות,2.0,א,61.0,1600000,,,1950.0,,2.0,3480669320,1,61221179,False,,בני ברק,הרב קוטלר,,6122-1179-3,6122/1179,26229.508196721312,32.0862395981,34.8343267023,2019
2019-12-31,2019-12-31,"הלוחמים 11, בני ברק",הלוחמים 11,6122-1774-18,דירה,3.0,,77.0,1500000,1.0,מדורגי הפארק,2022.0,,6.0,11181260851,1,61221774,False,,בני ברק,הלוחמים,,6122-1774-18,6122/1774,19480.51948051948,32.088692884,34.8304092832,2019
2019-12-31,2019-12-31,"פרל חיים 7, בני ברק",פרל חיים 7,6122-207-7,דירה בבית קומות,3.5,ג,78.0,1850000,,,1970.0,,3.0,3480932988,1,6122207,False,,בני ברק,פרל חיים,,6122-207-7,6122/207,23717.94871794872,32.0908766486,34.8270716635,2019
2019-12-31,2019-12-31,"גניחובסקי 10, בני ברק",גניחובסקי 10,6195-766-11,דירה בבית קומות,4.0,שלישית,81.7,1625000,,,1976.0,,4.0,3480134183,1,6195766,False,55% ב 7.7 שנים,בני ברק,גניחובסקי,7.14,6195-766-11,6195/766,19889.84088127295,32.099202798,34.8421266754,2019
2019-12-31,2019-12-31,"שח""ל 29, בני ברק","שח""ל 29",6192-771-1,קומבינציה,2.0,קרקע,39.3,661000,,,1950.0,,1.0,3481258629,1,6192771,False,,בני ברק,"שח""ל",,6192-771-1,6192/771,16819.33842239186,32.0913607221,34.8438808777,2019
2019-12-31,2019-12-31,"חנקין 6, בני ברק",חנקין 6,6122-1360-11,דירה בבית קומות,5.0,שלישית,120.0,1880000,,,2019.0,,6.0,3480804083,1,61221360,False,,בני ברק,חנקין,,6122-1360-11,6122/1360,15666.666666666666,32.091939115,34.8344930103,2019
2019-12-30,2019-12-30,"יצחק שדה 1, בני ברק",יצחק שדה 1,6188-366-3,דירה בבית קומות,4.0,שלישית,88.0,1850000,,,2022.0,,4.0,3480812870,1,6188366,False,,בני ברק,שדה יצחק,,6188-366-3,6188/366,21022.727272727272,32.0764868327,34.8292482456,2019
2019-12-30,2019-12-30,"בן-זכאי 1, בני ברק",בן-זכאי 1,6188-426-10,דירה בבית קומות,3.0,א,67.0,1750000,,,1958.0,,3.0,3480927304,1,6188426,False,,בני ברק,בן זכאי,,6188-426-10,6188/426,26119.402985074623,32.0849048887,34.8306351939,2019
2019-12-30,2019-12-30,"ירושלים 55, בני ברק",ירושלים 55,6124-32-13,דירה בבית קומות,2.0,ג,46.75,2400000,,,1960.0,,3.0,3480707397,1,612432,False,76% ב 4 שנים,בני ברק,ירושלים,19.0,6124-32-13,6124/32,51336.89839572192,32.082752298,34.8275046875,2019
2019-12-30,2019-12-30,"רמז 10, בני ברק",רמז 10,6188-370-9,דירת גן,5.0,,100.0,3450000,,,1950.0,,3.0,3462875442,1,6188370,False,,בני ברק,רמז,,6188-370-9,6188/370,34500.0,32.0769052752,34.8309221166,2019
2019-12-30,2019-12-30,"הרב כהנמן 159, בני ברק",הרב כהנמן 159,6185-33-6,דירה בבית קומות,3.0,ראשונה,100.0,1590000,,,2019.0,,4.0,3481000761,1,618533,False,,בני ברק,הרב כהנמן,,6185-33-6,6185/33,15900.0,32.0737382637,34.842281759,2019
2019-12-30,2019-12-30,"בארי 2, בני ברק",בארי 2,6188-443-3,דירה בבית קומות,2.0,א,70.0,1650000,,,1960.0,,3.0,3480652616,1,6188443,False,54% ב 8.7 שנים,בני ברק,בארי,6.21,6188-443-3,6188/443,23571.42857142857,32.0783481702,34.8282940369,2019
2019-12-30,2019-12-30,"רבן גמליאל 13, בני ברק",רבן גמליאל 13,6192-174-0,קוטג' דו משפחתי,7.0,,486.0,553000,,,1970.0,,,3481180416,1,6192174,False,,בני ברק,רבן גמליאל,,6192-174-0,6192/174,1137.8600823045267,32.0862714125,34.8428555108,2019
2019-12-30,2019-12-30,"מצדה 2, בני ברק",מצדה 2,6196-115-33,משרד,,שתים עשרה,129.0,1600000,,,2019.0,,29.0,3480436740,1,6196115,False,,בני ברק,מצדה,,6196-115-33,6196/115,12403.100775193798,32.0925587381,34.8255933127,2019
2019-12-30,2019-12-30,"טבריה 27, בני ברק",טבריה 27,6123-725-15,דירה בבית קומות,2.0,ג,46.56,1425000,,,1950.0,,4.0,3462885505,1,6123725,False,,בני ברק,טבריה,,6123-725-15,6123/725,30605.670103092783,32.0865311314,34.8233843577,2019
2019-12-30,2019-12-30,"דנגור 24, בני ברק",דנגור 24,7361-175-30,דירה בבית קומות,3.0,קומה ‎4‏,57.3,1200000,,,1960.0,,5.0,3480258593,1,7361175,False,,בני ברק,דנגור,,7361-175-30,7361/175,20942.40837696335,32.0969281438,34.831744985,2019
2019-12-29,2019-12-29,"התנאים 1, בני ברק",התנאים 1,6123-83-13,דירה בבית קומות,2.5,ב,56.0,1450000,,,1960.0,,3.0,3480094888,1,612383,False,,בני ברק,התנאים,,6123-83-13,6123/83,25892.85714285714,32.0850747532,34.8223221705,2019
2019-12-29,2019-12-29,"אברבנאל 37, בני ברק",אברבנאל 37,6195-383-2,דירה בבית קומות,3.0,הקרקע,43.1,1255000,,,2019.0,,,3480799762,1,6195383,False,,בני ברק,אברבנאל,,6195-383-2,6195/383,29118.329466357307,32.0950121804,34.8416442651,2019
2019-12-29,2019-12-29,"נורדאו 11, בני ברק",נורדאו 11,6195-625-6,דירה בבית קומות,2.5,שניה,49.0,1265000,,,1960.0,,3.0,3462812976,1,6195625,False,109% ב 11.3 שנים,בני ברק,נורדאו,9.65,6195-625-6,6195/625,25816.326530612245,32.0931441972,34.8344859344,2019
2019-12-26,2019-12-26,"ניל""י 3, בני ברק","ניל""י 3",6196-104-154,משרד,,שלושים ושלוש,127.0,2290000,,,2013.0,,31.0,3480432071,1,6196104,False,,בני ברק,"ניל""י",,6196-104-154,6196/104,18031.49606299213,32.0944440037,34.8242950858,2019
2019-12-26,2019-12-26,"המכבים 71, בני ברק",המכבים 71,7361-169-59,דירה בבית קומות,3.0,ראשונה,102.0,1550000,,,2019.0,,1.0,3480871276,1,7361169,False,,בני ברק,המכבים,,7361-169-59,7361/169,15196.078431372547,,,2019
2019-12-26,2019-12-26,"דוד בן-גוריון 1, בני ברק",דוד בן-גוריון 1,6196-157-49,משרד,,שש עשרה,2996.0,34187000,,,2018.0,,39.0,3480834214,1,6196157,False,,בני ברק,בן גוריון דוד,,6196-157-49,6196/157,11410.881174899869,32.0961757809,34.8229619238,2019
2019-12-26,2019-12-26,"דוד בן-גוריון 1, בני ברק",דוד בן-גוריון 1,6196-157-48,משרד,,ארבע עשרה,1508.0,16812000,,,2018.0,,39.0,3480835664,1,6196157,False,,בני ברק,בן גוריון דוד,,6196-157-48,6196/157,11148.541114058356,32.0961757809,34.8229619238,2019
2019-12-26,2019-12-26,"שמשון הגיבור 5, בני ברק",שמשון הגיבור 5,6190-160-2,תעשיה,,ראשונה,,3300000,,,1950.0,,1.0,3481234733,1,6190160,False,,בני ברק,שמשון הגבור,,6190-160-2,6190/160,,32.0808605798,34.8407353121,2019
2019-12-26,2019-12-26,"הרב אברמסקי 39, בני ברק",הרב אברמסקי 39,6790-59-13,דירת גג,4.0,רביעית +גג,96.0,2600000,,,1980.0,,,3480076009,1,679059,False,,בני ברק,הרב אברמסקי,,6790-59-13,6790/59,27083.33333333333,32.0995493806,34.8379230202,2019
2019-12-26,2019-12-26,"הרב כהנמן 145, בני ברק",הרב כהנמן 145,6185-84-19,דירה בבית קומות,3.0,שישית,62.0,1150000,,,2019.0,,2.0,3480804750,1,618584,False,,בני ברק,הרב כהנמן,,6185-84-19,6185/84,18548.387096774197,,,2019
2019-12-26,2019-12-26,"הושע 5, בני ברק",הושע 5,6122-490-7,דירה בבית קומות,4.0,ראשונה,84.0,2080000,,,2022.0,,3.0,3480580841,1,6122490,False,,בני ברק,הושע,,6122-490-7,6122/490,24761.904761904763,32.0886848175,34.836318068,2019
2019-12-25,2019-12-25,"מצדה 2, בני ברק",מצדה 2,6196-115-32,משרד,,עשרים ושבע,98.0,2137000,,,2019.0,,29.0,3480638493,1,6196115,False,,בני ברק,מצדה,,6196-115-32,6196/115,21806.122448979597,32.0925587381,34.8255933127,2019
2019-12-25,2019-12-25,"עמק יזרעאל 10, בני ברק",עמק יזרעאל 10,6105-97-6,דירה בבית קומות,4.0,שניה,80.65,1560000,,,1989.0,,3.0,3480404782,1,610597,False,24% ב 4.6 שנים,בני ברק,עמק יזרעאל,5.22,6105-97-6,6105/97,19342.83942963422,32.0968485017,34.8353912518,2019
2019-12-24,2019-12-24,"טרומפלדור 5, בני ברק",טרומפלדור 5,6195-499-2,דירה בבית קומות,2.0,א,40.0,1250000,,,1960.0,,3.0,3462712027,1,6195499,False,58% ב 9 שנים,בני ברק,טרומפלדור,6.44,6195-499-2,6195/499,31250.0,32.0949274671,34.8392431244,2019
2019-12-24,2019-12-24,"מצדה 2, בני ברק",מצדה 2,6196-115-31,משרד,,תשיעית,129.0,1600000,,,2019.0,,29.0,3480529830,1,6196115,False,,בני ברק,מצדה,,6196-115-31,6196/115,12403.100775193798,32.0925587381,34.8255933127,2019
2019-12-24,2019-12-24,"דקר 10, בני ברק",דקר 10,6124-331-24,דירה בבית קומות,2.0,א,49.0,873000,,,1965.0,,3.0,3480889981,1,6124331,False,,בני ברק,דקר,,6124-331-24,6124/331,17816.326530612245,32.0789244291,34.8313474717,2019
2019-12-24,2019-12-24,"טרומפלדור 28, בני ברק",טרומפלדור 28,6195-466-8,דירה בבית קומות,3.0,ב,43.0,1330000,,,1960.0,,3.0,3480460230,1,6195466,False,36% ב 6.1 שנים,בני ברק,טרומפלדור,5.9,6195-466-8,6195/466,30930.23255813953,32.0953777002,34.8377765916,2019
2019-12-24,2019-12-24,"אלקבץ 5, בני ברק",אלקבץ 5,6192-1037-8,דירה בבית קומות,3.5,שלישית,73.0,1555000,,,1970.0,,4.0,3462710606,1,61921037,False,129% ב 10.5 שנים,בני ברק,אלקבץ,12.29,6192-1037-8,6192/1037,21301.369863013697,32.0923715411,34.8402972002,2019
2019-12-24,2019-12-24,"סוקולוב 3, בני ברק",סוקולוב 3,6122-659-3,דירה בבית קומות,3.0,רביעית,72.0,1576000,,,2020.0,,3.0,3462796707,1,6122659,False,,בני ברק,סוקולוב,,6122-659-3,6122/659,21888.88888888889,32.0862094615,34.8335259409,2019
2019-12-23,2019-12-23,"הנגב 34, בני ברק",הנגב 34,6195-275-6,דירה בבית קומות,3.0,ב,44.0,1365000,,,1960.0,,3.0,3462858216,1,6195275,False,80% ב 8.9 שנים,בני ברק,הנגב,8.99,6195-275-6,6195/275,31022.727272727272,32.094993466,34.8404464135,2019
2019-12-23,2019-12-23,"דוד בן-גוריון 1, בני ברק",דוד בן-גוריון 1,6196-157-47,משרד,,שישית,368.0,3888000,,,2018.0,,39.0,3462883591,1,6196157,False,,בני ברק,בן גוריון דוד,,6196-157-47,6196/157,10565.217391304348,32.0961757809,34.8229619238,2019
2019-12-22,2019-12-22,"אברבנאל 89, בני ברק",אברבנאל 89,6195-510-11,דירה בבית קומות,4.0,ג,83.0,1480000,,,1960.0,,3.0,3480465247,1,6195510,False,74% ב 10.7 שנים,בני ברק,אברבנאל,6.92,6195-510-11,6195/510,17831.32530120482,32.0958510651,34.8370003369,2019
2019-12-22,2019-12-22,"בעל התניא 4, בני ברק",בעל התניא 4,6188-590-13,דירה בבית קומות,5.0,חמישית,120.0,2450000,,,2009.0,,6.0,3480800226,1,6188590,False,,בני ברק,בעל התניא,,6188-590-13,6188/590,20416.666666666668,32.0792771956,34.8330288972,2019
2019-12-22,2019-12-22,"יצחק נפחא 11, בני ברק",יצחק נפחא 11,6192-505-1,קומבינציה,,,792.0,6750000,,,,,3.0,3480753594,1,6192505,False,,בני ברק,יצחק נפחא,,6192-505-1,6192/505,8522.727272727272,32.0907437809,34.8370994728,2019
2019-12-22,2019-12-22,"דוד בן-גוריון 1, בני ברק",דוד בן-גוריון 1,6196-157-46,משרד,,תשע עשרה,1508.0,17742000,,,2018.0,,39.0,3462716812,1,6196157,False,,בני ברק,בן גוריון דוד,,6196-157-46,6196/157,11765.25198938992,32.0961757809,34.8229619238,2019
2019-12-20,2019-12-20,"המכבים 66, בני ברק",המכבים 66,7361-53-26,דירה בבית קומות,2.0,ראשונה,44.7,1450000,,,1960.0,,4.0,3462778495,1,736153,False,,בני ברק,המכבים,,7361-53-26,7361/53,32438.47874720358,32.0948043049,34.833712002,2019
2019-12-19,2019-12-19,"ברנדשטטר 4, בני ברק",ברנדשטטר 4,6190-735-8,דירה בבית קומות,2.5,א,58.43,1300000,,,1960.0,,2.0,3480101384,1,6190735,False,,בני ברק,ברנדשטטר,,6190-735-8,6190/735,22248.84477152148,32.0806467038,34.835798894,2019
2019-12-19,2019-12-19,"האדמו""ר מויז'ניץ 14, בני ברק","האדמו""ר מויז'ניץ 14",6187-394-10,דירה בבית קומות,3.0,שלישית,60.0,2300000,,,1970.0,,3.0,3462861783,1,6187394,False,198% ב 12 שנים,בני ברק,"האדמו""ר מויז'ניץ",16.5,6187-394-10,6187/394,38333.333333333336,32.0737076375,34.8364283487,2019
2019-12-19,2019-12-19,"רימון 15, בני ברק",רימון 15,6187-464-11,דירה בבית קומות,2.0,ראשונה,43.8,1570000,,,1964.0,,3.0,3480659112,1,6187464,False,215% ב 11.9 שנים,בני ברק,רימון,18.07,6187-464-11,6187/464,35844.74885844749,32.0715754743,34.8370056665,2019
2019-12-19,2019-12-19,"רימון 21, בני ברק",רימון 21,6187-462-21,דירה בבית קומות,2.0,שניה,44.5,400000,,,1965.0,,4.0,3462662466,1,6187462,False,,בני ברק,רימון,,6187-462-21,6187/462,8988.76404494382,32.0716569761,34.836523615,2019
2019-12-18,2019-12-18,"ביאליק 12, בני ברק",ביאליק 12,6195-166-2,דירה בבית קומות,1.0,,,987000,,,2021.0,,6.0,3480938730,1,6195166,False,,בני ברק,ביאליק,,6195-166-2,6195/166,,32.0937969915,34.8366791624,2019
2019-12-18,2019-12-18,"ביאליק 12, בני ברק",ביאליק 12,6195-166-1,חנות,,,23.0,531000,,,2021.0,,6.0,3480935192,1,6195166,False,,בני ברק,ביאליק,,6195-166-1,6195/166,23086.95652173913,32.0937969915,34.8366791624,2019
2019-12-18,2019-12-18,"ביאליק 12, בני ברק",ביאליק 12,6195-166-4,דירה בבית קומות,2.0,,35.0,1645000,,,2021.0,,6.0,3480937077,1,6195166,False,,בני ברק,ביאליק,,6195-166-4,6195/166,47000.0,32.0937969915,34.8366791624,2019
2019-12-18,2019-12-18,"נחום 10, בני ברק",נחום 10,6192-253-6,דירה בבית קומות,4.0,ב,91.0,2250000,,,1966.0,,3.0,3462513232,1,6192253,False,54% ב 5.7 שנים,בני ברק,נחום,9.47,6192-253-6,6192/253,24725.274725274725,32.0843610846,34.8393474559,2019
2019-12-18,2019-12-18,"ראובן אהרונוביץ 45, בני ברק",ראובן אהרונוביץ 45,6192-1198-8,דירה בבית קומות,4.0,קרקע,65.0,1700000,,,1960.0,,2.0,3462543827,1,61921198,False,6% ב 3 שנים,בני ברק,אהרונוביץ ראובן,2.0,6192-1198-8,6192/1198,26153.846153846152,32.0872729507,34.8393582288,2019
2019-12-17,2019-12-17,"המכבים 71, בני ברק",המכבים 71,7361-169-60,דירה בבית קומות,4.0,ראשונה,113.0,1620000,,,2019.0,,1.0,3480176001,1,7361169,False,,בני ברק,המכבים,,7361-169-60,7361/169,14336.283185840708,,,2019
2019-12-17,2019-12-17,"בעל התניא 4, בני ברק",בעל התניא 4,6188-590-12,חנות,,ראשונה,4000.0,85000000,,,2009.0,,6.0,3462560386,1,6188590,False,,בני ברק,בעל התניא,,6188-590-12,6188/590,21250.0,32.0792771956,34.8330288972,2019
2019-12-17,2019-12-17,"השר יגאל אלון 14, בני ברק",השר יגאל אלון 14,6790-4-43,דירה בבית קומות,4.0,שלישית,78.7,973000,,,1970.0,,4.0,3462526891,1,67904,True,-27% ב 3.8 שנים,בני ברק,השר אלון יגאל,-7.11,6790-4-43,6790/4,12363.405336721728,32.0979243662,34.8365821271,2019
2019-12-17,2019-12-17,"הרב משה יברוב 4, בני ברק",הרב משה יברוב 4,6188-243-6,דירה בבית קומות,5.0,שניה,115.0,2500000,,,1950.0,,2.0,3462565896,1,6188243,False,,בני ברק,הרב יברוב משה,,6188-243-6,6188/243,21739.130434782608,32.0827105349,34.8314888578,2019
2019-12-17,2019-12-17,"אברבנאל 125, בני ברק",אברבנאל 125,7361-165-39,דירה,5.0,שלישית,87.0,1656000,1.0,,,,6.0,11181297284,1,7361165,False,,בני ברק,אברבנאל,,7361-165-39,7361/165,19034.48275862069,,,2019
2019-12-16,2019-12-16,"המכבים 71, בני ברק",המכבים 71,7361-169-61,דירה בבית קומות,4.0,שלישית,115.0,1675000,,,2019.0,,1.0,3462814397,1,7361169,False,,בני ברק,המכבים,,7361-169-61,7361/169,14565.217391304348,,,2019
2019-12-16,2019-12-16,"חרל""פ 9, בני ברק","חרל""פ 9",6123-108-62,דירה בבית קומות,3.5,ב,62.0,1535000,,,1960.0,,3.0,3462443893,1,6123108,False,,בני ברק,"חרל""פ",,6123-108-62,6123/108,24758.064516129038,32.086328674,34.8228325011,2019
2019-12-16,2019-12-16,"דוד בן-גוריון 47, בני ברק",דוד בן-גוריון 47,6196-41-5,דירה בבית קומות,4.0,שלישית+גג,96.3,2200000,,,1990.0,,,3462801985,1,619641,False,,בני ברק,בן גוריון דוד,,6196-41-5,6196/41,22845.27518172378,32.0889963419,34.8229003917,2019
2019-12-16,2019-12-16,"מצדה 2, בני ברק",מצדה 2,6196-115-30,משרד,,עשירית,128.0,1330000,,,2019.0,,29.0,3480090364,1,6196115,False,,בני ברק,מצדה,,6196-115-30,6196/115,10390.625,32.0925587381,34.8255933127,2019
2019-12-16,2019-12-16,"גולומב 7, בני ברק",גולומב 7,6188-394-16,דירה בבית קומות,5.0,רביעית,124.48,2950000,,,2016.0,,4.0,3462489510,1,6188394,False,,בני ברק,גולומב,,6188-394-16,6188/394,23698.58611825193,32.0759116322,34.8299594567,2019
2019-12-16,2019-12-16,"ההגנה 7, בני ברק",ההגנה 7,6195-21-15,דירה בבית קומות,4.0,ראשונה,90.0,1600000,,,2015.0,,5.0,3480489694,1,619521,False,,בני ברק,ההגנה,,6195-21-15,6195/21,17777.777777777777,32.0958504218,34.8372548077,2019
2019-12-16,2019-12-16,"ז'בוטינסקי 47, בני ברק",ז'בוטינסקי 47,6196-267-12,דירה בבית קומות,3.0,שלישית,57.0,1310000,,,1960.0,,4.0,3462449171,1,6196267,False,,בני ברק,ז'בוטינסקי,,6196-267-12,6196/267,22982.45614035088,32.0920722546,34.8304548227,2019
2019-12-15,2019-12-15,"הירדן 20, בני ברק",הירדן 20,6122-944-3,דירה בבית קומות,4.0,ראשונה,76.0,1930000,,,1970.0,,3.0,3462870164,1,6122944,False,,בני ברק,הירדן,,6122-944-3,6122/944,25394.736842105263,32.0918234753,34.8374045056,2019
2019-12-15,2019-12-15,"דוד בן-גוריון 1, בני ברק",דוד בן-גוריון 1,6196-157-45,משרד,,שתים עשרה,136.0,1680000,,,2018.0,,39.0,3480483952,1,6196157,False,,בני ברק,בן גוריון דוד,,6196-157-45,6196/157,12352.941176470587,32.0961757809,34.8229619238,2019
2019-12-15,2019-12-15,"יהודית 9, בני ברק",יהודית 9,6188-447-9,דירה בבית קומות,3.0,ג,52.0,1820000,,,1950.0,,4.0,3462607453,1,6188447,False,133% ב 12 שנים,בני ברק,יהודית,11.08,6188-447-9,6188/447,35000.0,32.077718119,34.8278138044,2019
2019-12-12,2019-12-12,"חת""ם סופר 10, בני ברק","חת""ם סופר 10",6122-28-26,דירה בבית קומות,3.0,,70.0,1580000,,,2014.0,,5.0,3480437726,1,612228,False,,בני ברק,"חת""ם סופר",,6122-28-26,6122/28,22571.42857142857,32.088936151,34.8269786393,2019
2019-12-12,2019-12-12,"נורדאו 58, בני ברק",נורדאו 58,6195-12-1,דירה,4.0,שלישית,115.0,1700000,1.0,הרצל,2019.0,,4.0,3462438847,1,619512,False,,בני ברק,נורדאו,,6195-12-1,6195/12,14782.608695652174,32.0957080526,34.8362301503,2019
2019-12-12,2019-12-12,"שלמה המלך 18, בני ברק",שלמה המלך 18,6190-374-2,חנות,,ראשונה,7335.0,85000000,,,1960.0,,1.0,3480453821,1,6190374,False,,בני ברק,שלמה המלך,,6190-374-2,6190/374,11588.275391956371,32.079209218,34.8392927564,2019
2019-12-12,2019-12-12,"הרב כהנמן 103, בני ברק",הרב כהנמן 103,6189-716-162,דירה בבית קומות,5.0,חמישית,116.0,2390000,,,2017.0,,9.0,3462513928,1,6189716,False,,בני ברק,הרב כהנמן,,6189-716-162,6189/716,20603.44827586207,32.0795816439,34.8430600658,2019
2019-12-12,2019-12-12,"הירדן 1, בני ברק",הירדן 1,6122-1725-51,דירה בבית קומות,3.0,רביעית,54.5,1620000,,,1960.0,,4.0,3462351035,1,61221725,False,,בני ברק,הירדן,,6122-1725-51,6122/1725,29724.770642201835,32.0921321974,34.8357106677,2019
2019-12-12,2019-12-12,"הרב כהנמן 103, בני ברק",הרב כהנמן 103,6189-716-470,דירה בבית קומות,4.0,שישית,100.0,2095000,,,2017.0,,9.0,3480196852,1,6189716,False,,בני ברק,הרב כהנמן,,6189-716-470,6189/716,20950.0,32.0795816439,34.8430600658,2019
2019-12-12,2019-12-12,"הרב קוק 43, בני ברק",הרב קוק 43,6123-79-10,דירה בבית קומות,3.5,ב,52.5,1490000,,,1970.0,,3.0,3462334563,1,612379,False,35% ב 7.4 שנים,בני ברק,הרב קוק,4.73,6123-79-10,6123/79,28380.95238095238,32.0850894229,34.8238678453,2019
2019-12-12,2019-12-12,"אברבנאל 30, בני ברק",אברבנאל 30,6195-757-7,דירה בבית קומות,3.0,רביעית,68.54,1980000,,,1960.0,,4.0,3462540782,1,6195757,False,,בני ברק,אברבנאל,,6195-757-7,6195/757,28888.24044353662,32.095348443,34.8419466908,2019
2019-12-11,2019-11-12,"יוחנן הסנדלר 14, בני ברק",יוחנן הסנדלר 14,6185-87-10,דירה בבית קומות,3.0,חמישית,70.0,1480000,,,2019.0,,,3461863951,1,618587,False,,בני ברק,יוחנן הסנדלר,,6185-87-10,6185/87,21142.85714285714,,,2019
2019-12-11,2019-11-12,"צייטלין 18, בני ברק",צייטלין 18,6122-1415-8,דירה בבית קומות,2.0,ב,45.0,1300000,,,1960.0,,3.0,3461423934,1,61221415,False,,בני ברק,צייטלין,,6122-1415-8,6122/1415,28888.88888888889,32.0914462078,34.8368526358,2019
2019-12-11,2019-11-12,"סוקולוב 23, בני ברק",סוקולוב 23,6122-1628-14,דירה בבית קומות,2.0,רביעית,56.0,1750000,,,1970.0,,4.0,3461483239,1,61221628,False,257% ב 16.5 שנים,בני ברק,סוקולוב,15.58,6122-1628-14,6122/1628,31250.0,32.0883371417,34.8335585801,2019
2019-12-11,2019-11-12,"שבזי 12, בני ברק",שבזי 12,6122-349-14,דירה בבית קומות,4.0,רביעית,85.0,1510000,,,2017.0,,4.0,3461431329,1,6122349,False,,בני ברק,שבזי,,6122-349-14,6122/349,17764.70588235294,32.0907985704,34.8311021827,2019
2019-12-11,2019-11-12,"מוהליבר 3, בני ברק",מוהליבר 3,6124-288-2,דירה בבית קומות,2.0,א,48.0,720000,,,1960.0,,4.0,3462289062,1,6124288,False,28% ב 11.5 שנים,בני ברק,מוהליבר,2.43,6124-288-2,6124/288,15000.0,32.0803489237,34.8283278968,2019
2019-12-09,2019-09-12,"נויפלד 6, בני ברק",נויפלד 6,6195-804-21,דירה בבית קומות,3.0,שלישית,66.16,1430000,,,1970.0,,4.0,3459749155,1,6195804,False,90% ב 9.1 שנים,בני ברק,נויפלד,9.89,6195-804-21,6195/804,21614.268440145104,32.0969059116,34.8425176546,2019
2019-12-09,2019-09-12,"ז'בוטינסקי 134, בני ברק",ז'בוטינסקי 134,6122-910-11,דירה בבית קומות,2.0,ג,46.01,1130000,,,1958.0,,3.0,3459737149,1,6122910,False,32% ב 6.8 שנים,בני ברק,ז'בוטינסקי,4.71,6122-910-11,6122/910,24559.878287328844,32.0923726038,34.8355816576,2019
2019-12-09,2019-09-12,"אלישע 24, בני ברק",אלישע 24,6192-292-9,דירה בבית קומות,3.0,ג,60.0,1400000,,,1970.0,,3.0,3459816348,1,6192292,False,6% ב 9 שנים,בני ברק,אלישע,0.67,6192-292-9,6192/292,23333.33333333333,32.0866580914,34.8389716469,2019
2019-12-09,2019-09-12,"הרב יוסף חיים 1, בני ברק",הרב יוסף חיים 1,6196-237-8,דירה בבית קומות,4.0,ראשונה,120.0,2120000,,,1960.0,,1.0,3459776444,1,6196237,False,,בני ברק,הרב יוסף חיים,,6196-237-8,6196/237,17666.666666666668,32.0927577036,34.8289480796,2019
2019-12-08,2019-08-12,"צייטלין 2, בני ברק",צייטלין 2,6122-630-10,מחסנים,,,34.0,5200000,,,2002.0,,4.0,3459667607,1,6122630,False,,בני ברק,צייטלין,,6122-630-10,6122/630,152941.17647058822,32.0914180966,34.835508,2019
2019-12-08,2019-08-12,"חברון 13, בני ברק",חברון 13,6123-624-13,דירה בבית קומות,2.0,ד,54.0,1350000,,,1950.0,,4.0,3458727572,1,6123624,False,0% ב 0.5 שנים,בני ברק,חברון,0.0,6123-624-13,6123/624,25000.0,32.0842170823,34.8259985326,2019
2019-12-08,2019-08-12,"אביעד 8, בני ברק",אביעד 8,6195-671-96,דירה בבית קומות,3.0,שלישית,58.3,1630000,,,1960.0,,3.0,3458752686,1,6195671,False,103% ב 9.2 שנים,בני ברק,אביעד,11.2,6195-671-96,6195/671,27958.83361921098,32.0987533593,34.8439782219,2019
2019-12-08,2019-08-12,"ועד ארבע ארצות 2, בני ברק",ועד ארבע ארצות 2,6192-1101-15,דירה בבית קומות,2.0,,40.0,666000,,,1960.0,,4.0,3459385495,1,61921101,False,,בני ברק,ועד ארבע ארצות,,6192-1101-15,6192/1101,16650.0,32.0899910898,34.845185224,2019
2019-12-08,2019-08-12,"צבי 14, בני ברק",צבי 14,6195-705-9,דירה בבית קומות,4.0,ראשונה,76.46,1670000,,,1972.0,,4.0,3459011076,1,6195705,False,,בני ברק,צבי,,6195-705-9,6195/705,21841.485744179965,32.0975171721,34.8389473974,2019
2019-12-08,2019-08-12,"סעדיה גאון 4, בני ברק",סעדיה גאון 4,6188-283-13,דירה,3.0,,74.0,1524000,1.0,,2016.0,,5.0,11181266549,1,6188283,False,,בני ברק,סעדיה גאון,,6188-283-13,6188/283,20594.594594594597,32.082113489,34.8338362565,2019
2019-12-08,2019-08-12,"יהושע 5, בני ברק",יהושע 5,6123-291-3,דירה בבית קומות,3.0,ראשונה,56.5,1550000,,,1985.0,,3.0,3459451557,1,6123291,False,,בני ברק,יהושע,,6123-291-3,6123/291,27433.62831858407,32.0858489443,34.8282543307,2019
2019-12-08,2019-08-12,"חנקין 6, בני ברק",חנקין 6,6122-1360-23,דירה בבית קומות,4.0,ראשונה,100.0,1700000,,,2019.0,,6.0,3458803610,1,61221360,False,,בני ברק,חנקין,,6122-1360-23,6122/1360,17000.0,32.091939115,34.8344930103,2019
2019-12-08,2019-08-12,"אלישע 7, בני ברק",אלישע 7,6192-247-11,דירה בבית קומות,4.0,ראשונה,103.0,2150000,,,2014.0,,4.0,3458704836,1,6192247,False,,בני ברק,אלישע,,6192-247-11,6192/247,20873.78640776699,32.0846505882,34.8383703327,2019
2019-12-08,2019-08-12,"השר יגאל אלון 8, בני ברק",השר יגאל אלון 8,6790-3-43,דירה בבית קומות,3.0,שניה,65.0,1450000,,,1970.0,,5.0,3458732125,1,67903,False,45% ב 5 שנים,בני ברק,השר אלון יגאל,9.0,6790-3-43,6790/3,22307.69230769231,32.0972968981,34.8366879642,2019
2019-12-08,2019-08-12,"רמז 4, בני ברק",רמז 4,6188-365-13,דירה בבית קומות,4.0,שניה,107.0,1730000,,,1967.0,2019.0,4.0,3459634141,1,6188365,False,,בני ברק,רמז,,6188-365-13,6188/365,16168.22429906542,32.0767404769,34.8295112202,2019
2019-12-08,2019-08-12,"חיים לנדאו 7, בני ברק",חיים לנדאו 7,6195-410-14,דירה בבית קומות,3.0,רביעית,68.0,1300000,,,2019.0,,6.0,3459635794,1,6195410,False,,בני ברק,לנדאו חיים,,6195-410-14,6195/410,19117.647058823528,32.0934416263,34.8419022322,2019
2019-12-07,2019-07-12,"הרצוג 11, בני ברק",הרצוג 11,6123-5-36,דירה בבית קומות,2.0,ב,52.5,1445000,,,1960.0,,4.0,3457918414,1,61235,False,,בני ברק,הרצוג,,6123-5-36,6123/5,27523.809523809523,32.0902321397,34.8250816693,2019
2019-12-06,2019-06-12,"קבוץ גלויות 2, בני ברק",קבוץ גלויות 2,6190-77-6,דירת גג,3.0,שלישית+גג,87.97,2300000,,,1988.0,,3.0,3457646597,1,619077,False,2% ב 1 שנים,בני ברק,קבוץ גלויות,2.0,6190-77-6,6190/77,26145.27679890872,32.0753239619,34.842317528,2019
2019-12-06,2019-06-12,"יהושע 20, בני ברק",יהושע 20,6123-174-6,דירה בבית קומות,2.5,ב,50.81,1420000,,,1940.0,,2.0,3456908315,1,6123174,False,77% ב 5.5 שנים,בני ברק,יהושע,14.0,6123-174-6,6123/174,27947.254477465063,32.0848017679,34.8285825856,2019
2019-12-06,2019-06-12,"הרב פוברסקי 4, בני ברק",הרב פוברסקי 4,6192-814-11,דירה בבית קומות,3.0,ג,63.0,1450000,,,1960.0,,4.0,3456971680,1,6192814,False,,בני ברק,הרב פוברסקי,,6192-814-11,6192/814,23015.87301587301,32.0843365915,34.8416314745,2019
2019-12-06,2019-06-12,"ירושלים 31, בני ברק",ירושלים 31,6123-458-15,דירה בבית קומות,5.0,ג,110.0,2200000,,,1960.0,,3.0,3457071701,1,6123458,False,,בני ברק,ירושלים,,6123-458-15,6123/458,20000.0,32.0841913746,34.829956333,2019
2019-12-05,2019-05-12,"רבי יוסי 8, בני ברק",רבי יוסי 8,6123-753-5,דירה בבית קומות,3.0,ב,61.0,1750000,,,1960.0,,4.0,3455722853,1,6123753,False,,בני ברק,רבי יוסי,,6123-753-5,6123/753,28688.524590163932,32.0861096142,34.826921843,2019
2019-12-05,2019-05-12,"של""ה 8, בני ברק","של""ה 8",6188-570-2,דירה בבית קומות,3.0,קרקע וראשונה,83.0,1825000,,,1980.0,,4.0,3455966163,1,6188570,False,,בני ברק,"של""ה",,6188-570-2,6188/570,21987.95180722892,32.0834220736,34.8341890947,2019
2019-12-05,2019-05-12,"סוקולוב 44, בני ברק",סוקולוב 44,6122-1351-21,דירה בבית קומות,2.0,ג,45.0,1570000,,,1960.0,,3.0,3455964713,1,61221351,False,195% ב 12.2 שנים,בני ברק,סוקולוב,15.98,6122-1351-21,6122/1351,34888.88888888889,32.0906235223,34.8338732458,2019
2019-12-05,2019-05-12,"נויפלד 19, בני ברק",נויפלד 19,6195-738-7,דירה בבית קומות,3.0,שניה,58.71,1375000,,,1965.0,,4.0,3455704148,1,6195738,False,58% ב 7.7 שנים,בני ברק,נויפלד,7.53,6195-738-7,6195/738,23420.20098790666,32.0963526001,34.8401976708,2019
2019-12-04,2019-04-12,"יוחנן הסנדלר 14, בני ברק",יוחנן הסנדלר 14,6185-87-13,דירה בבית קומות,4.0,שניה,82.0,1400000,,,2019.0,,,3455296669,1,618587,False,,בני ברק,יוחנן הסנדלר,,6185-87-13,6185/87,17073.170731707316,,,2019
2019-12-03,2019-03-12,"בן זכאי 20, בני ברק",בן זכאי 20,6188-169-5,דירת גג,4.5,שלישית,90.57,2585000,,,1977.0,,4.0,3454193248,1,6188169,False,,בני ברק,בן זכאי,,6188-169-5,6188/169,28541.45964447389,32.0829384234,34.8305165387,2019
2019-12-03,2019-03-12,"נחמן מברסלב 6, בני ברק",נחמן מברסלב 6,6190-427-9,דירה בבית קומות,4.0,ג,64.0,2150000,,,1960.0,,3.0,3453478398,1,6190427,False,,בני ברק,נחמן מברסלב,,6190-427-9,6190/427,33593.75,32.0797965038,34.837032879,2019
2019-12-03,2019-03-12,"חברון 17, בני ברק",חברון 17,6123-615-14,דירה בבית קומות,2.0,ג,48.0,1490000,,,1960.0,,3.0,3453882020,1,6123615,False,76% ב 9.5 שנים,בני ברק,חברון,8.0,6123-615-14,6123/615,31041.666666666668,32.0845691604,34.8259640463,2019
2019-12-03,2019-03-12,"קובלסקי 9, בני ברק",קובלסקי 9,6195-808-31,דירה בבית קומות,3.0,רביעית,52.97,1500000,,,1980.0,,5.0,3453615771,1,6195808,False,48% ב 5 שנים,בני ברק,קובלסקי,9.6,6195-808-31,6195/808,28317.91580139702,32.0978479385,34.8419189864,2019
2019-12-03,2019-03-12,"אברבנאל 125, בני ברק",אברבנאל 125,7361-165-114,דירה בבית קומות,3.0,שביעית,71.0,1505000,,,2018.0,,6.0,3453676990,1,7361165,False,,בני ברק,אברבנאל,,7361-165-114,7361/165,21197.183098591548,,,2019
2019-12-03,2019-03-12,"נורדאו 19, בני ברק",נורדאו 19,6195-87-7,דירה בבית קומות,3.0,חמישית,67.0,1000000,1.0,,2019.0,,5.0,3454157172,1,619587,False,,בני ברק,נורדאו,,6195-87-7,6195/87,14925.373134328358,32.0936879426,34.8347416466,2019
2019-12-03,2019-03-12,"מנחם בגין 8, בני ברק",מנחם בגין 8,6196-242-8,דירה בבית קומות,3.5,שניה,81.0,1420000,,,1950.0,,3.0,3454183243,1,6196242,False,,בני ברק,בגין מנחם,,6196-242-8,6196/242,17530.864197530864,32.0923517578,34.827270715,2019
2019-12-03,2019-03-12,"באר מים חיים 6, בני ברק",באר מים חיים 6,6189-1168-8,דירה בבית קומות,3.0,"רביעית, חמישית",65.0,2290000,,,1970.0,,4.0,3453540139,1,61891168,False,,בני ברק,באר מים חיים,,6189-1168-8,6189/1168,35230.769230769234,32.0829744072,34.8411632073,2019
2019-12-02,2019-02-12,"עלי הכהן 22, בני ברק",עלי הכהן 22,6196-35-4,דירה בבית קומות,3.0,א,57.0,1670000,,,1970.0,,3.0,3452557068,1,619635,False,53% ב 8.6 שנים,בני ברק,עלי הכהן,6.16,6196-35-4,6196/35,29298.245614035088,32.0903111177,34.8232279824,2019
2019-12-02,2019-02-12,"ביאליק 8, בני ברק",ביאליק 8,6195-168-3,דירה בבית קומות,4.0,ראשונה,70.8,1775000,,,2012.0,,5.0,3453119552,1,6195168,False,,בני ברק,ביאליק,,6195-168-3,6195/168,25070.621468926554,32.0934378954,34.8365966879,2019
2019-11-28,2019-11-28,"אז""ר 2, בני ברק","אז""ר 2",6122-1872-20,דירה בבית קומות,4.5,שלישית,97.5,1950000,,,2002.0,,5.0,3462345525,1,61221872,False,,בני ברק,"אז""ר",,6122-1872-20,6122/1872,20000.0,32.0901706004,34.8341793338,2019
2019-11-28,2019-11-28,"טבריה 24, בני ברק",טבריה 24,6123-770-1,דירה בבית קומות,5.0,קרקע תחתונה,94.33,3080000,,,2005.0,,5.0,3461891414,1,6123770,False,76% ב 11.1 שנים,בני ברק,טבריה,6.85,6123-770-1,6123/770,32651.330435704444,32.0869298844,34.8238030837,2019
2019-11-28,2019-11-28,"אלישע 14, בני ברק",אלישע 14,6192-897-6,דירה בבית קומות,2.0,ב,56.0,1650000,,,1970.0,,5.0,3462401495,1,6192897,False,148% ב 11.7 שנים,בני ברק,אלישע,12.65,6192-897-6,6192/897,29464.285714285717,32.085451748,34.8388516918,2019
2019-11-28,2019-11-28,"המכבים 59, בני ברק",המכבים 59,7361-21-4,דירה,3.0,קומה ‎0‏,72.0,1380000,1.0,,2021.0,,8.0,3461941671,1,736121,False,,בני ברק,המכבים,,7361-21-4,7361/21,19166.666666666668,32.0949051132,34.8329964379,2019
2019-11-28,2019-11-28,"חידושי הרי""ם 6, בני ברק","חידושי הרי""ם 6",6190-801-4,דירה בבית קומות,3.5,א,60.0,2090000,,,1960.0,,3.0,3461987607,1,6190801,False,,בני ברק,"חידושי הרי""ם",,6190-801-4,6190/801,34833.333333333336,32.0775962658,34.8353670411,2019
2019-11-27,2019-11-27,"השניים 26, בני ברק",השניים 26,6195-197-7,דירה בבית קומות,4.0,רביעית,83.0,1600000,1.0,,2018.0,,4.0,3480128441,1,6195197,False,,בני ברק,השניים,,6195-197-7,6195/197,19277.10843373494,32.0936969423,34.83757674,2019
2019-11-27,2019-11-27,"המכבים 71, בני ברק",המכבים 71,7361-169-62,דירה בבית קומות,5.0,שניה,113.0,1725000,,,2019.0,,1.0,3462054336,1,7361169,False,,בני ברק,המכבים,,7361-169-62,7361/169,15265.486725663715,,,2019
2019-11-26,2019-11-26,"נורדאו 47, בני ברק",נורדאו 47,6195-99-3,דירה בבית קומות,4.0,ראשונה,84.22,1680000,,,2009.0,,5.0,3461835241,1,619599,False,,בני ברק,נורדאו,,6195-99-3,6195/99,19947.755877463787,32.0953654915,34.8355037791,2019
2019-11-26,2019-11-26,"גניחובסקי 16, בני ברק",גניחובסקי 16,6195-769-11,דירה בבית קומות,3.0,שלישית,64.41,1400000,,,1970.0,,4.0,3461980879,1,6195769,False,64% ב 9.2 שנים,בני ברק,גניחובסקי,6.96,6195-769-11,6195/769,21735.755317497285,32.0993001388,34.8412471723,2019
2019-11-26,2019-11-26,"וולפסון 10, בני ברק",וולפסון 10,6124-54-9,דירה בבית קומות,3.0,שניה,69.0,1750000,,,2000.0,,4.0,3461751953,1,612454,False,,בני ברק,וולפסון,,6124-54-9,6124/54,25362.318840579712,32.0830813979,34.8300619417,2019
2019-11-26,2019-11-26,"עמק יזרעאל 44, בני ברק",עמק יזרעאל 44,6105-89-11,דירה בבית קומות,4.0,שניה,76.7,1770000,,,1998.0,,5.0,3462743608,1,610589,False,,בני ברק,עמק יזרעאל,,6105-89-11,6105/89,23076.923076923074,32.0990748013,34.8353222962,2019
2019-11-26,2019-11-26,"סומך 6, בני ברק",סומך 6,7361-3-1,דירה בבית קומות,1.5,ראשונה,27.2,800000,,,1970.0,,5.0,3461886136,1,73613,False,,בני ברק,סומך,,7361-3-1,7361/3,29411.764705882357,32.0967927152,34.830159621,2019
2019-11-26,2019-11-26,"גרונר 3, בני ברק",גרונר 3,6196-252-4,דירה בבית קומות,2.5,ראשונה,58.8,1340000,,,1950.0,,2.0,3461758913,1,6196252,False,48% ב 6 שנים,בני ברק,גרונר,8.0,6196-252-4,6196/252,22789.115646258502,32.0920253179,34.8284830637,2019
2019-11-25,2019-11-25,"דוד בן-גוריון 1, בני ברק",דוד בן-גוריון 1,6196-157-42,משרד,,עשרים ותשע,833.0,13101000,,,2018.0,,39.0,3461933522,1,6196157,False,,בני ברק,בן גוריון דוד,,6196-157-42,6196/157,15727.49099639856,32.0961757809,34.8229619238,2019
2019-11-25,2019-11-25,"אברבנאל 37, בני ברק",אברבנאל 37,6195-383-17,דירה בבית קומות,3.0,ראשונה,80.0,1200000,,,2019.0,,,3462513464,1,6195383,False,,בני ברק,אברבנאל,,6195-383-17,6195/383,15000.0,32.0950121804,34.8416442651,2019
2019-11-25,2019-11-25,"השר יגאל אלון 29, בני ברק",השר יגאל אלון 29,6790-7-7,דירה בבית קומות,3.0,שניה,63.69,2300000,,,1970.0,,4.0,3461966524,1,67907,False,101% ב 5 שנים,בני ברק,השר אלון יגאל,20.2,6790-7-7,6790/7,36112.41953210865,32.0989804865,34.8358192883,2019
2019-11-25,2019-11-25,"הרב כהנמן 145, בני ברק",הרב כהנמן 145,6185-84-20,דירה בבית קומות,3.0,חמישית,62.0,1255000,,,2019.0,,2.0,3461733480,1,618584,False,,בני ברק,הרב כהנמן,,6185-84-20,6185/84,20241.93548387097,,,2019
2019-11-25,2019-11-25,"בן-פתחיה 38, בני ברק",בן-פתחיה 38,6122-1346-5,דירה בבית קומות,3.0,ב,48.0,1240000,,,1960.0,,4.0,3461695229,1,61221346,False,,בני ברק,בן פתחיה,,6122-1346-5,6122/1346,25833.33333333333,32.0911349372,34.829542186,2019
2019-11-25,2019-11-25,"הלוחמים 11, בני ברק",הלוחמים 11,6122-1774-17,דירה בבית קומות,3.0,,72.0,1550000,1.0,מדורגי הפארק,2022.0,,6.0,3462235731,1,61221774,False,,בני ברק,הלוחמים,,6122-1774-17,6122/1774,21527.777777777777,32.088692884,34.8304092832,2019
2019-11-25,2019-11-25,"הרב כהנמן 145, בני ברק",הרב כהנמן 145,6185-84-4,דירה,3.0,,60.0,1230000,1.0,כהנמן 147,,,2.0,11181266279,1,618584,False,,בני ברק,הרב כהנמן,,6185-84-4,6185/84,20500.0,,,2019
2019-11-25,2019-11-25,"גרונר 19, בני ברק",גרונר 19,6196-2-98,דירה בבית קומות,3.0,,65.0,1000000,,,1960.0,2018.0,6.0,3461722518,1,61962,False,,בני ברק,גרונר,,6196-2-98,6196/2,15384.615384615385,32.0945520656,34.8279724928,2019
2019-11-25,2019-11-25,"נורדאו 37, בני ברק",נורדאו 37,6195-455-4,דירה בבית קומות,2.0,א,46.27,1230000,,,1960.0,,2.0,3461789450,1,6195455,False,,בני ברק,נורדאו,,6195-455-4,6195/455,26583.099200345798,32.0945515253,34.8351241186,2019
2019-11-25,2019-11-25,"חזון איש 50, בני ברק",חזון איש 50,6188-588-0,מחסנים,,ראשונה,918.0,60000,,,2015.0,,7.0,3462466832,1,6188588,False,,בני ברק,חזון איש,,6188-588-0,6188/588,65.359477124183,32.0800701196,34.8340314476,2019
2019-11-24,2019-11-24,"השניים 10, בני ברק",השניים 10,6195-61-9,דירה בבית קומות,3.0,שניה,70.0,1370000,,,2014.0,,3.0,3461830398,1,619561,False,,בני ברק,השניים,,6195-61-9,6195/61,19571.42857142857,32.0938316013,34.8360031898,2019
2019-11-24,2019-11-24,"הרב משולם ראט 2, בני ברק",הרב משולם ראט 2,6195-523-35,דירה בבית קומות,3.0,שלישית,70.0,1600000,,,2014.0,,6.0,3461620815,1,6195523,False,,בני ברק,הרב ראט משולם,,6195-523-35,6195/523,22857.14285714286,32.0951713688,34.8433628759,2019
2019-11-24,2019-11-24,"אברבנאל 37, בני ברק",אברבנאל 37,6195-383-8,דירה,3.0,,75.0,1200000,1.0,אברבנאל,2019.0,,,11181267192,1,6195383,False,,בני ברק,אברבנאל,,6195-383-8,6195/383,16000.0,32.0950121804,34.8416442651,2019
2019-11-24,2019-11-24,"שלמה המלך 9, בני ברק",שלמה המלך 9,6190-415-3,תעשיה,,ראשונה,43.0,147000,,,1951.0,2020.0,1.0,3462293151,1,6190415,False,,בני ברק,שלמה המלך,,6190-415-3,6190/415,3418.6046511627906,32.0795806478,34.8411814359,2019
2019-11-22,2019-11-22,"ביאליק 2, בני ברק",ביאליק 2,6195-253-10,דירה בבית קומות,2.5,ב,49.6,1350000,,,1950.0,,2.0,3461584014,1,6195253,False,,בני ברק,ביאליק,,6195-253-10,6195/253,27217.74193548387,32.0930060916,34.8363811086,2019
2019-11-21,2019-11-21,"חנקין 6, בני ברק",חנקין 6,6122-1360-9,דירה בבית קומות,5.0,רביעית,101.0,1850000,,,2019.0,,6.0,3462576394,1,61221360,False,,בני ברק,חנקין,,6122-1360-9,6122/1360,18316.831683168315,32.091939115,34.8344930103,2019
2019-11-21,2019-11-21,"רוזנהיים 6, בני ברק",רוזנהיים 6,6192-1203-7,דירה בבית קומות,4.0,שניה,86.75,1900000,,,1970.0,,4.0,3462520192,1,61921203,False,41% ב 4.8 שנים,בני ברק,רוזנהיים,8.54,6192-1203-7,6192/1203,21902.017291066284,32.0871186243,34.8401984761,2019
2019-11-21,2019-11-21,"גרונר 50, בני ברק",גרונר 50,6196-2-97,דירה בבית קומות,3.0,שלישית,67.0,1410000,,,1960.0,,6.0,3461570355,1,61962,False,,בני ברק,גרונר,,6196-2-97,6196/2,21044.776119402984,32.0945520656,34.8279724928,2019
2019-11-21,2019-11-21,"ז'בוטינסקי 99, בני ברק",ז'בוטינסקי 99,6195-259-5,דירה בבית קומות,3.0,עמודים,46.2,1215000,,,1950.0,,2.0,3461689487,1,6195259,False,,בני ברק,ז'בוטינסקי,,6195-259-5,6195/259,26298.701298701297,32.0929930832,34.8373128173,2019
2019-11-21,2019-11-21,"וולפסון 18, בני ברק",וולפסון 18,6123-543-5,דירה בבית קומות,3.0,ראשונה,73.1,2150000,,,1985.0,,4.0,3461600718,1,6123543,False,155% ב 18.3 שנים,בני ברק,וולפסון,8.47,6123-543-5,6123/543,29411.76470588236,32.083455115,34.8302930869,2019
2019-11-21,2019-11-21,"חיד""א 23, בני ברק","חיד""א 23",6192-793-34,דירה בבית קומות,2.0,ב,53.0,1565000,,,1960.0,,3.0,3461616494,1,6192793,False,,בני ברק,"חיד""א",,6192-793-34,6192/793,29528.30188679245,32.0914417556,34.8373519977,2019
2019-11-20,2019-11-20,"הרב הירש 5, בני ברק",הרב הירש 5,6188-229-4,דירה בבית קומות,3.0,ב,66.0,1650000,,,1960.0,,3.0,3461917253,1,6188229,False,3% ב 0.4 שנים,בני ברק,הרב הירש,7.5,6188-229-4,6188/229,25000.0,32.0803136129,34.8336124711,2019
2019-11-20,2019-11-20,"דניאל 15, בני ברק",דניאל 15,6124-99-6,דירה בבית קומות,3.5,שניה,86.18,2330000,,,2006.0,,3.0,3461562438,1,612499,False,148% ב 13.6 שנים,בני ברק,דניאל,10.88,6124-99-6,6124/99,27036.43536783476,32.0812406829,34.8270380491,2019
2019-11-20,2019-11-20,"מנחם בגין 48, בני ברק",מנחם בגין 48,7361-87-21,דירה בבית קומות,3.0,שלישית,38.4,1330000,,,1960.0,,4.0,3462520627,1,736187,False,,בני ברק,בגין מנחם,,7361-87-21,7361/87,34635.41666666667,32.09281224,34.8317611829,2019
2019-11-20,2019-11-20,"ניל""י 3, בני ברק","ניל""י 3",6196-104-152,משרד,,עשרים ותשע,,900000,,,2013.0,,31.0,3462550787,1,6196104,False,,בני ברק,"ניל""י",,6196-104-152,6196/104,,32.0944440037,34.8242950858,2019
2019-11-20,2019-11-20,"נחמיה 16, בני ברק",נחמיה 16,6190-475-10,דירה בבית קומות,2.0,ב,54.5,1500000,,,1960.0,,3.0,3461581607,1,6190475,False,,בני ברק,נחמיה,,6190-475-10,6190/475,27522.935779816515,32.079153296,34.8360774626,2019
2019-11-19,2019-11-19,"רבי עקיבא 124, בני ברק",רבי עקיבא 124,6122-425-9,דירה בבית קומות,3.0,ב,50.0,1475000,,,1950.0,,4.0,3461745718,1,6122425,False,,בני ברק,רבי עקיבא,,6122-425-9,6122/425,29500.0,32.0856075867,34.8351753667,2019
2019-11-19,2019-11-19,"יואל 5, בני ברק",יואל 5,6192-193-2,דירה בבית קומות,3.0,ראשונה,101.0,2150000,,,1970.0,,3.0,3462261802,1,6192193,False,,בני ברק,יואל,,6192-193-2,6192/193,21287.128712871287,32.0893665961,34.8374064622,2019
2019-11-19,2019-11-19,"דון יוסף הנשיא 10, בני ברק",דון יוסף הנשיא 10,6190-825-15,דירה בבית קומות,4.0,ג,82.0,1886000,,,1965.0,,3.0,3462255306,1,6190825,False,,בני ברק,דון יוסף הנשיא,,6190-825-15,6190/825,23000.0,32.0816296523,34.8392574758,2019
2019-11-19,2019-11-19,"פנחס אפשטיין 6, בני ברק",פנחס אפשטיין 6,6123-622-12,דירה בבית קומות,2.5,ד,47.0,1400000,,,1960.0,,4.0,3461509310,1,6123622,False,27% ב 6.5 שנים,בני ברק,אפשטיין פנחס,4.15,6123-622-12,6123/622,29787.23404255319,32.0841928224,34.8257468291,2019
2019-11-19,2019-11-19,"קובלסקי 24, בני ברק",קובלסקי 24,6195-719-15,דירה בבית קומות,3.0,רביעית,58.34,1561000,,,1970.0,,4.0,3461608171,1,6195719,False,23% ב 3.5 שנים,בני ברק,קובלסקי,6.57,6195-719-15,6195/719,26756.94206376414,32.0985959515,34.8399958777,2019
2019-11-18,2019-11-18,"המכבים 59, בני ברק",המכבים 59,7361-21-1,דירה,4.0,מרתף ‎-2‏,95.0,1800000,1.0,,2021.0,,8.0,3461905276,1,736121,False,,בני ברק,המכבים,,7361-21-1,7361/21,18947.36842105263,32.0949051132,34.8329964379,2019
2019-11-18,2019-11-18,"סנש 17, בני ברק",סנש 17,6188-349-7,דירה בבית קומות,6.0,,140.0,3500000,,,1950.0,,1.0,3462559400,1,6188349,False,,בני ברק,סנש,,6188-349-7,6188/349,25000.0,32.0759850864,34.8285105821,2019
2019-11-18,2019-11-18,"דניאל 18, בני ברק",דניאל 18,6124-107-6,דירה בבית קומות,3.0,ב,60.0,2096000,,,1960.0,,2.0,3462468717,1,6124107,False,,בני ברק,דניאל,,6124-107-6,6124/107,34933.333333333336,32.0808354619,34.8264969477,2019
2019-11-18,2019-11-18,"טבריה 33, בני ברק",טבריה 33,6123-108-94,דירה בבית קומות,3.0,ג,50.0,1325000,,,1960.0,,4.0,3461559799,1,6123108,False,33% ב 8 שנים,בני ברק,טבריה,4.12,6123-108-94,6123/108,26500.0,32.086328674,34.8228325011,2019
2019-11-18,2019-11-18,"יצחק מאיר הכהן 1, בני ברק",יצחק מאיר הכהן 1,6192-1012-11,דירה בבית קומות,3.0,שלישית,76.0,2740000,,,1970.0,,3.0,3462808887,1,61921012,False,,בני ברק,יצחק מאיר הכהן,,6192-1012-11,6192/1012,36052.63157894737,32.0848224744,34.8408077785,2019
2019-11-18,2019-11-18,"הפלוגה הדתית 3, בני ברק",הפלוגה הדתית 3,6192-676-2,קומבינציה,,,735.0,1777000,,,2022.0,,2.0,3462493367,1,6192676,False,,בני ברק,הפלוגה הדתית,,6192-676-2,6192/676,2417.687074829932,32.0889226644,34.8407633523,2019
2019-11-18,2019-11-18,"ניסנבוים 10, בני ברק",ניסנבוים 10,6124-120-6,דירה בבית קומות,4.0,שלישית,62.0,2600000,,,1970.0,,3.0,3461545734,1,6124120,False,169% ב 16.4 שנים,בני ברק,ניסנבוים,10.3,6124-120-6,6124/120,41935.48387096774,32.0795517415,34.826896363,2019
2019-11-17,2019-11-17,"נורדאו 5, בני ברק",נורדאו 5,6195-93-3,דירה בבית קומות,3.0,ראשונה,55.5,1380000,,,1950.0,2013.0,5.0,3461544516,1,619593,False,,בני ברק,נורדאו,,6195-93-3,6195/93,24864.864864864863,32.0928690782,34.8343682175,2019
2019-11-17,2019-11-17,"טרומפלדור 22, בני ברק",טרומפלדור 22,6195-487-11,דירה בבית קומות,2.5,ג,39.7,1252000,,,1960.0,,3.0,3461580418,1,6195487,False,7% ב 3.3 שנים,בני ברק,טרומפלדור,2.12,6195-487-11,6195/487,31536.52392947103,32.0953490653,34.8382714618,2019
2019-11-17,2019-11-17,"דנגור 18, בני ברק",דנגור 18,7361-43-24,דירה בבית קומות,3.0,רביעית,57.6,1390000,,,1960.0,,4.0,3462331170,1,736143,False,54% ב 4.7 שנים,בני ברק,דנגור,11.49,7361-43-24,7361/43,24131.944444444445,32.0966276366,34.8313208832,2019
2019-11-17,2019-11-17,"פנקס 9, בני ברק",פנקס 9,6124-290-9,דירה בבית קומות,2.5,ג,48.0,1450000,,,1960.0,,4.0,3462696715,1,6124290,False,11% ב 4.3 שנים,בני ברק,פנקס,2.56,6124-290-9,6124/290,30208.33333333333,32.0805889261,34.8284266423,2019
2019-11-17,2019-11-17,"הרב כהנמן 103, בני ברק",הרב כהנמן 103,6189-716-473,דירה בבית קומות,6.0,שלישית,122.0,3100000,,,2017.0,,9.0,3462371828,1,6189716,False,,בני ברק,הרב כהנמן,,6189-716-473,6189/716,25409.83606557377,32.0795816439,34.8430600658,2019
2019-11-17,2019-11-17,"הרב סורוצקין 3, בני ברק",הרב סורוצקין 3,6192-1025-1,דירה בבית קומות,3.0,ראשונה,63.5,1600000,,,1970.0,,4.0,3461466535,1,61921025,False,,בני ברק,הרב סורוצקין,,6192-1025-1,6192/1025,25196.850393700788,32.0855670706,34.8412872945,2019
2019-11-17,2019-11-17,"הרב כהנמן 103, בני ברק",הרב כהנמן 103,6189-716-160,דירה בבית קומות,4.0,ראשונה,89.0,2375000,,,2017.0,,9.0,3462327603,1,6189716,False,,בני ברק,הרב כהנמן,,6189-716-160,6189/716,26685.393258426968,32.0795816439,34.8430600658,2019
2019-11-17,2019-11-17,"פנחס אפשטיין 7, בני ברק",פנחס אפשטיין 7,6123-874-6,דירה בבית קומות,3.0,ב,63.0,1905000,,,1960.0,,3.0,3462492671,1,6123874,False,194% ב 16.7 שנים,בני ברק,אפשטיין פנחס,11.62,6123-874-6,6123/874,30238.09523809524,32.0839792552,34.8254541174,2019
2019-11-17,2019-11-17,"אוסישקין 8, בני ברק",אוסישקין 8,6195-241-12,דירה בבית קומות,3.0,רביעית,64.23,1600000,,,2014.0,,6.0,3461698622,1,6195241,False,137% ב 7.9 שנים,בני ברק,אוסישקין,17.34,6195-241-12,6195/241,24910.477969796044,32.0933765393,34.8388725059,2019
2019-11-14,2019-11-14,"הראשונים 4, בני ברק",הראשונים 4,6122-1406-16,דירה בבית קומות,3.0,ג,45.0,1300000,,,1960.0,,4.0,3461519866,1,61221406,False,198% ב 14.5 שנים,בני ברק,הראשונים,13.66,6122-1406-16,6122/1406,28888.88888888889,32.0903808506,34.8260058441,2019
2019-11-14,2019-11-14,"רב האי גאון 8, בני ברק",רב האי גאון 8,6187-488-3,דירה בבית קומות,4.0,קרקע,82.5,1670000,,,1950.0,,2.0,3461706481,1,6187488,False,,בני ברק,רב האי גאון,,6187-488-3,6187/488,20242.424242424244,32.0710205809,34.8374064215,2019
2019-11-14,2019-11-14,"הרב אריה רבינוביץ 2, בני ברק",הרב אריה רבינוביץ 2,6187-178-2,דירה בבית קומות,3.0,שניה,53.75,1399000,,,1970.0,,3.0,3461816333,1,6187178,False,27% ב 2.2 שנים,בני ברק,הרב רבינוביץ אריה,12.27,6187-178-2,6187/178,26027.906976744187,32.0723881704,34.8409290772,2019
2019-11-14,2019-11-14,"המכבים 67, בני ברק",המכבים 67,7361-31-5,דירה בבית קומות,3.0,שניה,35.9,1380000,,,1950.0,,4.0,3461420309,1,736131,False,17% ב 3.7 שנים,בני ברק,המכבים,4.59,7361-31-5,7361/31,38440.11142061281,32.0958611946,34.8334390567,2019
2019-11-13,2019-11-13,"מיכה 6, בני ברק",מיכה 6,6192-835-5,דירה בבית קומות,3.5,ב,62.0,1800000,,,1970.0,,3.0,3461393020,1,6192835,False,,בני ברק,מיכה,,6192-835-5,6192/835,29032.25806451613,32.0860185008,34.8372231574,2019
2019-11-13,2019-11-13,"סעדיה גאון 4, בני ברק",סעדיה גאון 4,6188-283-15,דירה,3.0,שניה,74.0,1480000,1.0,,2016.0,,5.0,3461569137,1,6188283,False,,בני ברק,סעדיה גאון,,6188-283-15,6188/283,20000.0,32.082113489,34.8338362565,2019
2019-11-13,2019-11-13,"מצדה 2, בני ברק",מצדה 2,6196-115-29,משרד,,עשרים ושמונה,400.0,4846000,,,2019.0,,29.0,3462173468,1,6196115,False,,בני ברק,מצדה,,6196-115-29,6196/115,12115.0,32.0925587381,34.8255933127,2019
2019-11-13,2019-11-13,"הרב סורוצקין 3, בני ברק",הרב סורוצקין 3,6192-1025-2,דירה בבית קומות,3.0,ראשונה,63.5,2225000,,,1970.0,,4.0,3461428690,1,61921025,False,,בני ברק,הרב סורוצקין,,6192-1025-2,6192/1025,35039.370078740154,32.0855670706,34.8412872945,2019
2019-11-13,2019-11-13,"אברבנאל 37, בני ברק",אברבנאל 37,6195-383-18,דירה בבית קומות,3.0,רביעית,65.0,1250000,,,2019.0,,,3461489967,1,6195383,False,,בני ברק,אברבנאל,,6195-383-18,6195/383,19230.76923076923,32.0950121804,34.8416442651,2019
2019-11-13,2019-11-13,"הוז דב 32, בני ברק",הוז דב 32,6195-479-8,דירה בבית קומות,2.0,ב,40.0,1225000,,,1960.0,,3.0,3461464360,1,6195479,False,51% ב 9.5 שנים,בני ברק,הוז דב,5.37,6195-479-8,6195/479,30625.0,32.0950466523,34.8378207165,2019
2019-11-13,2019-11-13,"בורוכוב 29, בני ברק",בורוכוב 29,6195-188-8,דירה בבית קומות,2.0,ב,42.3,1545000,,,1960.0,,3.0,3461398066,1,6195188,False,93% ב 9.4 שנים,בני ברק,בורוכוב,9.89,6195-188-8,6195/188,36524.822695035466,32.095004128,34.838278802,2019
2019-11-12,2019-12-11,"דוד בן-גוריון 11, בני ברק",דוד בן-גוריון 11,6196-376-97,משרד,,רביעית,121.5,1950000,,,2013.0,,22.0,3480189921,1,6196376,False,3% ב 6.2 שנים,בני ברק,בן גוריון דוד,0.48,6196-376-97,6196/376,16049.382716049382,32.09415029,34.8227360192,2019
2019-11-12,2019-12-11,"יהודית 4, בני ברק",יהודית 4,6188-524-17,דירה בבית קומות,3.0,ג,62.0,1800000,,,1968.0,,3.0,3462277114,1,6188524,False,175% ב 14.8 שנים,בני ברק,יהודית,11.82,6188-524-17,6188/524,29032.25806451613,32.0777332149,34.827403924,2019
2019-11-12,2019-12-11,"אברהם בנימין 3, בני ברק",אברהם בנימין 3,6195-600-1,דירה בבית קומות,3.0,1,58.3,1475000,,,1970.0,,3.0,3462469471,1,6195600,False,63% ב 8.7 שנים,בני ברק,בנימין אברהם,7.24,6195-600-1,6195/600,25300.171526586622,32.0931910805,34.8398955548,2019
2019-11-12,2019-12-11,"רבי ישראל אבו חצירא 21, בני ברק",רבי ישראל אבו חצירא 21,6196-303-22,דירה בבית קומות,3.0,שלישית,49.0,1355000,,,1970.0,,4.0,3462726614,1,6196303,False,16% ב 3.9 שנים,בני ברק,אבו חצירא ישראל,4.1,6196-303-22,6196/303,27653.0612244898,32.0948843758,34.8307429809,2019
2019-11-12,2019-12-11,"ז'בוטינסקי 15, בני ברק",ז'בוטינסקי 15,6196-248-17,דירה בבית קומות,2.5,שניה,48.4,1280000,,,1960.0,,3.0,3462231642,1,6196248,False,,בני ברק,ז'בוטינסקי,,6196-248-17,6196/248,26446.280991735537,32.0920678219,34.8274487841,2019
2019-11-12,2019-12-11,"המכבים 83, בני ברק",המכבים 83,7361-134-24,דירה בבית קומות,3.0,שלישית,45.8,833000,,,1960.0,,4.0,3462512072,1,7361134,False,,בני ברק,המכבים,,7361-134-24,7361/134,18187.772925764195,32.0978584834,34.8334579301,2019
2019-11-11,2019-11-11,"מצדה 2, בני ברק",מצדה 2,6196-115-28,אופציה,,,,282000,,,2019.0,,29.0,3462273054,1,6196115,False,,בני ברק,מצדה,,6196-115-28,6196/115,,32.0925587381,34.8255933127,2019
2019-11-11,2019-11-11,"הלוחמים 11, בני ברק",הלוחמים 11,6122-1774-16,דירה בבית קומות,4.0,שניה,104.0,2080000,1.0,מדורגי הפארק,2022.0,,6.0,3461959129,1,61221774,False,,בני ברק,הלוחמים,,6122-1774-16,6122/1774,20000.0,32.088692884,34.8304092832,2019
2019-11-11,2019-11-11,"חת""ם סופר 7, בני ברק","חת""ם סופר 7",6122-1536-5,דירה בבית קומות,3.0,ב,59.0,1750000,,,1960.0,,4.0,3461304019,1,61221536,False,,בני ברק,"חת""ם סופר",,6122-1536-5,6122/1536,29661.01694915254,32.0894062635,34.8272350629,2019
2019-11-09,2019-09-11,"הר הבית 3, בני ברק",הר הבית 3,6122-241-28,דירה בבית קומות,5.0,עשירית,111.0,2400000,,,1940.0,2016.0,6.0,3460800666,1,6122241,False,,בני ברק,הר הבית,,6122-241-28,6122/241,21621.62162162162,32.0889429537,34.828608148,2019
2019-11-09,2019-09-11,"הלוחמים 11, בני ברק",הלוחמים 11,6122-1774-12,דירה,3.0,,82.0,1900000,1.0,מדורגי הפארק,2022.0,,6.0,11181260847,1,61221774,False,,בני ברק,הלוחמים,,6122-1774-12,6122/1774,23170.731707317074,32.088692884,34.8304092832,2019
2019-11-09,2019-09-11,"אוסישקין 19, בני ברק",אוסישקין 19,6195-221-7,דירה בבית קומות,3.0,שלישית,55.11,1500000,,,2000.0,,4.0,3459846015,1,6195221,False,192% ב 19.3 שנים,בני ברק,אוסישקין,9.95,6195-221-7,6195/221,27218.290691344584,32.0944802313,34.8386203467,2019
2019-11-09,2019-09-11,"מצדה 2, בני ברק",מצדה 2,6196-115-25,משרד,,עשרים ותשע,383.0,9111000,,,2019.0,,29.0,3459878553,1,6196115,False,,בני ברק,מצדה,,6196-115-25,6196/115,23788.511749347257,32.0925587381,34.8255933127,2019
2019-11-09,2019-09-11,"הלוחמים 11, בני ברק",הלוחמים 11,6122-1774-14,דירה,5.0,,120.0,2555000,1.0,מדורגי הפארק,2022.0,,6.0,11181260849,1,61221774,False,,בני ברק,הלוחמים,,6122-1774-14,6122/1774,21291.666666666668,32.088692884,34.8304092832,2019
2019-11-09,2019-09-11,"הלוחמים 11, בני ברק",הלוחמים 11,6122-1774-13,דירה,4.0,,106.0,2080000,1.0,מדורגי הפארק,2022.0,,6.0,11181260848,1,61221774,False,,בני ברק,הלוחמים,,6122-1774-13,6122/1774,19622.64150943396,32.088692884,34.8304092832,2019
2019-11-09,2019-09-11,"רבי עקיבא 152, בני ברק",רבי עקיבא 152,6192-241-8,דירה בבית קומות,2.5,ג,53.0,1455000,,,1960.0,,4.0,3459739556,1,6192241,False,11% ב 5.7 שנים,בני ברק,רבי עקיבא,1.93,6192-241-8,6192/241,27452.830188679247,32.085306406,34.8382022146,2019
2019-11-09,2019-09-11,"הרב כהנמן 145, בני ברק",הרב כהנמן 145,6185-84-21,דירה בבית קומות,4.0,שביעית,110.0,2000000,,,2019.0,,2.0,3459788827,1,618584,False,,בני ברק,הרב כהנמן,,6185-84-21,6185/84,18181.81818181818,,,2019
2019-11-09,2019-09-11,"רמח""ל 5, בני ברק","רמח""ל 5",6123-158-8,דירה בבית קומות,5.0,שלישית,84.5,2800000,,,2008.0,,5.0,3459786246,1,6123158,False,,בני ברק,"רמח""ל",,6123-158-8,6123/158,33136.09467455621,32.0843477405,34.8292263532,2019
2019-11-09,2019-09-11,"הלוחמים 11, בני ברק",הלוחמים 11,6122-1774-15,דירה,5.0,,115.0,2755000,1.0,מדורגי הפארק,2022.0,,6.0,11181260850,1,61221774,False,,בני ברק,הלוחמים,,6122-1774-15,6122/1774,23956.52173913044,32.088692884,34.8304092832,2019
2019-11-09,2019-09-11,"הלוחמים 11, בני ברק",הלוחמים 11,6122-1774-11,דירה,3.0,,74.0,1700000,1.0,מדורגי הפארק,2022.0,,6.0,11181260846,1,61221774,False,,בני ברק,הלוחמים,,6122-1774-11,6122/1774,22972.972972972973,32.088692884,34.8304092832,2019
2019-11-07,2019-07-11,"רב אמי 10, בני ברק",רב אמי 10,6190-721-10,דירה בבית קומות,3.0,ג,63.0,2200000,,,1970.0,,3.0,3458108828,1,6190721,False,,בני ברק,רב אמי,,6190-721-10,6190/721,34920.63492063492,32.0772843536,34.83422312,2019
2019-11-07,2019-07-11,"הושע 5, בני ברק",הושע 5,6122-1456-6,דירה בבית קומות,3.0,ב,40.0,1545000,,,1960.0,,3.0,3457605475,1,61221456,False,24% ב 6.1 שנים,בני ברק,הושע,3.93,6122-1456-6,6122/1456,38625.0,32.0889077289,34.8363301454,2019
2019-11-07,2019-07-11,"רבי עקיבא 10, בני ברק",רבי עקיבא 10,6123-5-23,דירה בבית קומות,2.0,ג,49.0,1400000,,,1950.0,,4.0,3457608578,1,61235,False,261% ב 18 שנים,בני ברק,רבי עקיבא,14.5,6123-5-23,6123/5,28571.42857142857,32.0902321397,34.8250816693,2019
2019-11-07,2019-07-11,"חברון 17, בני ברק",חברון 17,6123-615-9,דירה בבית קומות,2.0,ב,48.0,1460000,,,1960.0,,3.0,3457636621,1,6123615,False,30% ב 5.5 שנים,בני ברק,חברון,5.45,6123-615-9,6123/615,30416.666666666668,32.0845691604,34.8259640463,2019
2019-11-07,2019-07-11,"הרב בלוי 9, בני ברק",הרב בלוי 9,6122-557-4,דירה בבית קומות,2.0,ב,43.84,1300000,,,1950.0,,3.0,3457612377,1,6122557,False,,בני ברק,הרב בלוי,,6122-557-4,6122/557,29653.284671532845,32.0868863547,34.8324408822,2019
2019-11-07,2019-07-11,"רוזנהיים 15, בני ברק",רוזנהיים 15,6192-852-13,דירה בבית קומות,2.5,ג,50.0,1550000,,,1970.0,,3.0,3458183532,1,6192852,False,,בני ברק,רוזנהיים,,6192-852-13,6192/852,31000.0,32.0861198069,34.8404721867,2019
2019-11-07,2019-07-11,"שבזי 12, בני ברק",שבזי 12,6122-349-11,דירה בבית קומות,3.0,שלישית,59.0,1320000,,,2017.0,,4.0,3457634649,1,6122349,False,,בני ברק,שבזי,,6122-349-11,6122/349,22372.881355932204,32.0907985704,34.8311021827,2019
2019-11-07,2019-07-11,"המכבים 71, בני ברק",המכבים 71,7361-169-72,דירה בבית קומות,3.0,שישית,93.0,1360000,,,2019.0,,1.0,3458671863,1,7361169,False,,בני ברק,המכבים,,7361-169-72,7361/169,14623.655913978497,,,2019
2019-11-06,2019-06-11,"רבי עקיבא 75, בני ברק",רבי עקיבא 75,6122-912-11,דירה בבית קומות,2.0,,40.0,1100000,,,1950.0,,4.0,3456973391,1,6122912,False,,בני ברק,רבי עקיבא,,6122-912-11,6122/912,27500.0,32.0864922202,34.8309129118,2019
2019-11-06,2019-06-11,"דוד בן-גוריון 1, בני ברק",דוד בן-גוריון 1,6196-157-34,משרד,,שמינית,84.0,1439000,,,2018.0,,39.0,3457278877,1,6196157,False,,בני ברק,בן גוריון דוד,,6196-157-34,6196/157,17130.95238095238,32.0961757809,34.8229619238,2019
2019-11-06,2019-06-11,"הרב יעקב לנדא 9, בני ברק",הרב יעקב לנדא 9,6188-584-11,דירה בבית קומות,4.0,קומה ‎2‏,95.5,1980000,,,2005.0,,7.0,3456654507,1,6188584,False,133% ב 14.2 שנים,בני ברק,הרב לנדא יעקב,9.37,6188-584-11,6188/584,20732.98429319372,32.0800570883,34.832847325,2019
2019-11-06,2019-06-11,"דוד בן-גוריון 11, בני ברק",דוד בן-גוריון 11,6196-376-172,משרד,,"עשרים, עשרים ואחת",1743.1,15750000,,,2013.0,,22.0,3457253792,1,6196376,True,-5% ב 2.6 שנים,בני ברק,בן גוריון דוד,-1.92,6196-376-172,6196/376,9035.626183236762,32.09415029,34.8227360192,2019
2019-11-06,2019-06-11,"סוקולוב 3, בני ברק",סוקולוב 3,6122-659-2,דירה בבית קומות,3.0,ראשונה,70.0,1500000,,,2020.0,,3.0,3457193733,1,6122659,False,,בני ברק,סוקולוב,,6122-659-2,6122/659,21428.571428571428,32.0862094615,34.8335259409,2019
2019-11-04,2019-04-11,"שלמה בן-יוסף 12, בני ברק",שלמה בן-יוסף 12,6196-298-6,דירה בבית קומות,3.0,שלישית,49.2,1525000,,,1970.0,,6.0,3454656668,1,6196298,False,,בני ברק,בן יוסף שלמה,,6196-298-6,6196/298,30995.93495934959,32.0942585506,34.8299479906,2019
2019-11-03,2019-03-11,"ביאליק 8, בני ברק",ביאליק 8,6195-168-6,דירה בבית קומות,3.0,ראשונה,58.0,1520000,,,2012.0,,5.0,3453849975,1,6195168,False,,בני ברק,ביאליק,,6195-168-6,6195/168,26206.896551724138,32.0934378954,34.8365966879,2019
2019-11-03,2019-03-11,"קובלסקי 16, בני ברק",קובלסקי 16,6195-821-7,דירה בבית קומות,4.0,רביעית +חמישית,87.34,1905000,,,1970.0,,6.0,3454281553,1,6195821,False,29% ב 4.2 שנים,בני ברק,קובלסקי,6.9,6195-821-7,6195/821,21811.312113579115,32.0982780872,34.8413805461,2019
2019-11-02,2019-02-11,"רבי טרפון 12, בני ברק",רבי טרפון 12,6123-860-4,דירה בבית קומות,3.0,א,59.2,1600000,,,1960.0,,3.0,3452853303,1,6123860,False,,בני ברק,רבי טרפון,,6123-860-4,6123/860,27027.027027027027,32.0863926651,34.8277481263,2019
2019-11-02,2019-02-11,"רבי עקיבא 145, בני ברק",רבי עקיבא 145,6192-800-24,דירה בבית קומות,2.0,ב,53.0,1620000,,,1960.0,,5.0,3452890075,1,6192800,False,183% ב 11.2 שנים,בני ברק,רבי עקיבא,16.34,6192-800-24,6192/800,30566.03773584905,32.0860391033,34.8388997143,2019
2019-11-02,2019-02-11,"חיים לנדאו 7, בני ברק",חיים לנדאו 7,6195-410-33,דירה בבית קומות,3.0,שלישית,68.0,1305000,,,2019.0,,6.0,3453459316,1,6195410,False,,בני ברק,לנדאו חיים,,6195-410-33,6195/410,19191.176470588234,32.0934416263,34.8419022322,2019
2019-11-01,2019-01-11,"באר מים חיים 1, בני ברק",באר מים חיים 1,6189-1172-1,דירה בבית קומות,4.0,ראשונה,105.0,2500000,,,2002.0,,2.0,3451314389,1,61891172,False,,בני ברק,באר מים חיים,,6189-1172-1,6189/1172,23809.52380952381,32.0833427196,34.841763001,2019
2019-10-31,2019-10-31,"אלישע 29, בני ברק",אלישע 29,6192-953-4,דירה בבית קומות,4.0,שניה,69.5,2200000,,,1970.0,,3.0,3461377302,1,6192953,False,33% ב 8.7 שנים,בני ברק,אלישע,3.79,6192-953-4,6192/953,31654.676258992808,32.0864058392,34.8385416317,2019
2019-10-31,2019-10-31,"משה בנגו 19, בני ברק",משה בנגו 19,6124-28-4,דירה בבית קומות,3.0,ב,62.0,1735000,,,1970.0,,3.0,3460992298,1,612428,False,,בני ברק,בגנו משה,,6124-28-4,6124/28,27983.870967741936,32.0825126488,34.8281425161,2019
2019-10-31,2019-10-31,"הירדן 22, בני ברק",הירדן 22,6122-945-7,דירה בבית קומות,1.5,א,29.01,399000,,,1960.0,,1.0,3461227720,1,6122945,False,,בני ברק,הירדן,,6122-945-7,6122/945,13753.87797311272,32.0918343447,34.8376121099,2019
2019-10-30,2019-10-30,"ז'בוטינסקי 156, בני ברק",ז'בוטינסקי 156,6122-928-1,חנות,,קרקע,,470000,,,1960.0,,2.0,3461214815,1,6122928,False,235% ב 14.5 שנים,בני ברק,ז'בוטינסקי,16.21,6122-928-1,6122/928,,32.0924668855,34.8376411814,2019
2019-10-30,2019-10-30,"דוד בן-גוריון 11, בני ברק",דוד בן-גוריון 11,6196-376-130,משרד,,אחת עשרה,178.1,3100000,,,2013.0,,22.0,3461811287,1,6196376,False,30% ב 5.3 שנים,בני ברק,בן גוריון דוד,5.66,6196-376-130,6196/376,17405.951712521055,32.09415029,34.8227360192,2019
2019-10-29,2019-10-29,"דמשק אליעזר 26, בני ברק",דמשק אליעזר 26,6187-291-3,דירה בבית קומות,3.0,שניה,55.0,1840000,,,1970.0,,3.0,3461429212,1,6187291,False,,בני ברק,דמשק אליעזר,,6187-291-3,6187/291,33454.545454545456,32.07301723,34.8370555772,2019
2019-10-29,2019-10-29,"פנחס אפשטיין 8, בני ברק",פנחס אפשטיין 8,6123-621-3,דירה בבית קומות,2.5,א,43.0,1195000,,,1950.0,,4.0,3460947290,1,6123621,False,,בני ברק,אפשטיין פנחס,,6123-621-3,6123/621,27790.697674418603,32.0843682713,34.8256983247,2019
2019-10-29,2019-10-29,"המכבים 71, בני ברק",המכבים 71,7361-169-63,דירה בבית קומות,4.0,רביעית,114.0,1660000,,,2019.0,,1.0,3461016687,1,7361169,False,,בני ברק,המכבים,,7361-169-63,7361/169,14561.40350877193,,,2019
2019-10-29,2019-10-29,"נויפלד 17, בני ברק",נויפלד 17,6195-737-10,דירה בבית קומות,3.0,שלישית,58.71,1100000,,,1970.0,2019.0,4.0,3461790900,1,6195737,False,77% ב 10.5 שנים,בני ברק,נויפלד,7.33,6195-737-10,6195/737,18736.160790325328,32.0963500334,34.8404068949,2019
2019-10-28,2019-10-28,"האדמו""ר מקוצק 18, בני ברק","האדמו""ר מקוצק 18",6187-193-3,דירה בבית קומות,3.0,קומה ‎1‏,68.2,1599000,,,2015.0,,5.0,3461494027,1,6187193,False,145% ב 6 שנים,בני ברק,"האדמו""ר מקוצק",24.17,6187-193-3,6187/193,23445.74780058651,32.0737388616,34.8405018459,2019
2019-10-28,2019-10-28,"יונה הנביא 30, בני ברק",יונה הנביא 30,6192-313-10,דירה בבית קומות,2.5,ג,46.0,1650000,,,1960.0,,3.0,3461051893,1,6192313,False,,בני ברק,יונה הנביא,,6192-313-10,6192/313,35869.565217391304,32.0867509593,34.8382726026,2019
2019-10-28,2019-10-28,"חידושי הרי""ם 5, בני ברק","חידושי הרי""ם 5",6190-747-3,דירה בבית קומות,3.0,א,52.0,2050000,,,1960.0,,4.0,3461776835,1,6190747,False,,בני ברק,"חידושי הרי""ם",,6190-747-3,6190/747,39423.07692307692,32.0771559027,34.8359390642,2019
2019-10-27,2019-10-27,"פרל חיים 5, בני ברק",פרל חיים 5,6122-206-3,דירה בבית קומות,3.5,ראשונה,58.5,1750000,,,1970.0,,3.0,3461596165,1,6122206,False,134% ב 14 שנים,בני ברק,פרל חיים,9.57,6122-206-3,6122/206,29914.529914529918,32.090794781,34.826909511,2019
2019-10-27,2019-10-27,"הרב כהנמן 159, בני ברק",הרב כהנמן 159,6185-33-31,דירה בבית קומות,2.0,שלישית,67.0,1030000,,,2019.0,,4.0,3461682527,1,618533,False,,בני ברק,הרב כהנמן,,6185-33-31,6185/33,15373.134328358208,32.0737382637,34.842281759,2019
2019-10-27,2019-10-27,"פנחס אפשטיין 6, בני ברק",פנחס אפשטיין 6,6123-622-5,דירה בבית קומות,2.0,ב,46.0,1350000,,,1960.0,,4.0,3461174157,1,6123622,False,54% ב 9.1 שנים,בני ברק,אפשטיין פנחס,5.93,6123-622-5,6123/622,29347.82608695652,32.0841928224,34.8257468291,2019
2019-10-27,2019-10-27,"הרב ברוט 10, בני ברק",הרב ברוט 10,7361-73-9,דירה בבית קומות,2.0,שלישית,31.4,1060000,,,1970.0,,4.0,3460893031,1,736173,False,,בני ברק,הרב ברוט,,7361-73-9,7361/73,33757.96178343949,32.0935684244,34.8343403791,2019
2019-10-27,2019-10-27,"הרב כהנמן 103, בני ברק",הרב כהנמן 103,6189-716-475,דירה בבית קומות,5.0,חמישית,126.0,2515000,,,2017.0,,9.0,3461602893,1,6189716,False,,בני ברק,הרב כהנמן,,6189-716-475,6189/716,19960.31746031746,32.0795816439,34.8430600658,2019
2019-10-27,2019-10-27,"שמואל הנביא 6, בני ברק",שמואל הנביא 6,6123-138-2,משרד,,קרקע,58.4,1300000,,,1960.0,,1.0,3461066944,1,6123138,False,,בני ברק,שמואל הנביא,,6123-138-2,6123/138,22260.27397260274,32.0901006031,34.8252167376,2019
2019-10-27,2019-10-27,"גניחובסקי 10, בני ברק",גניחובסקי 10,6195-766-16,דירה בבית קומות,4.0,רביעית,80.6,1700000,,,1976.0,,4.0,3461062913,1,6195766,False,70% ב 7.1 שנים,בני ברק,גניחובסקי,9.86,6195-766-16,6195/766,21091.81141439206,32.099202798,34.8421266754,2019
2019-10-25,2019-10-25,"הרב כהנמן 64, בני ברק",הרב כהנמן 64,6190-1039-4,דירה בבית קומות,6.5,ראשונה,98.0,2300000,,,1965.0,,6.0,3460846109,1,61901039,False,,בני ברק,הרב כהנמן,,6190-1039-4,6190/1039,23469.38775510204,32.0821302088,34.840713117,2019
2019-10-24,2019-10-24,"רבי עקיבא 63, בני ברק",רבי עקיבא 63,6122-67-23,דירה בבית קומות,4.0,קומה ‎3‏,73.85,2100000,,,2019.0,,8.0,3460902833,1,612267,False,,בני ברק,רבי עקיבא,,6122-67-23,6122/67,28436.01895734597,32.0868985308,34.8296726105,2019
2019-10-24,2019-10-24,"גרונר 51, בני ברק",גרונר 51,6196-2-96,דירה בבית קומות,2.0,שניה,37.0,458333000,,,1960.0,,6.0,3461007320,1,61962,False,,בני ברק,גרונר,,6196-2-96,6196/2,12387378.378378378,32.0945520656,34.8279724928,2019
2019-10-24,2019-10-24,"שלמה בן-יוסף 4, בני ברק",שלמה בן-יוסף 4,7361-95-11,דירה בבית קומות,3.0,רביעית,51.6,1275000,,,1970.0,,5.0,3460903065,1,736195,False,77% ב 10 שנים,בני ברק,בן יוסף שלמה,7.7,7361-95-11,7361/95,24709.302325581397,32.0935212169,34.8307331238,2019
2019-10-23,2019-10-23,"הרב כהנמן 159, בני ברק",הרב כהנמן 159,6185-33-33,דירה בבית קומות,4.0,שניה,110.0,1800000,,,2019.0,,4.0,3461574212,1,618533,False,,בני ברק,הרב כהנמן,,6185-33-33,6185/33,16363.636363636364,32.0737382637,34.842281759,2019
2019-10-23,2019-10-23,"הרב ניסים יצחק 4, בני ברק",הרב ניסים יצחק 4,6187-215-3,דירה בבית קומות,4.0,ראשונה,73.0,1450000,,,1988.0,,2.0,3461249035,1,6187215,False,,בני ברק,הרב נסים יצחק,,6187-215-3,6187/215,19863.013698630137,32.0728926517,34.8411698616,2019
2019-10-22,2019-10-22,"אורליאן 9, בני ברק",אורליאן 9,6184-148-22,דירה בבית קומות,4.0,שלישית,92.7,1700000,,,1970.0,,4.0,3461792843,1,6184148,False,,בני ברק,אורליאן,,6184-148-22,6184/148,18338.727076591156,32.0709745866,34.841070642,2019
2019-10-17,2019-10-17,"הרב כהנמן 147, בני ברק",הרב כהנמן 147,6185-83-4,קומבינציה,,,682.0,10656000,,,2020.0,,3.0,3460949233,1,618583,False,,בני ברק,הרב כהנמן,,6185-83-4,6185/83,15624.633431085043,32.0746031228,34.842573388,2019
2019-10-12,2019-12-10,"פנחס אפשטיין 4, בני ברק",פנחס אפשטיין 4,6123-478-2,קוטג' חד משפחתי,3.0,,100.0,799000,,,1940.0,,1.0,3480079837,1,6123478,False,,בני ברק,אפשטיין פנחס,,6123-478-2,6123/478,7990.0,32.0840080625,34.8257726045,2019
2019-10-12,2019-12-10,"הראשונים 4, בני ברק",הראשונים 4,6122-1406-20,דירה בבית קומות,2.0,ד,49.0,866000,,,1960.0,,4.0,3462287873,1,61221406,False,,בני ברק,הראשונים,,6122-1406-20,6122/1406,17673.469387755104,32.0903808506,34.8260058441,2019
2019-10-12,2019-12-10,"אורליאן 19, בני ברק",אורליאן 19,6184-145-3,דירה בבית קומות,4.0,שניה,90.0,2000000,,,1970.0,,2.0,3462472574,1,6184145,False,,בני ברק,אורליאן,,6184-145-3,6184/145,22222.222222222223,32.0701785699,34.8406867544,2019
2019-10-12,2019-12-10,"פנחס אפשטיין 4, בני ברק",פנחס אפשטיין 4,6123-478-3,קוטג' חד משפחתי,3.0,,100.0,800000,,,1940.0,,1.0,3480171245,1,6123478,False,,בני ברק,אפשטיין פנחס,,6123-478-3,6123/478,8000.0,32.0840080625,34.8257726045,2019
2019-10-12,2019-12-10,"נויפלד 11, בני ברק",נויפלד 11,6195-753-22,דירה בבית קומות,3.0,שניה,64.6,1440000,,,1970.0,,4.0,3462508679,1,6195753,False,140% ב 11.5 שנים,בני ברק,נויפלד,12.17,6195-753-22,6195/753,22291.021671826627,32.0965833158,34.8418948094,2019
2019-10-12,2019-12-10,"הרב מימון 36, בני ברק",הרב מימון 36,6122-1287-12,דירה בבית קומות,3.0,שלישית,64.25,1695000,,,2004.0,,5.0,3462751003,1,61221287,False,,בני ברק,הרב מימון,,6122-1287-12,6122/1287,26381.322957198445,32.0880937804,34.8320353022,2019
2019-10-12,2019-12-10,"אברבנאל 125, בני ברק",אברבנאל 125,7361-165-105,דירה בבית קומות,3.0,רביעית,75.0,1605000,,,2018.0,,6.0,3480255954,1,7361165,False,,בני ברק,אברבנאל,,7361-165-105,7361/165,21400.0,,,2019
2019-10-12,2019-12-10,"יהודה הנשיא 37, בני ברק",יהודה הנשיא 37,6124-196-7,דירה בבית קומות,3.0,ג,65.0,2400000,,,1960.0,,3.0,3462328299,1,6124196,False,50% ב 3.6 שנים,בני ברק,יהודה הנשיא,13.89,6124-196-7,6124/196,36923.07692307692,32.0792463489,34.8289573533,2019
2019-10-11,2019-11-10,"הרב ברוט 9, בני ברק",הרב ברוט 9,7361-64-3,דירה בבית קומות,3.0,ראשונה,44.1,1235000,,,1960.0,,2.0,3462170133,1,736164,False,64% ב 7.5 שנים,בני ברק,הרב ברוט,8.53,7361-64-3,7361/64,28004.53514739229,32.0939459764,34.8339238667,2019
2019-10-11,2019-11-10,"השר יגאל אלון 27, בני ברק",השר יגאל אלון 27,6790-8-13,דירה בבית קומות,3.0,רביעית,60.4,1570000,,,1970.0,,4.0,3461282791,1,67908,False,,בני ברק,השר אלון יגאל,,6790-8-13,6790/8,25993.37748344371,32.098739576,34.835778857,2019
2019-10-11,2019-11-10,"דוד המלך 3, בני ברק",דוד המלך 3,6123-693-12,דירה בבית קומות,2.0,ג,50.0,1441000,,,1960.0,,3.0,3461493592,1,6123693,False,,בני ברק,דוד המלך,,6123-693-12,6123/693,28820.0,32.0836459155,34.8267161826,2019
2019-10-11,2019-11-10,"הרב מימון 48, בני ברק",הרב מימון 48,6122-1010-6,דירה בבית קומות,3.0,שניה,60.9,1600000,,,1975.0,,3.0,3461323942,1,61221010,False,,בני ברק,הרב מימון,,6122-1010-6,6122/1010,26272.57799671593,32.0888466652,34.8333189255,2019
2019-10-11,2019-11-10,"דב הוז 26, בני ברק",דב הוז 26,6195-182-2,דירה בבית קומות,3.0,ראשונה,64.5,1428000,,,1992.0,,3.0,3461324348,1,6195182,False,43% ב 6.7 שנים,בני ברק,הוז דב,6.42,6195-182-2,6195/182,22139.53488372093,32.094627628,34.8377284205,2019
2019-10-11,2019-11-10,"הרב כהנמן 103, בני ברק",הרב כהנמן 103,6189-716-159,דירה בבית קומות,4.0,רביעית,100.0,2100000,,,2017.0,,9.0,3461986418,1,6189716,False,,בני ברק,הרב כהנמן,,6189-716-159,6189/716,21000.0,32.0795816439,34.8430600658,2019
2019-10-10,2019-10-10,"הרב משולם ראט 2, בני ברק",הרב משולם ראט 2,6195-523-36,דירה בבית קומות,4.0,,70.0,1700000,,,2014.0,,6.0,3460942795,1,6195523,False,,בני ברק,הרב ראט משולם,,6195-523-36,6195/523,24285.714285714286,32.0951713688,34.8433628759,2019
2019-10-10,2019-10-10,"הרב כהנמן 159, בני ברק",הרב כהנמן 159,6185-33-2,דירה בבית קומות,3.0,שניה,95.0,1560000,,,2019.0,,4.0,3461226299,1,618533,False,,בני ברק,הרב כהנמן,,6185-33-2,6185/33,16421.052631578947,32.0737382637,34.842281759,2019
2019-10-10,2019-10-10,"הרב שטרסר 9, בני ברק",הרב שטרסר 9,6122-778-7,דירה בבית קומות,2.0,ב,52.0,1600000,,,1950.0,,3.0,3460790864,1,6122778,False,144% ב 12.3 שנים,בני ברק,הרב שטרסר,11.71,6122-778-7,6122/778,30769.23076923077,32.087204159,34.8330295685,2019
2019-10-10,2019-10-10,"ז'בוטינסקי 146, בני ברק",ז'בוטינסקי 146,6122-923-7,דירה בבית קומות,3.0,ראשונה,50.0,1430000,,,1970.0,,4.0,3461076282,1,6122923,False,169% ב 12.3 שנים,בני ברק,ז'בוטינסקי,13.74,6122-923-7,6122/923,28600.0,32.092497592,34.8367017405,2019
2019-10-10,2019-10-10,"מצדה 2, בני ברק",מצדה 2,6196-115-27,משרד,,שביעית,382.0,4788000,,,2019.0,,29.0,3460551353,1,6196115,False,,בני ברק,מצדה,,6196-115-27,6196/115,12534.031413612563,32.0925587381,34.8255933127,2019
2019-10-10,2019-10-10,"שבטי ישראל 19, בני ברק",שבטי ישראל 19,6122-1313-1,דירה בבית קומות,2.0,קרקע,33.3,980000,,,1950.0,,3.0,3461555768,1,61221313,False,18% ב 2.5 שנים,בני ברק,שבטי ישראל,7.2,6122-1313-1,6122/1313,29429.42942942943,32.0915304283,34.8318671428,2019
2019-10-09,2019-09-10,"בן-סירא 3, בני ברק",בן-סירא 3,6123-600-2,דירה בבית קומות,2.0,א,53.0,1320000,,,1960.0,,3.0,3460410703,1,6123600,False,,בני ברק,בן סירא,,6123-600-2,6123/600,24905.66037735849,32.0877827341,34.824608704,2019
2019-10-09,2019-09-10,"ירושלים 64, בני ברק",ירושלים 64,6123-575-4,דירה בבית קומות,3.0,א,66.53,1450000,,,1950.0,,4.0,3459873101,1,6123575,False,,בני ברק,ירושלים,,6123-575-4,6123/575,21794.67909213889,32.0830698301,34.8270869736,2019
2019-10-09,2019-09-10,"חנקין 6, בני ברק",חנקין 6,6122-1360-7,דירה בבית קומות,3.0,,90.0,1550000,,,2019.0,,6.0,3459683876,1,61221360,False,,בני ברק,חנקין,,6122-1360-7,6122/1360,17222.222222222223,32.091939115,34.8344930103,2019
2019-10-09,2019-09-10,"רבי עקיבא 122, בני ברק",רבי עקיבא 122,6122-1534-10,דירה בבית קומות,3.0,ב,57.0,1380000,,,1960.0,,4.0,3459737903,1,61221534,False,,בני ברק,רבי עקיבא,,6122-1534-10,6122/1534,24210.526315789477,32.0855569257,34.8349444412,2019
2019-10-09,2019-09-10,"הרב שך 16, בני ברק",הרב שך 16,6122-1648-47,דירה בבית קומות,3.0,שניה,64.8,1600000,,,1970.0,,4.0,3459704350,1,61221648,False,,בני ברק,הרב שך,,6122-1648-47,6122/1648,24691.35802469136,32.0869158013,34.8357772558,2019
2019-10-07,2019-07-10,"הרב כהנמן 69, בני ברק",הרב כהנמן 69,6192-1010-9,דירה בבית קומות,4.0,שלישית,77.5,2400000,,,1970.0,,3.0,3457983026,1,61921010,False,,בני ברק,הרב כהנמן,,6192-1010-9,6192/1010,30967.74193548387,32.0849869085,34.8402732046,2019
2019-10-07,2019-07-10,"דניאל 10, בני ברק",דניאל 10,6124-2-67,דירה בבית קומות,2.0,עמודים,64.25,1500000,,,1970.0,,3.0,3458232049,1,61242,False,,בני ברק,דניאל,,6124-2-67,6124/2,23346.303501945524,32.0821143003,34.826084785,2019
2019-10-07,2019-07-10,"חיד""א 13, בני ברק","חיד""א 13",6122-673-12,דירה בבית קומות,3.0,ב,39.0,1480000,,,1960.0,,3.0,3457840201,1,6122673,False,40% ב 8.5 שנים,בני ברק,"חיד""א",4.71,6122-673-12,6122/673,37948.717948717946,32.0911540837,34.8366002236,2019
2019-10-07,2019-07-10,"רבי עקיבא 147, בני ברק",רבי עקיבא 147,6192-833-7,דירה בבית קומות,4.0,א,83.0,1700000,,,1960.0,,3.0,3457560003,1,6192833,False,235% ב 16.3 שנים,בני ברק,רבי עקיבא,14.42,6192-833-7,6192/833,20481.92771084337,32.085951161,34.839169112,2019
2019-10-07,2019-07-10,"ביאליק 21, בני ברק",ביאליק 21,6195-138-4,דירה בבית קומות,3.5,שניה,80.48,1450000,,,1970.0,,3.0,3457558785,1,6195138,False,81% ב 10.1 שנים,בני ברק,ביאליק,8.02,6195-138-4,6195/138,18016.8986083499,32.0945442987,34.8365037973,2019
2019-10-06,2019-06-10,"חברון 12, בני ברק",חברון 12,6123-997-1,דירה בבית קומות,5.0,קרקע,91.0,2335000,,,1970.0,,4.0,3457494956,1,6123997,False,232% ב 17 שנים,בני ברק,חברון,13.65,6123-997-1,6123/997,25659.340659340654,32.0841866205,34.8263830186,2019
2019-10-06,2019-06-10,"הפלוגה הדתית 2, בני ברק",הפלוגה הדתית 2,6192-672-5,דירה בבית קומות,3.0,ראשונה,60.0,2100000,,,1960.0,,2.0,3456842485,1,6192672,False,,בני ברק,הפלוגה הדתית,,6192-672-5,6192/672,35000.0,32.0887455968,34.8401991608,2019
2019-10-06,2019-06-10,"ניל""י 3, בני ברק","ניל""י 3",6196-104-148,משרד,,שביעית,1071.0,13450000,,,2013.0,,31.0,3456831465,1,6196104,False,,בני ברק,"ניל""י",,6196-104-148,6196/104,12558.356676003736,32.0944440037,34.8242950858,2019
2019-10-06,2019-06-10,"מצדה 2, בני ברק",מצדה 2,6196-115-22,משרד,,עשירית,135.0,1750000,,,2019.0,,29.0,3457520795,1,6196115,False,,בני ברק,מצדה,,6196-115-22,6196/115,12962.962962962964,32.0925587381,34.8255933127,2019
2019-10-06,2019-06-10,"חזון איש 24, בני ברק",חזון איש 24,6188-516-7,דירה בבית קומות,3.5,ג,62.0,1700000,,,1960.0,,3.0,3457475091,1,6188516,False,,בני ברק,חזון איש,,6188-516-7,6188/516,27419.35483870968,32.0831922502,34.8354647772,2019
2019-10-06,2019-06-10,"הרב פוברסקי 24, בני ברק",הרב פוברסקי 24,6192-814-153,דירה בבית קומות,3.0,ג,48.0,1735000,,,1960.0,,4.0,3456567159,1,6192814,False,,בני ברק,הרב פוברסקי,,6192-814-153,6192/814,36145.833333333336,32.0843365915,34.8416314745,2019
2019-10-05,2019-05-10,"פנקס 17, בני ברק",פנקס 17,6124-114-0,קרקע למגורים,,,502.0,779000,,,1990.0,,4.0,3456501126,1,6124114,False,,בני ברק,פנקס,,6124-114-0,6124/114,1551.7928286852589,32.0802261915,34.8272859878,2019
2019-10-05,2019-05-10,"עמי 8, בני ברק",עמי 8,6123-905-4,דירה בבית קומות,4.0,ב,88.0,2355000,,,1969.0,,3.0,3455827862,1,6123905,False,108% ב 13.6 שנים,בני ברק,עמי,7.94,6123-905-4,6123/905,26761.36363636364,32.0860675121,34.8247168792,2019
2019-10-04,2019-04-10,"נויפלד 3, בני ברק",נויפלד 3,6195-753-77,דירה בבית קומות,3.0,שלישית,66.26,1485000,,,1960.0,,4.0,3455165386,1,6195753,False,236% ב 13.8 שנים,בני ברק,נויפלד,17.1,6195-753-77,6195/753,22411.711439782677,32.0965833158,34.8418948094,2019
2019-10-04,2019-04-10,"הרב כהנמן 124, בני ברק",הרב כהנמן 124,6187-372-10,דירה בבית קומות,4.0,ראשונה,80.0,1980000,,,1960.0,,4.0,3455636491,1,6187372,False,,בני ברק,הרב כהנמן,,6187-372-10,6187/372,24750.0,32.0747397184,34.8422859153,2019
2019-10-04,2019-04-10,"דב הוז 10, בני ברק",דב הוז 10,6195-198-2,דירת גן,3.5,א,65.0,1400000,,,1970.0,,3.0,3454582341,1,6195198,False,,בני ברק,הוז דב,,6195-198-2,6195/198,21538.46153846154,32.0935046835,34.837380436,2019
2019-10-03,2019-03-10,"המכבים 71, בני ברק",המכבים 71,7361-169-79,דירה בבית קומות,4.0,שלישית,119.0,1670000,,,2019.0,,1.0,3454417476,1,7361169,False,,בני ברק,המכבים,,7361-169-79,7361/169,14033.61344537815,,,2019
2019-10-03,2019-03-10,"ניל""י 3, בני ברק","ניל""י 3",6196-104-189,משרד,,שש עשרה,59.0,1224000,,,2013.0,,31.0,3454122430,1,6196104,False,,בני ברק,"ניל""י",,6196-104-189,6196/104,20745.762711864405,32.0944440037,34.8242950858,2019
2019-10-03,2019-03-10,"בן-פתחיה 27, בני ברק",בן-פתחיה 27,6122-1325-15,דירה בבית קומות,2.0,ב,55.0,1335000,,,1950.0,,4.0,3453940368,1,61221325,False,233% ב 15.3 שנים,בני ברק,בן פתחיה,15.23,6122-1325-15,6122/1325,24272.727272727272,32.0911124253,34.8291287418,2019
2019-10-03,2019-03-10,"שמחוני 6, בני ברק",שמחוני 6,6188-451-7,דירה בבית קומות,2.5,ב,53.0,1440000,,,1950.0,,3.0,3453578216,1,6188451,False,148% ב 16.2 שנים,בני ברק,שמחוני,9.14,6188-451-7,6188/451,27169.81132075472,32.077584816,34.8280834635,2019
2019-10-03,2019-03-10,"מצדה 2, בני ברק",מצדה 2,6196-115-19,משרד,,עשירית,185.0,2214000,,,2019.0,,29.0,3454500503,1,6196115,False,,בני ברק,מצדה,,6196-115-19,6196/115,11967.567567567568,32.0925587381,34.8255933127,2019
2019-10-02,2019-02-10,"שבזי 12, בני ברק",שבזי 12,6122-349-15,דירה בבית קומות,4.0,,101.0,2100000,,,2017.0,,4.0,3452507565,1,6122349,False,,בני ברק,שבזי,,6122-349-15,6122/349,20792.079207920797,32.0907985704,34.8311021827,2019
2019-10-02,2019-02-10,"חגי 15, בני ברק",חגי 15,6192-979-8,דירת גג,3.0,שלישית,58.0,2400000,,,1970.0,,3.0,3452537667,1,6192979,False,65% ב 9.1 שנים,בני ברק,חגי,7.14,6192-979-8,6192/979,41379.31034482759,32.0880544535,34.8371635577,2019
2019-10-02,2019-02-10,"ז'בוטינסקי 25, בני ברק",ז'בוטינסקי 25,6196-251-11,דירה בבית קומות,3.0,שניה,58.8,1200000,,,1950.0,,2.0,3452731503,1,6196251,False,,בני ברק,ז'בוטינסקי,,6196-251-11,6196/251,20408.163265306124,32.0920461891,34.8282902325,2019
2019-10-02,2019-02-10,"ישמח משה 7, בני ברק",ישמח משה 7,6190-1119-4,דירה בבית קומות,2.0,ראשונה,59.0,1349000,,,1960.0,,3.0,3452523080,1,61901119,False,,בני ברק,ישמח משה,,6190-1119-4,6190/1119,22864.406779661014,32.0817253541,34.8357362381,2019
2019-10-02,2019-02-10,"יהושע 13, בני ברק",יהושע 13,6123-295-6,דירה בבית קומות,2.0,ראשונה,57.0,300000,,,1950.0,,5.0,3453259999,1,6123295,False,,בני ברק,יהושע,,6123-295-6,6123/295,5263.1578947368425,32.0855558555,34.8287525476,2019
2019-10-02,2019-02-10,"רבי ישראל אבו חצירא 27, בני ברק",רבי ישראל אבו חצירא 27,6196-304-23,דירה בבית קומות,3.0,רביעית,47.9,1260000,,,1970.0,,4.0,3452482886,1,6196304,False,62% ב 4.5 שנים,בני ברק,אבו חצירא ישראל,13.78,6196-304-23,6196/304,26304.80167014614,32.0953404836,34.8303376243,2019
2019-10-01,2019-01-10,"הירקון 73, בני ברק",הירקון 73,6105-224-4,תעשיה,,ראשונה,281.1,3330000,,,1997.0,,4.0,3451700756,1,6105224,False,,בני ברק,הירקון,,6105-224-4,6105/224,11846.318036286018,32.0985100471,34.8322625689,2019
2019-10-01,2019-01-10,"המכבים 71, בני ברק",המכבים 71,7361-169-86,דירה בבית קומות,3.0,שניה,98.0,1330000,,,2019.0,,1.0,3452374745,1,7361169,False,,בני ברק,המכבים,,7361-169-86,7361/169,13571.42857142857,,,2019
2019-09-26,2019-09-26,"הדסים 3, בני ברק",הדסים 3,6195-550-4,דירה בבית קומות,2.0,א,34.0,1360000,,,1960.0,,2.0,3460324341,1,6195550,False,23% ב 3.4 שנים,בני ברק,הדסים,6.76,6195-550-4,6195/550,40000.0,32.0934109613,34.8428798801,2019
2019-09-26,2019-09-26,"אהרון דב פוקס 8, בני ברק",אהרון דב פוקס 8,6123-858-22,דירה בבית קומות,2.0,א,43.0,1209000,,,1960.0,,3.0,3460816471,1,6123858,False,,בני ברק,פוקס אהרון דב,,6123-858-22,6123/858,28116.279069767443,32.0863373445,34.8248179957,2019
2019-09-26,2019-09-26,"ראב""ד 22, בני ברק","ראב""ד 22",6188-499-64,דירה בבית קומות,2.0,ב,42.0,1680000,,,1960.0,,3.0,3460830826,1,6188499,False,193% ב 13.7 שנים,בני ברק,"ראב""ד",14.09,6188-499-64,6188/499,40000.0,32.0837350795,34.8316882545,2019
2019-09-26,2019-09-26,"שמואל הנביא 13, בני ברק",שמואל הנביא 13,6123-142-7,דירה בבית קומות,2.0,ב,37.0,1190000,,,1965.0,,3.0,3460564287,1,6123142,False,,בני ברק,שמואל הנביא,,6123-142-7,6123/142,32162.162162162163,32.0896178766,34.8249197056,2019
2019-09-25,2019-09-25,"הרב הירש 21, בני ברק",הרב הירש 21,6188-581-5,דירה בבית קומות,5.0,שלישית,92.79,2220000,,,1995.0,,4.0,3460144367,1,6188581,False,,בני ברק,הרב הירש,,6188-581-5,6188/581,23924.99191723246,32.0802563482,34.8321898328,2019
2019-09-25,2019-09-25,"אהרון דב פוקס 17, בני ברק",אהרון דב פוקס 17,6123-101-28,דירה בבית קומות,3.5,שלישית,70.0,1650000,,,2014.0,,5.0,3460193174,1,6123101,False,,בני ברק,פוקס אהרון דב,,6123-101-28,6123/101,23571.42857142857,32.0858941264,34.8241120533,2019
2019-09-25,2019-09-25,"הרב כהנמן 103, בני ברק",הרב כהנמן 103,6189-716-158,דירה בבית קומות,5.0,שביעית,110.0,2400000,,,2017.0,,9.0,3460469544,1,6189716,False,,בני ברק,הרב כהנמן,,6189-716-158,6189/716,21818.18181818182,32.0795816439,34.8430600658,2019
2019-09-25,2019-09-25,"חולדה הנביאה 5, בני ברק",חולדה הנביאה 5,6188-475-10,דירה בבית קומות,2.0,ב,38.7,1700000,,,1960.0,,3.0,3461226821,1,6188475,False,95% ב 9 שנים,בני ברק,חולדה הנביאה,10.56,6188-475-10,6188/475,43927.64857881136,32.0784097187,34.8293920832,2019
2019-09-25,2019-09-25,"חנקין 6, בני ברק",חנקין 6,6122-1360-8,דירה בבית קומות,5.0,רביעית,100.0,1730000,,,2019.0,,6.0,3460841121,1,61221360,False,,בני ברק,חנקין,,6122-1360-8,6122/1360,17300.0,32.091939115,34.8344930103,2019
2019-09-25,2019-09-25,"בורוכוב 14, בני ברק",בורוכוב 14,6195-226-3,דירה בבית קומות,3.0,קרקע,70.97,1832000,,,1960.0,,1.0,3460268342,1,6195226,False,,בני ברק,בורוכוב,,6195-226-3,6195/226,25813.72410877836,32.0936820707,34.8381807505,2019
2019-09-25,2019-09-25,"ז'בוטינסקי 37, בני ברק",ז'בוטינסקי 37,6196-263-7,דירה בבית קומות,2.0,שלישית,49.0,1240000,,,1960.0,,3.0,3460821227,1,6196263,False,,בני ברק,ז'בוטינסקי,,6196-263-7,6196/263,25306.122448979597,32.0918032212,34.8297629321,2019
2019-09-24,2019-09-24,"בן-זכאי 60, בני ברק",בן-זכאי 60,6124-80-9,דירה בבית קומות,4.0,ג,76.5,1870000,,,1969.0,,3.0,3460400872,1,612480,False,121% ב 20.5 שנים,בני ברק,בן זכאי,5.9,6124-80-9,6124/80,24444.444444444445,32.0807032373,34.8307543539,2019
2019-09-24,2019-09-24,"ירושלים 69, בני ברק",ירושלים 69,6124-2-1,חנות,,קרקע,,450000,,,1950.0,,3.0,3460349890,1,61242,False,,בני ברק,ירושלים,,6124-2-1,6124/2,,32.0821143003,34.826084785,2019
2019-09-24,2019-09-24,"המכבים 71, בני ברק",המכבים 71,7361-169-64,דירה בבית קומות,4.0,ראשונה,118.0,1700000,,,2019.0,,1.0,3460750148,1,7361169,False,,בני ברק,המכבים,,7361-169-64,7361/169,14406.77966101695,,,2019
2019-09-24,2019-09-24,"רבי עקיבא 18, בני ברק",רבי עקיבא 18,6123-842-19,דירה בבית קומות,4.0,ב,71.1,1730000,,,1970.0,,4.0,3460127692,1,6123842,False,,בני ברק,רבי עקיבא,,6123-842-19,6123/842,24331.92686357244,32.0897360042,34.8256973124,2019
2019-09-24,2019-09-24,"רמז 4, בני ברק",רמז 4,6188-365-12,דירה בבית קומות,4.0,ראשונה,107.0,1785000,,,1967.0,2019.0,4.0,3461145215,1,6188365,False,,בני ברק,רמז,,6188-365-12,6188/365,16682.242990654206,32.0767404769,34.8295112202,2019
2019-09-24,2019-09-24,"יצחק מאיר הכהן 2, בני ברק",יצחק מאיר הכהן 2,6192-1042-34,דירה בבית קומות,3.0,שלישית,74.0,1900000,,,1970.0,,,3460746059,1,61921042,False,,בני ברק,יצחק מאיר הכהן,,6192-1042-34,6192/1042,25675.67567567568,32.0850168262,34.8412517278,2019
2019-09-24,2019-09-24,"חבקוק 26, בני ברק",חבקוק 26,6192-296-4,דירה בבית קומות,4.0,שניה,103.0,2260000,,,1986.0,,3.0,3460718799,1,6192296,False,,בני ברק,חבקוק,,6192-296-4,6192/296,21941.747572815533,32.087101123,34.838473968,2019
2019-09-24,2019-09-24,"צבי 10, בני ברק",צבי 10,6195-706-4,דירה בבית קומות,2.0,שניה,53.72,1250000,,,1970.0,,4.0,3460719988,1,6195706,False,,בני ברק,צבי,,6195-706-4,6195/706,23268.80119136262,32.0971343008,34.838933411,2019
2019-09-23,2019-09-23,"ברטנורה 1, בני ברק",ברטנורה 1,6188-122-10,דירה בבית קומות,4.0,חמישית,74.32,1900000,,,2014.0,,6.0,3460356154,1,6188122,False,,בני ברק,ברטנורה,,6188-122-10,6188/122,25565.12378902045,32.0829357349,34.8353414938,2019
2019-09-23,2019-09-23,"ישעיהו 7, בני ברק",ישעיהו 7,6123-193-5,דירה בבית קומות,2.0,שניה,53.38,2900000,,,1960.0,,2.0,3460128127,1,6123193,False,100% ב 3.6 שנים,בני ברק,ישעיהו,27.78,6123-193-5,6123/193,54327.463469464215,32.0888668932,34.8258319843,2019
2019-09-23,2019-09-23,"שמואל וינברג 24, בני ברק",שמואל וינברג 24,6124-226-20,דירה,4.0,,85.0,1800000,1.0,אנילביץ,2016.0,,6.0,11181261087,1,6124226,False,,בני ברק,וינברג שמואל,,6124-226-20,6124/226,21176.470588235294,32.0807194331,34.829402937,2019
2019-09-23,2019-09-23,"אלקבץ 7, בני ברק",אלקבץ 7,6192-547-11,דירה בבית קומות,3.0,ד,44.39,1280000,,,1960.0,,4.0,3460164464,1,6192547,False,7% ב 2.4 שנים,בני ברק,אלקבץ,2.92,6192-547-11,6192/547,28835.323271006982,32.0923870529,34.8404738097,2019
2019-09-23,2019-09-23,"גניחובסקי 21, בני ברק",גניחובסקי 21,6195-718-8,דירה בבית קומות,3.0,שניה,58.34,1495000,,,1970.0,,4.0,3460523861,1,6195718,False,,בני ברק,גניחובסקי,,6195-718-8,6195/718,25625.642783681866,32.0988438153,34.840267921,2019
2019-09-23,2019-09-23,"ישעיהו 7, בני ברק",ישעיהו 7,6123-193-4,דירה בבית קומות,2.0,ראשונה,38.22,1345000,,,1960.0,,2.0,3460094893,1,6123193,False,216% ב 12.5 שנים,בני ברק,ישעיהו,17.28,6123-193-4,6123/193,35190.99947671376,32.0888668932,34.8258319843,2019
2019-09-22,2019-09-22,"בורוכוב 14, בני ברק",בורוכוב 14,6195-226-1,דירה בבית קומות,1.0,קרקע,,1000000,,,1960.0,,1.0,3460713579,1,6195226,False,,בני ברק,בורוכוב,,6195-226-1,6195/226,,32.0936820707,34.8381807505,2019
2019-09-22,2019-09-22,"נורדאו 53, בני ברק",נורדאו 53,6195-96-6,דירה בבית קומות,4.0,שלישית,66.3,1650000,,,1960.0,,3.0,3460186504,1,619596,False,,בני ברק,נורדאו,,6195-96-6,6195/96,24886.8778280543,32.095880775,34.8357377115,2019
2019-09-22,2019-09-22,"בעל שם-טוב 5, בני ברק",בעל שם-טוב 5,6122-580-8,דירה בבית קומות,5.0,,140.0,2625000,,,1950.0,,2.0,3460878212,1,6122580,False,,בני ברק,בעל שם טוב,,6122-580-8,6122/580,18750.0,32.0853957243,34.834249515,2019
2019-09-22,2019-09-22,"גרונר 19, בני ברק",גרונר 19,6196-2-95,דירה בבית קומות,3.5,רביעית,75.0,1400000,,,1960.0,2018.0,6.0,3460208950,1,61962,False,,בני ברק,גרונר,,6196-2-95,6196/2,18666.666666666668,32.0945520656,34.8279724928,2019
2019-09-22,2019-09-22,"עמוס 7, בני ברק",עמוס 7,6192-922-6,דירה בבית קומות,3.0,שניה,60.5,1710000,,,1973.0,,3.0,3460521686,1,6192922,False,,בני ברק,עמוס,,6192-922-6,6192/922,28264.46280991736,32.0871412564,34.8371939393,2019
2019-09-22,2019-09-22,"הרב כהנמן 159, בני ברק",הרב כהנמן 159,6185-33-37,דירה בבית קומות,4.0,שביעית,112.0,1850000,,,2019.0,,4.0,3460167799,1,618533,False,,בני ברק,הרב כהנמן,,6185-33-37,6185/33,16517.85714285714,32.0737382637,34.842281759,2019
2019-09-22,2019-09-22,"חברון 5, בני ברק",חברון 5,6123-897-26,דירה בבית קומות,4.0,ב,88.5,2290000,,,1970.0,,4.0,3460753541,1,6123897,False,48% ב 7.5 שנים,בני ברק,חברון,6.4,6123-897-26,6123/897,25875.706214689264,32.0830941597,34.8261621264,2019
2019-09-22,2019-09-22,"הרב כהנמן 64, בני ברק",הרב כהנמן 64,6190-1039-12,דירה בבית קומות,4.5,שלישית,98.0,1900000,,,1965.0,,6.0,3460115918,1,61901039,False,66% ב 12.7 שנים,בני ברק,הרב כהנמן,5.2,6190-1039-12,6190/1039,19387.755102040817,32.0821302088,34.840713117,2019
2019-09-20,2019-09-20,"הרצוג 43, בני ברק",הרצוג 43,6123-16-1,חנות,,א,,260000,,,1960.0,,4.0,3459990029,1,612316,False,,בני ברק,הרצוג,,6123-16-1,6123/16,,32.0866340472,34.8259731807,2019
2019-09-19,2019-09-19,"הירדן 6, בני ברק",הירדן 6,6122-1376-18,דירה בבית קומות,3.5,א,44.0,1524000,,,1960.0,,4.0,3460304012,1,61221376,False,117% ב 10.5 שנים,בני ברק,הירדן,11.14,6122-1376-18,6122/1376,34636.36363636364,32.0918123056,34.8356323094,2019
2019-09-19,2019-09-19,"טרומפלדור 12, בני ברק",טרומפלדור 12,6195-489-5,דירה בבית קומות,2.0,א,43.0,1250000,,,1960.0,,3.0,3460337014,1,6195489,False,,בני ברק,טרומפלדור,,6195-489-5,6195/489,29069.767441860466,32.0953015072,34.8391760434,2019
2019-09-19,2019-09-19,"סוקולוב 51, בני ברק",סוקולוב 51,6122-1545-7,דירה בבית קומות,2.0,"ב,",42.34,1670000,,,1960.0,,7.0,3460103970,1,61221545,False,85% ב 7.3 שנים,בני ברק,סוקולוב,11.64,6122-1545-7,6122/1545,39442.60746339159,32.0912028726,34.8332735176,2019
2019-09-19,2019-09-19,"ירושלים 53, בני ברק",ירושלים 53,6124-296-6,דירה בבית קומות,2.5,ב,62.0,1550000,,,1960.0,,4.0,3460350876,1,6124296,False,,בני ברק,ירושלים,,6124-296-6,6124/296,25000.0,32.0827757842,34.8277250331,2019
2019-09-19,2019-09-19,"חבקוק 13, בני ברק",חבקוק 13,6192-940-6,דירה בבית קומות,3.5,שניה,70.7,1950000,,,1970.0,,4.0,3460763343,1,6192940,False,167% ב 15.6 שנים,בני ברק,חבקוק,10.71,6192-940-6,6192/940,27581.329561527586,32.087514283,34.8368315223,2019
2019-09-19,2019-09-19,"חיים לנדאו 7, בני ברק",חיים לנדאו 7,6195-410-15,דירה בבית קומות,3.0,רביעית,64.0,1300000,,,2019.0,,6.0,3460017579,1,6195410,False,,בני ברק,לנדאו חיים,,6195-410-15,6195/410,20312.5,32.0934416263,34.8419022322,2019
2019-09-19,2019-09-19,"בן זכאי 18, בני ברק",בן זכאי 18,6123-541-4,דירה בבית קומות,3.0,ב,67.0,1700000,,,1960.0,,3.0,3459988869,1,6123541,False,,בני ברק,בן זכאי,,6123-541-4,6123/541,25373.13432835821,32.0833188207,34.8305106454,2019
2019-09-18,2019-09-18,"המכבים 71, בני ברק",המכבים 71,7361-169-65,דירה בבית קומות,4.0,שלישית,116.0,1700000,,,2019.0,,1.0,3460119978,1,7361169,False,,בני ברק,המכבים,,7361-169-65,7361/169,14655.172413793103,,,2019
2019-09-18,2019-09-18,"אברהם בנימין 11, בני ברק",אברהם בנימין 11,6195-320-1,דירה בבית קומות,2.5,א,50.0,1200000,,,1970.0,,3.0,3460398233,1,6195320,False,,בני ברק,בנימין אברהם,,6195-320-1,6195/320,24000.0,32.0937751249,34.8400141394,2019
2019-09-16,2019-09-16,"יהושע 15, בני ברק",יהושע 15,6123-472-2,דירה בבית קומות,2.5,המרתף,42.26,1250000,,,1950.0,,3.0,3459862313,1,6123472,False,18% ב 5.5 שנים,בני ברק,יהושע,3.27,6123-472-2,6123/472,29578.797917652628,32.0854934007,34.828906721,2019
2019-09-15,2019-09-15,"הושע 5, בני ברק",הושע 5,6122-490-8,דירה בבית קומות,3.5,רביעית,82.0,1610000,,,2022.0,,3.0,3460383646,1,6122490,False,,בני ברק,הושע,,6122-490-8,6122/490,19634.146341463416,32.0886848175,34.836318068,2019
2019-09-15,2019-09-15,"עלי הכהן 5, בני ברק",עלי הכהן 5,6123-206-1,דירה בבית קומות,3.0,א,51.0,1535000,,,1956.0,,3.0,3459804922,1,6123206,False,70% ב 9 שנים,בני ברק,עלי הכהן,7.78,6123-206-1,6123/206,30098.03921568628,32.0904346665,34.8248445834,2019
2019-09-15,2019-09-15,"אחיה השילוני 6, בני ברק",אחיה השילוני 6,6196-194-2,קוטג' דו משפחתי,3.0,ראשונה,56.0,1680000,,,1970.0,,2.0,3460097010,1,6196194,False,,בני ברק,אחיה השילוני,,6196-194-2,6196/194,30000.0,32.0893761861,34.8243285502,2019
2019-09-15,2019-09-15,"אשל אברהם 3, בני ברק",אשל אברהם 3,6189-961-20,דירה בבית קומות,4.0,שניה,101.63,2180000,,,1970.0,,4.0,3459940294,1,6189961,False,,בני ברק,אשל אברהם,,6189-961-20,6189/961,21450.35914592148,32.0821606815,34.8414598782,2019
2019-09-13,2019-09-13,"נתן הנביא 16, בני ברק",נתן הנביא 16,6196-50-3,דירה בבית קומות,5.0,ראשונה,116.5,2300000,,,1970.0,,3.0,3459881656,1,619650,False,,בני ברק,נתן הנביא,,6196-50-3,6196/50,19742.489270386268,32.089661169,34.8235870739,2019
2019-09-12,2019-12-09,"עזרא 34, בני ברק",עזרא 34,6190-420-6,דירה בבית קומות,2.0,ב,41.5,1600000,,,1960.0,,3.0,3480250212,1,6190420,False,22% ב 3.7 שנים,בני ברק,עזרא,5.95,6190-420-6,6190/420,38554.21686746988,32.0793521155,34.8379147475,2019
2019-09-12,2019-12-09,"קובלסקי 22, בני ברק",קובלסקי 22,6195-720-9,דירה בבית קומות,3.0,שלישית,58.34,1440000,,,1970.0,,4.0,3462751699,1,6195720,False,,בני ברק,קובלסקי,,6195-720-9,6195/720,24682.8933836133,32.0984389239,34.8402228811,2019
2019-09-09,2019-09-09,"עזרא 30, בני ברק",עזרא 30,6190-418-4,דירה בבית קומות,2.0,א,50.0,1584000,,,1960.0,,3.0,3460474300,1,6190418,False,147% ב 11.9 שנים,בני ברק,עזרא,12.35,6190-418-4,6190/418,31680.0,32.0796140323,34.8381459707,2019
2019-09-07,2019-07-09,"אחיה השילוני 11, בני ברק",אחיה השילוני 11,6196-59-4,דירה בבית קומות,4.0,שניה,108.0,1850000,,,1990.0,,3.0,3459872376,1,619659,False,,בני ברק,אחיה השילוני,,6196-59-4,6196/59,17129.62962962963,32.0896999328,34.8238206875,2019
2019-09-07,2019-07-09,"מנחם בגין 14, בני ברק",מנחם בגין 14,6196-245-6,דירה בבית קומות,3.0,שניה,58.8,1350000,,,1980.0,,2.0,3457607882,1,6196245,False,178% ב 11.9 שנים,בני ברק,בגין מנחם,14.96,6196-245-6,6196/245,22959.18367346939,32.0924441199,34.8280175787,2019
2019-09-07,2019-07-09,"בן-נון 7, בני ברק",בן-נון 7,6196-133-3,מסחרי + משרדים,,,10466.0,470000000,,,,,,3458580426,1,6196133,False,,בני ברק,בן נון,,6196-133-3,6196/133,44907.31893751194,32.0918450847,34.8229312562,2019
2019-09-07,2019-07-09,"הרב קוק 42, בני ברק",הרב קוק 42,6123-636-1,דירה בבית קומות,2.5,א,46.0,1348000,,,1950.0,,3.0,3457533410,1,6123636,False,207% ב 14.6 שנים,בני ברק,הרב קוק,14.18,6123-636-1,6123/636,29304.34782608696,32.0855884221,34.8236990177,2019
2019-09-07,2019-07-09,"רמז 10, בני ברק",רמז 10,6188-370-8,דירה בבית קומות,3.0,שניה,35.0,1600000,,,1950.0,,3.0,3458629233,1,6188370,False,,בני ברק,רמז,,6188-370-8,6188/370,45714.28571428572,32.0769052752,34.8309221166,2019
2019-09-07,2019-07-09,"חשב סופר 25, בני ברק",חשב סופר 25,6192-483-17,דירה בבית קומות,2.0,שניה,47.0,1200000,,,1970.0,2010.0,4.0,3457885876,1,6192483,False,,בני ברק,חשב סופר,,6192-483-17,6192/483,25531.91489361702,32.0893203183,34.8368632925,2019
2019-09-05,2019-05-09,"הרב ניסים יצחק 21, בני ברק",הרב ניסים יצחק 21,6187-32-1,דירה בבית קומות,4.0,ראשונה,77.0,1960000,,,1960.0,,3.0,3456484596,1,618732,False,,בני ברק,הרב נסים יצחק,,6187-32-1,6187/32,25454.545454545456,32.0732259263,34.8384499772,2019
2019-09-05,2019-05-09,"ז'בוטינסקי 146, בני ברק",ז'בוטינסקי 146,6122-923-15,דירה בבית קומות,3.0,שלישית,51.0,1400000,,,1970.0,,4.0,3455631909,1,6122923,False,,בני ברק,ז'בוטינסקי,,6122-923-15,6122/923,27450.980392156864,32.092497592,34.8367017405,2019
2019-09-04,2019-04-09,"נחמן מברסלב 9, בני ברק",נחמן מברסלב 9,6190-779-39,דירה בבית קומות,4.0,א,90.0,1800000,,,1965.0,,3.0,3455607781,1,6190779,False,,בני ברק,נחמן מברסלב,,6190-779-39,6190/779,20000.0,32.0803788671,34.8372298638,2019
2019-09-01,2019-01-09,"בן-פתחיה 27, בני ברק",בן-פתחיה 27,6122-1325-31,דירה בבית קומות,2.0,ד,37.5,1330000,,,1950.0,,4.0,3451627560,1,61221325,False,1% ב 1.1 שנים,בני ברק,בן פתחיה,0.91,6122-1325-31,6122/1325,35466.666666666664,32.0911124253,34.8291287418,2019
2019-09-01,2019-01-09,"ביאליק 21, בני ברק",ביאליק 21,6195-138-7,דירה בבית קומות,3.5,שלישית + גג,89.48,1770000,,,1970.0,,3.0,3451662534,1,6195138,False,206% ב 14.2 שנים,בני ברק,ביאליק,14.51,6195-138-7,6195/138,19780.95663835494,32.0945442987,34.8365037973,2019
2019-09-01,2019-01-09,"הרב יוסף חיים 8, בני ברק",הרב יוסף חיים 8,6196-287-10,דירה בבית קומות,3.0,שניה,51.5,1180000,,,1950.0,,3.0,3451555988,1,6196287,False,21% ב 5.8 שנים,בני ברק,הרב יוסף חיים,3.62,6196-287-10,6196/287,22912.6213592233,32.0936896495,34.82928317,2019
2019-09-01,2019-01-09,"הרב שך 56, בני ברק",הרב שך 56,6122-1633-11,דירה בבית קומות,3.0,ב,67.0,1535000,,,1970.0,,3.0,3451643104,1,61221633,False,176% ב 11.1 שנים,בני ברק,הרב שך,15.86,6122-1633-11,6122/1633,22910.44776119403,32.0910027009,34.8356585051,2019
2019-09-01,2019-01-09,"המכבים 71, בני ברק",המכבים 71,7361-169-87,דירה בבית קומות,5.0,שניה,109.0,1750000,,,2019.0,,1.0,3452049800,1,7361169,False,,בני ברק,המכבים,,7361-169-87,7361/169,16055.045871559632,,,2019
2019-08-29,2019-08-29,"דוד בן-גוריון 1, בני ברק",דוד בן-גוריון 1,6196-157-40,משרד,,שמונה עשרה,717.0,9401574,1.0,LYFE,2018.0,,39.0,3459497957,1,6196157,False,,בני ברק,בן גוריון דוד,,6196-157-40,6196/157,13112.376569037657,32.0961757809,34.8229619238,2019
2019-08-29,2019-08-29,"סוקולוב 3, בני ברק",סוקולוב 3,6122-659-6,דירה בבית קומות,3.0,,85.0,1370000,,,2020.0,,3.0,3459446772,1,6122659,False,,בני ברק,סוקולוב,,6122-659-6,6122/659,16117.64705882353,32.0862094615,34.8335259409,2019
2019-08-29,2019-08-29,"הרב שך 40, בני ברק",הרב שך 40,6122-1460-5,דירה בבית קומות,3.0,ב,71.0,2060000,,,1970.0,,3.0,3459403011,1,61221460,False,,בני ברק,הרב שך,,6122-1460-5,6122/1460,29014.08450704225,32.0889322469,34.8360044058,2019
2019-08-29,2019-08-29,"יונתן 5, בני ברק",יונתן 5,6196-214-2,דירה בבית קומות,3.0,שניה,69.3,1199000,,,1980.0,,3.0,3459368269,1,6196214,False,78% ב 9.1 שנים,בני ברק,יונתן,8.57,6196-214-2,6196/214,17301.587301587304,32.0931707401,34.826467389,2019
2019-08-28,2019-08-28,"רשב""ם 20, בני ברק","רשב""ם 20",6190-809-5,דירה בבית קומות,4.0,ב,96.0,2350000,,,1960.0,,3.0,3459303686,1,6190809,False,,בני ברק,"רשב""ם",,6190-809-5,6190/809,24479.166666666668,32.0784465631,34.8361482384,2019
2019-08-28,2019-08-28,"יואל 20, בני ברק",יואל 20,6122-1554-12,דירה בבית קומות,3.0,שלישית,63.55,820000,,,1970.0,,3.0,3460334375,1,61221554,False,,בני ברק,יואל,,6122-1554-12,6122/1554,12903.225806451614,32.0905332727,34.8367820548,2019
2019-08-28,2019-08-28,"רמב""ם 43, בני ברק","רמב""ם 43",6122-841-15,דירה בבית קומות,2.0,ג,49.2,1950000,,,1960.0,,3.0,3459508281,1,6122841,False,130% ב 7.9 שנים,בני ברק,"רמב""ם",16.46,6122-841-15,6122/841,39634.14634146341,32.0912180861,34.8298309302,2019
2019-08-28,2019-08-28,"בן-פתחיה 27, בני ברק",בן-פתחיה 27,6122-1325-33,דירה בבית קומות,2.0,ד,55.0,1400000,,,1950.0,,4.0,3459629298,1,61221325,False,33% ב 6.2 שנים,בני ברק,בן פתחיה,5.32,6122-1325-33,6122/1325,25454.545454545456,32.0911124253,34.8291287418,2019
2019-08-28,2019-08-28,"האר""י 4, בני ברק","האר""י 4",6188-71-26,דירה בבית קומות,7.5,,135.0,3800000,,,2020.0,,5.0,3460153734,1,618871,False,,בני ברק,"האר""י",,6188-71-26,6188/71,28148.14814814815,32.08387847,34.8335351765,2019
2019-08-27,2019-08-27,"יחזקאל 4, בני ברק",יחזקאל 4,6123-651-8,דירה בבית קומות,2.0,ב,50.0,1540000,,,1955.0,,3.0,3459392455,1,6123651,False,76% ב 9.5 שנים,בני ברק,יחזקאל,8.0,6123-651-8,6123/651,30800.0,32.0882491448,34.8265977164,2019
2019-08-27,2019-08-27,"בארי 6, בני ברק",בארי 6,6188-449-4,חנות,,קרקע,,250000,,,1956.0,,2.0,3460357111,1,6188449,False,,בני ברק,בארי,,6188-449-4,6188/449,,32.0779677655,34.8284204337,2019
2019-08-26,2019-08-26,"דון יוסף הנשיא 8, בני ברק",דון יוסף הנשיא 8,6190-826-10,דירה בבית קומות,2.0,ב,39.0,1700000,,,1970.0,,3.0,3460160665,1,6190826,False,290% ב 17.6 שנים,בני ברק,דון יוסף הנשיא,16.48,6190-826-10,6190/826,43589.74358974359,32.0816530465,34.8395201486,2019
2019-08-26,2019-08-26,"טבריה 33, בני ברק",טבריה 33,6123-108-14,דירה בבית קומות,3.0,ב,59.0,1430000,,,1960.0,,4.0,3459263782,1,6123108,False,,בני ברק,טבריה,,6123-108-14,6123/108,24237.28813559322,32.086328674,34.8228325011,2019
2019-08-25,2019-08-25,"הרב בן-יעקב 2, בני ברק",הרב בן-יעקב 2,6190-980-15,דירה בבית קומות,3.0,שניה,98.0,2000000,,,1960.0,,3.0,3459659458,1,6190980,False,,בני ברק,הרב בן יעקב,,6190-980-15,6190/980,20408.163265306124,32.0780170538,34.8374897268,2019
2019-08-25,2019-08-25,"סומך 3, בני ברק",סומך 3,7361-6-13,דירה בבית קומות,3.0,רביעית,57.6,1200000,,,1960.0,,4.0,3459258504,1,73616,False,,בני ברק,סומך,,7361-6-13,7361/6,20833.33333333333,32.0964652647,34.8305083587,2019
2019-08-22,2019-08-22,"אברבנאל 36, בני ברק",אברבנאל 36,6195-756-21,דירה בבית קומות,3.5,שלישית,86.88,1485000,,,1960.0,,4.0,3459170721,1,6195756,False,,בני ברק,אברבנאל,,6195-756-21,6195/756,17092.54143646409,32.0956788844,34.8412633995,2019
2019-08-22,2019-08-22,,,6122-1743-11,מחסנים,,,58.0,490000,,,2019.0,,,3460117107,2,61221743,False,,בני ברק,שמעיה,,6122-1743-11,6122/1743,8448.275862068966,32.0892746453,34.8326258472,2019
2019-08-22,2019-08-22,"הרב כהנמן 159, בני ברק",הרב כהנמן 159,6185-33-39,דירה בבית קומות,3.0,שניה,95.0,1560000,,,2019.0,,4.0,3459947022,1,618533,False,,בני ברק,הרב כהנמן,,6185-33-39,6185/33,16421.052631578947,32.0737382637,34.842281759,2019
2019-08-21,2019-08-21,"הראשונים 21, בני ברק",הראשונים 21,6122-667-2,דירה בבית קומות,4.0,,99.0,1000000,,,1930.0,,2.0,3459265609,1,6122667,False,,בני ברק,הראשונים,,6122-667-2,6122/667,10101.0101010101,32.0912167196,34.8277085658,2019
2019-08-21,2019-08-21,"טרומפלדור 22, בני ברק",טרומפלדור 22,6195-487-13,דירה בבית קומות,1.5,ג,30.8,1175000,,,1960.0,,3.0,3459146535,1,6195487,False,,בני ברק,טרומפלדור,,6195-487-13,6195/487,38149.35064935065,32.0953490653,34.8382714618,2019
2019-08-20,2019-08-20,"גרונר 19, בני ברק",גרונר 19,6196-2-94,דירה בבית קומות,3.0,שניה,75.0,1200000,,,1960.0,2018.0,6.0,3459013251,1,61962,False,,בני ברק,גרונר,,6196-2-94,6196/2,16000.0,32.0945520656,34.8279724928,2019
2019-08-20,2019-08-20,"הרב בן-יעקב 19, בני ברק",הרב בן-יעקב 19,6190-188-1,תעשיה,,ראשונה,1174.0,20000000,,,1970.0,,1.0,3459945572,1,6190188,False,,בני ברק,הרב בן יעקב,,6190-188-1,6190/188,17035.775127768313,32.0778948814,34.8401563376,2019
2019-08-20,2019-08-20,"הרב דסלר 20, בני ברק",הרב דסלר 20,6188-205-11,דירה בבית קומות,3.0,רביעית,47.2,1700000,,,1980.0,,4.0,3459023053,1,6188205,False,,בני ברק,הרב דסלר,,6188-205-11,6188/205,36016.94915254237,32.0818209818,34.8335601007,2019
2019-08-20,2019-08-20,"מצדה 2, בני ברק",מצדה 2,6196-115-24,משרד,,עשרים וארבע,,1104540000,,,2019.0,,29.0,3459791698,1,6196115,False,,בני ברק,מצדה,,6196-115-24,6196/115,,32.0925587381,34.8255933127,2019
2019-08-20,2019-08-20,"הרב קוק 29, בני ברק",הרב קוק 29,6123-560-15,דירה בבית קומות,2.5,ד,48.5,1520000,,,1950.0,,4.0,3459786710,1,6123560,False,83% ב 9.8 שנים,בני ברק,הרב קוק,8.47,6123-560-15,6123/560,31340.20618556701,32.0854455536,34.8257417857,2019
2019-08-20,2019-08-20,"בן-זכאי 14, בני ברק",בן-זכאי 14,6123-539-5,דירה בבית קומות,3.0,שניה,78.5,1930000,,,1970.0,,3.0,3459967815,1,6123539,False,,בני ברק,בן זכאי,,6123-539-5,6123/539,24585.987261146496,32.0837084299,34.8304380421,2019
2019-08-19,2019-08-19,"הלוחמים 11, בני ברק",הלוחמים 11,6122-1774-6,דירה בבית קומות,5.0,שניה,119.0,2555000,,,2022.0,,6.0,3459804168,1,61221774,False,,בני ברק,הלוחמים,,6122-1774-6,6122/1774,21470.58823529412,32.088692884,34.8304092832,2019
2019-08-19,2019-08-19,"יוחנן הסנדלר 14, בני ברק",יוחנן הסנדלר 14,6185-87-11,דירה בבית קומות,3.0,חמישית,70.0,1370000,,,2019.0,,,3459247252,1,618587,False,,בני ברק,יוחנן הסנדלר,,6185-87-11,6185/87,19571.42857142857,,,2019
2019-08-19,2019-08-19,"הלוחמים 11, בני ברק",הלוחמים 11,6122-1774-2,דירה בבית קומות,5.0,שלישית,119.0,1900000,,,2022.0,,6.0,3460512087,1,61221774,False,,בני ברק,הלוחמים,,6122-1774-2,6122/1774,15966.38655462185,32.088692884,34.8304092832,2019
2019-08-19,2019-08-19,"הלוחמים 11, בני ברק",הלוחמים 11,6122-1774-3,דירה בבית קומות,5.0,שניה,109.0,2080000,,,2022.0,,6.0,3460513305,1,61221774,False,,בני ברק,הלוחמים,,6122-1774-3,6122/1774,19082.56880733945,32.088692884,34.8304092832,2019
2019-08-19,2019-08-19,"בר-כוכבא 4, בני ברק",בר-כוכבא 4,6196-145-59,משרד,,שביעית,26.0,247368000,,,2017.0,,17.0,3459144128,1,6196145,False,,בני ברק,בר כוכבא,,6196-145-59,6196/145,9514153.846153846,32.0919496728,34.8240673026,2019
2019-08-19,2019-08-19,"דוד בן-גוריון 1, בני ברק",דוד בן-גוריון 1,6196-157-39,משרד,,שישית,717.0,7953000,,,2018.0,,39.0,3459096742,1,6196157,False,,בני ברק,בן גוריון דוד,,6196-157-39,6196/157,11092.05020920502,32.0961757809,34.8229619238,2019
2019-08-19,2019-08-19,"הלוחמים 11, בני ברק",הלוחמים 11,6122-1774-1,דירה בבית קומות,3.0,חמישית,82.0,1700000,,,2022.0,,6.0,3460514958,1,61221774,False,,בני ברק,הלוחמים,,6122-1774-1,6122/1774,20731.70731707317,32.088692884,34.8304092832,2019
2019-08-19,2019-08-19,"הלוחמים 11, בני ברק",הלוחמים 11,6122-1774-110,דירה בבית קומות,5.0,חמישית,120.0,2755000,,,2022.0,,6.0,3460511681,1,61221774,False,,בני ברק,הלוחמים,,6122-1774-110,6122/1774,22958.33333333333,32.088692884,34.8304092832,2019
2019-08-19,2019-08-19,"שלמה בן-יוסף 18, בני ברק",שלמה בן-יוסף 18,6196-295-20,דירה בבית קומות,3.0,שישית,49.2,1280000,,,1970.0,,6.0,3459318563,1,6196295,False,,בני ברק,בן יוסף שלמה,,6196-295-20,6196/295,26016.260162601626,32.0949236722,34.8293426081,2019
2019-08-18,2019-08-18,"הרב כהנמן 159, בני ברק",הרב כהנמן 159,6185-33-40,דירה בבית קומות,4.0,ראשונה,113.0,2410000,,,2019.0,,4.0,3459844652,1,618533,False,,בני ברק,הרב כהנמן,,6185-33-40,6185/33,21327.433628318584,32.0737382637,34.842281759,2019
2019-08-16,2019-08-16,"חנקין 6, בני ברק",חנקין 6,6122-1360-4,דירה בבית קומות,5.0,חמישית,110.0,1800000,,,2019.0,,6.0,3459699420,1,61221360,False,,בני ברק,חנקין,,6122-1360-4,6122/1360,16363.636363636364,32.091939115,34.8344930103,2019
2019-08-15,2019-08-15,"הרב ברוט 13, בני ברק",הרב ברוט 13,7361-63-1,דירה בבית קומות,2.5,קרקע,44.1,950000,,,1950.0,,2.0,3458864423,1,736163,False,,בני ברק,הרב ברוט,,7361-63-1,7361/63,21541.950113378683,32.0941875712,34.8337927031,2019
2019-08-15,2019-08-15,"חנקין 6, בני ברק",חנקין 6,6122-1360-3,דירה בבית קומות,2.0,חמישית,60.0,1200000,,,2019.0,,6.0,3459682426,1,61221360,False,,בני ברק,חנקין,,6122-1360-3,6122/1360,20000.0,32.091939115,34.8344930103,2019
2019-08-15,2019-08-15,"אברבנאל 125, בני ברק",אברבנאל 125,7361-165-108,דירה בבית קומות,3.0,שביעית,64.0,1783000,,,2018.0,,6.0,3459298379,1,7361165,False,,בני ברק,אברבנאל,,7361-165-108,7361/165,27859.375,,,2019
2019-08-15,2019-08-15,"ביל""ו 20, בני ברק","ביל""ו 20",6122-1454-3,דירה בבית קומות,4.0,ב,80.0,2050000,,,1960.0,,4.0,3458826636,1,61221454,False,214% ב 16.8 שנים,בני ברק,"ביל""ו",12.74,6122-1454-3,6122/1454,25625.0,32.0908833748,34.8340632243,2019
2019-08-15,2019-08-15,"רד""ק 5, בני ברק","רד""ק 5",6122-800-6,דירה בבית קומות,4.0,ב,74.0,2000000,,,1970.0,,3.0,3459590786,1,6122800,False,,בני ברק,"רד""ק",,6122-800-6,6122/800,27027.027027027027,32.0885906006,34.8345380702,2019
2019-08-15,2019-08-15,"אנילביץ 68, בני ברק",אנילביץ 68,6124-214-6,דירה בבית קומות,4.0,ראשונה,75.0,2100000,,,1995.0,,3.0,3459266363,1,6124214,False,,בני ברק,אנילביץ,,6124-214-6,6124/214,28000.0,32.0794388288,34.8296454595,2019
2019-08-15,2019-08-15,"שבטי ישראל 27, בני ברק",שבטי ישראל 27,6122-1702-9,דירה בבית קומות,4.0,שניה,71.0,1650000,,,1970.0,,3.0,3458882403,1,61221702,False,,בני ברק,שבטי ישראל,,6122-1702-9,6122/1702,23239.436619718308,32.0917878582,34.8326390549,2019
2019-08-15,2019-08-15,"המכבים 71, בני ברק",המכבים 71,7361-169-68,דירה בבית קומות,4.0,שניה,116.0,1700000,,,2019.0,,1.0,3459217121,1,7361169,False,,בני ברק,המכבים,,7361-169-68,7361/169,14655.172413793103,,,2019
