DEALDATE,DEALDATETIME,FULLADRESS,DISPLAYADRESS,GUSH,DEALNATUREDESCRIPTION,ASSETROOMNUM,FLOORNO,DEALNATURE,DEALAMOUNT,NEWPROJECTTEXT,PROJECTNAME,BUILDINGYEAR,YEARBUILT,BUILDINGFLOORS,KEYVALUE,TYPE,POLYGON_ID,TREND_IS_NEGATIVE,TREND_FORMAT,city_name,street,presentage per year,GUSH - Copy,Gush_Helka,Price per sqm,lat,lon,Year
2024-12-09,2024-09-12,"מעגל השלום 21, ראשון לציון",מעגל השלום 21,5096-4-94,דירה בבית קומות,4.0,שלישית,89.0,2880000,,,2001.0,,11.0,10440434844,1,50964,False,,ראשון לציון,מעגל השלום,,5096-4-94,5096/4,32359.550561797754,31.9689697217,34.7640563591,2024
2024-12-09,2024-09-12,"טרכטנברג 13, ראשון לציון",טרכטנברג 13,3928-699-18,דירה בבית קומות,3.0,שלישית,62.5,1845000,,,1970.0,,4.0,10440408552,1,3928699,False,115% ב 12.7 שנים,ראשון לציון,טרכטנברג,9.06,3928-699-18,3928/699,29520.0,31.9728267509,34.8015704126,2024
2024-12-08,2024-08-12,"החלמונית 29, ראשון לציון",החלמונית 29,5036-87-203,דירה בבית קומות,4.0,שלישית,97.0,2300000,,,1998.0,,17.0,10437801360,1,503687,False,,ראשון לציון,החלמונית,,5036-87-203,5036/87,23711.340206185567,31.9704044809,34.7836741506,2024
2024-12-07,2024-07-12,"הכינור 7, ראשון לציון",הכינור 7,5183-9-64,דירה בבית קומות,3.0,חמישית,70.32,2350000,,,1997.0,,6.0,10434852036,1,51839,False,4% ב 2 שנים,ראשון לציון,הכינור,2.0,5183-9-64,5183/9,33418.65756541525,31.962909202,34.7705978334,2024
2024-12-07,2024-07-12,"יהושע גיבשטיין 9, ראשון לציון",יהושע גיבשטיין 9,6288-111-22,דירה בבית קומות,3.5,שניה,63.09,1700000,,,1985.0,,4.0,10435059852,1,6288111,False,,ראשון לציון,גיבשטיין יהושע,,6288-111-22,6288/111,26945.63322238073,31.9537703807,34.8125800441,2024
2024-12-05,2024-05-12,"יהודה 6, ראשון לציון",יהודה 6,3932-343-8,דירה בבית קומות,4.0,רביעית,98.0,2654000,,,2023.0,,2.0,10429377168,1,3932343,False,,ראשון לציון,יהודה,,3932-343-8,3932/343,27081.632653061224,31.965130792,34.8087250196,2024
2024-12-05,2024-05-12,"נתן ברניצקי 9, ראשון לציון",נתן ברניצקי 9,3926-887-17,דירה בבית קומות,5.0,שישית,151.0,3700000,,,1970.0,2027.0,5.0,10430781396,1,3926887,False,,ראשון לציון,ברניצקי נתן,,3926-887-17,3926/887,24503.311258278147,31.9587712987,34.8000092844,2024
2024-12-05,2024-05-12,"אהרון קרון 17, ראשון לציון",אהרון קרון 17,3925-221-3,דירה בבית קומות,2.5,קרקע,58.68,1860000,,,1970.0,,3.0,10428090456,1,3925221,False,37% ב 5 שנים,ראשון לציון,קרון אהרון,7.4,3925-221-3,3925/221,31697.341513292435,31.9589948202,34.8046512178,2024
2024-12-05,2024-05-12,"הרב גורן 14, ראשון לציון",הרב גורן 14,5116-90-10,דירה בבית קומות,4.0,שלישית,92.4,2900000,,,2001.0,,6.0,10429079304,1,511690,False,12% ב 1.5 שנים,ראשון לציון,הרב גורן,8.0,5116-90-10,5116/90,31385.281385281385,31.9719495678,34.7729552546,2024
2024-12-05,2024-05-12,"סוקולוב 20, ראשון לציון",סוקולוב 20,3925-286-1,דירה בבית קומות,5.0,חמישית,112.0,3850000,,,2025.0,,,10428470724,1,3925286,False,,ראשון לציון,סוקולוב,,3925-286-1,3925/286,34375.0,31.9596574051,34.8040992041,2024
2024-12-04,2024-04-12,"אברבנאל 39, ראשון לציון",אברבנאל 39,3930-566-7,דירה בבית קומות,4.0,שלישית,107.79,2365000,,,1992.0,,6.0,10425847068,1,3930566,False,,ראשון לציון,אברבנאל,,3930-566-7,3930/566,21940.81083588459,31.9665927885,34.8153653601,2024
2024-12-03,2024-03-12,"הרב נריה 9, ראשון לציון",הרב נריה 9,5116-28-21,דירה בבית קומות,2.0,שלישית,41.36,1930000,,,2000.0,,6.0,10422780648,1,511628,False,28% ב 3 שנים,ראשון לציון,הרב נריה,9.33,5116-28-21,5116/28,46663.44294003869,31.9728316899,34.7749149581,2024
2024-12-03,2024-03-12,"תנועות הנוער 10, ראשון לציון",תנועות הנוער 10,3939-432-14,דירה בבית קומות,3.5,שביעית,82.15,2450000,,,2000.0,,9.0,10423064064,1,3939432,False,39% ב 7.5 שנים,ראשון לציון,תנועות הנוער,5.2,3939-432-14,3939/432,29823.493609251367,31.9722469346,34.8151495967,2024
2024-12-03,2024-03-12,"וולפסון 41, ראשון לציון",וולפסון 41,3926-867-5,דירה בבית קומות,3.0,שניה,63.69,1780000,,,1970.0,,4.0,10423453572,1,3926867,False,,ראשון לציון,וולפסון,,3926-867-5,3926/867,27947.872507458,31.9625690793,34.7951762073,2024
2024-12-03,2024-03-12,"אנילביץ 41, ראשון לציון",אנילביץ 41,7281-76-15,דירה בבית קומות,3.0,רביעית,57.0,2000000,,,1975.0,,4.0,10423028112,1,728176,False,53% ב 2.6 שנים,ראשון לציון,אנילביץ,20.38,7281-76-15,7281/76,35087.71929824561,31.9858703136,34.7894381504,2024
2024-12-03,2024-03-12,"פרופ' נחום 11, ראשון לציון",פרופ' נחום 11,3945-225-4,דירה בבית קומות,3.5,שניה,78.94,1980000,,,1985.0,,4.0,10422862464,1,3945225,False,32% ב 8.1 שנים,ראשון לציון,פרופ' נחום,3.95,3945-225-4,3945/225,25082.34101849506,31.9678909417,34.7966330892,2024
2024-12-02,2024-02-12,"שפינוזה 14, ראשון לציון",שפינוזה 14,3928-435-19,דירה בבית קומות,4.0,חמישית,118.0,2500000,,,1980.0,2022.0,5.0,10423204680,1,3928435,False,,ראשון לציון,שפינוזה,,3928-435-19,3928/435,21186.4406779661,31.9689540284,34.8008106056,2024
2024-12-02,2024-02-12,"צ""ג בנות 27, ראשון לציון","צ""ג בנות 27",3929-815-3,דירה בבית קומות,4.0,ראשונה,89.84,1880000,,,1970.0,,5.0,10419804108,1,3929815,False,27% ב 5 שנים,ראשון לציון,"צ""ג בנות",5.4,3929-815-3,3929/815,20926.090828138917,31.9681464485,34.8096424618,2024
2024-12-02,2024-02-12,"כצנלסון 4, ראשון לציון",כצנלסון 4,3945-198-11,דירה בבית קומות,3.0,שניה,61.51,1640000,,,1960.0,,3.0,10419764796,1,3945198,False,197% ב 16.5 שנים,ראשון לציון,כצנלסון,11.94,3945-198-11,3945/198,26662.33132823931,31.9672467659,34.7988180788,2024
2024-12-02,2024-02-12,"קפלנסקי 36, ראשון לציון",קפלנסקי 36,3926-650-14,דירה בבית קומות,3.0,רביעית,55.4,1700000,,,1970.0,,4.0,10419803436,1,3926650,False,17% ב 2.6 שנים,ראשון לציון,קפלנסקי,6.54,3926-650-14,3926/650,30685.92057761733,31.9582276952,34.7960278404,2024
2024-12-02,2024-02-12,"הורוביץ 10, ראשון לציון",הורוביץ 10,3926-365-9,דירה בבית קומות,4.0,שלישית,83.2,1870000,,,1970.0,,4.0,10419801924,1,3926365,False,,ראשון לציון,הורוביץ,,3926-365-9,3926/365,22475.96153846154,31.9598778136,34.7999235801,2024
2024-11-09,2024-09-11,"ויניק 20, ראשון לציון",ויניק 20,3926-691-1,דירה בבית קומות,3.0,ראשונה,67.34,1880000,,,1970.0,,4.0,10440301116,1,3926691,False,,ראשון לציון,ויניק,,3926-691-1,3926/691,27918.02791802792,31.957326813,34.7981067552,2024
2024-11-08,2024-08-11,"יהודה לייב 39, ראשון לציון",יהודה לייב 39,3929-581-4,דירה בבית קומות,4.0,ראשונה,79.63,1800000,,,1970.0,,7.0,10436910204,1,3929581,False,,ראשון לציון,יהודה לייב,,3929-581-4,3929/581,22604.546025367326,31.9693357137,34.8070995827,2024
2024-11-07,2024-07-11,"לנדאו 3, ראשון לציון",לנדאו 3,5037-51-6,דירה בבית קומות,4.0,שניה,95.01,2325000,,,1990.0,,6.0,10433883852,1,503751,False,,ראשון לציון,לנדאו חיים,,5037-51-6,5037/51,24471.10830438901,31.9945487834,34.742105403,2024
2024-11-07,2024-07-11,"יוני צבי פינשטיין 9, ראשון לציון",יוני צבי פינשטיין 9,6288-109-144,דירה בבית קומות,4.0,תשיעית,78.29,1945000,,,1993.0,,9.0,10433907288,1,6288109,False,53% ב 10.5 שנים,ראשון לציון,פינשטיין יונה צבי,5.05,6288-109-144,6288/109,24843.530463660747,31.9535369919,34.8135725855,2024
2024-11-07,2024-07-11,"תרמ""ב 13, ראשון לציון","תרמ""ב 13",3928-884-90,דירה בבית קומות,4.0,ארבע עשרה,99.3,3015000,,,2010.0,,21.0,10434099312,1,3928884,False,114% ב 14.9 שנים,ראשון לציון,"תרמ""ב",7.65,3928-884-90,3928/884,30362.53776435045,31.9662381847,34.8022240573,2024
2024-11-07,2024-07-11,"שוחט מניה 8, ראשון לציון",שוחט מניה 8,3926-723-1,דירה בבית קומות,3.5,ראשונה,71.09,2040000,,,1970.0,,4.0,10434016908,1,3926723,False,88% ב 9.8 שנים,ראשון לציון,שוחט מניה,8.98,3926-723-1,3926/723,28696.01913067942,31.9574468966,34.8016851044,2024
2024-11-06,2024-06-11,"יוסף הלוי 3, ראשון לציון",יוסף הלוי 3,3929-625-13,דירה בבית קומות,4.0,קומה ‎6‏,110.2,2250000,,,1970.0,2019.0,7.0,10431143016,1,3929625,False,,ראשון לציון,הלוי יוסף,,3929-625-13,3929/625,20417.42286751361,31.9678469265,34.8066716189,2024
2024-11-04,2024-04-11,"טרכטנברג 20, ראשון לציון",טרכטנברג 20,3928-564-10,דירה בבית קומות,4.0,רביעית,81.01,2150000,,,1980.0,,4.0,10427064732,1,3928564,False,,ראשון לציון,טרכטנברג,,3928-564-10,3928/564,26539.93334156277,31.9719541739,34.8019970106,2024
2024-11-04,2024-04-11,"המרגנית 18, ראשון לציון",המרגנית 18,5036-54-2,דירה בבית קומות,3.5,ראשונה,76.7,2430000,,,1980.0,,8.0,10426422888,1,503654,False,61% ב 6.6 שנים,ראשון לציון,המרגנית,9.24,5036-54-2,5036/54,31681.877444589307,31.9734143573,34.7823694019,2024
2024-11-04,2024-04-11,"טשרניחובסקי 7, ראשון לציון",טשרניחובסקי 7,3945-215-3,דירה בבית קומות,2.0,ראשונה,32.4,1400000,,,1960.0,,3.0,10425813132,1,3945215,False,177% ב 15.5 שנים,ראשון לציון,טשרניחובסקי,11.42,3945-215-3,3945/215,43209.87654320988,31.9679956909,34.7977711484,2024
2024-11-04,2024-04-11,"חיל החימוש 15, ראשון לציון",חיל החימוש 15,2717-18-44,דירה בבית קומות,5.0,תשיעית,125.0,3500000,,,2003.0,,10.0,10427820816,1,271718,False,62% ב 10.3 שנים,ראשון לציון,חיל החימוש,6.02,2717-18-44,2717/18,28000.0,31.9970891553,34.7398298202,2024
2024-11-04,2024-04-11,"הקוקייה 32, ראשון לציון",הקוקייה 32,6287-154-61,דירה בבית קומות,5.0,שביעית,125.25,2575000,,,1990.0,,9.0,10426064796,1,6287154,False,26% ב 3.3 שנים,ראשון לציון,הקוקיה,7.88,6287-154-61,6287/154,20558.88223552894,31.9598552365,34.8175048065,2024
2024-11-04,2024-04-11,"המפוחית 4, ראשון לציון",המפוחית 4,5183-72-27,דירה בבית קומות,4.0,ראשונה,104.3,2690000,,,1998.0,,,10425878316,1,518372,False,194% ב 23.3 שנים,ראשון לציון,המפוחית,8.33,5183-72-27,5183/72,25790.98753595398,31.9649200279,34.7751625093,2024
2024-11-03,2024-03-11,"נעמה 30, ראשון לציון",נעמה 30,5386-101-1,קוטג' דו משפחתי,6.0,"מרתף, קרקע, ראשונה",218.2,5050000,,,1996.0,,,10424938440,1,5386101,False,161% ב 17.5 שנים,ראשון לציון,נעמה,9.2,5386-101-1,5386/101,23143.90467461045,31.979345328,34.7617746306,2024
2024-11-03,2024-03-11,"שיבת ציון 20, ראשון לציון",שיבת ציון 20,3937-44-7,דירה בבית קומות,4.0,שניה,90.66,1835000,,,1980.0,,5.0,10422615756,1,393744,False,168% ב 24.8 שנים,ראשון לציון,שיבת ציון,6.77,3937-44-7,3937/44,20240.45885726892,31.9601441288,34.8115549667,2024
2024-11-03,2024-03-11,"החלמונית 30, ראשון לציון",החלמונית 30,5036-96-109,דירה בבית קומות,4.0,שמינית,113.1,2810000,,,1994.0,,9.0,10423505400,1,503696,False,,ראשון לציון,החלמונית,,5036-96-109,5036/96,24845.26967285588,31.9709256316,34.7828264003,2024
2024-11-03,2024-03-11,"הגיתית 8, ראשון לציון",הגיתית 8,5183-78-41,דירה בבית קומות,3.5,רביעית,85.0,2380000,,,1997.0,,6.0,10424117508,1,518378,False,65% ב 10.8 שנים,ראשון לציון,הגיתית,6.02,5183-78-41,5183/78,28000.0,31.9652052807,34.7708721415,2024
2024-11-03,2024-03-11,"הגיתית 4, ראשון לציון",הגיתית 4,5183-77-46,דירה בבית קומות,3.0,חמישית,67.0,2000000,,,2000.0,,,10423206864,1,518377,False,15% ב 6 שנים,ראשון לציון,הגיתית,2.5,5183-77-46,5183/77,29850.74626865672,31.9652984988,34.7716149067,2024
2024-11-03,2024-03-11,"הצפורן 8, ראשון לציון",הצפורן 8,5036-37-6,דירה בבית קומות,3.0,שלישית,62.1,1830000,,,1989.0,,3.0,10425651684,1,503637,False,152% ב 15.5 שנים,ראשון לציון,הצפורן,9.81,5036-37-6,5036/37,29468.599033816423,31.9739050978,34.7836996522,2024
2024-11-03,2024-03-11,"סנש חנה 13, ראשון לציון",סנש חנה 13,7281-54-3,דירה בבית קומות,3.0,שניה,49.6,1619000,,,1970.0,,4.0,10424493576,1,728154,False,,ראשון לציון,סנש חנה,,7281-54-3,7281/54,32641.129032258064,31.9874342018,34.7876959051,2024
2024-11-03,2024-03-11,"יוני צבי פינשטיין 3, ראשון לציון",יוני צבי פינשטיין 3,6288-105-6,דירה בבית קומות,4.0,שניה,83.22,2195000,,,1995.0,,9.0,10423104972,1,6288105,False,83% ב 11.8 שנים,ראשון לציון,פינשטיין יונה צבי,7.03,6288-105-6,6288/105,26375.871184811345,31.9542780293,34.8130424907,2024
2024-11-02,2024-02-11,"ניר דוד 2, ראשון לציון",ניר דוד 2,5388-43-8,דירה בבית קומות,3.0,שלישית,66.0,2150000,,,1991.0,,,10422545112,1,538843,False,,ראשון לציון,ניר דוד,,5388-43-8,5388/43,32575.757575757576,31.9623612235,34.7790631844,2024
2024-11-02,2024-02-11,"הפרדס הראשון 35, ראשון לציון",הפרדס הראשון 35,3945-824-24,דירה בבית קומות,3.0,שלישית,74.6,2085000,,,1978.0,,8.0,10419712716,1,3945824,False,240% ב 18.1 שנים,ראשון לציון,הפרדס הראשון,13.26,3945-824-24,3945/824,27949.061662198397,31.9684295423,34.7905147302,2024
2024-11-02,2024-02-11,"גיסין 3, ראשון לציון",גיסין 3,3928-761-20,דירה בבית קומות,4.0,שביעית,115.89,2400000,,,1970.0,,7.0,10419899112,1,3928761,False,,ראשון לציון,גיסין,,3928-761-20,3928/761,20709.293295366297,31.9710448155,34.7998298481,2024
2024-11-02,2024-02-11,"השריג 19, ראשון לציון",השריג 19,5039-40-13,דירה בבית קומות,5.0,שישית,118.5,3275000,,,1995.0,,6.0,10419946992,1,503940,False,48% ב 4 שנים,ראשון לציון,השריג,12.0,5039-40-13,5039/40,27637.130801687763,31.9718820865,34.7771048257,2024
2024-11-01,2024-01-11,"הרשב""א 11, ראשון לציון","הרשב""א 11",5115-74-14,דירה בבית קומות,4.0,רביעית,81.7,2570000,,,1997.0,,7.0,10417092336,1,511574,False,229% ב 16.9 שנים,ראשון לציון,"הרשב""א",13.55,5115-74-14,5115/74,31456.548347613218,31.9790172247,34.7768911457,2024
2024-11-01,2024-01-11,"האלמוגים 22, ראשון לציון",האלמוגים 22,6824-176-8,משרד,1.0,ראשונה,37.8,407000,,,1991.0,,1.0,10417073016,1,6824176,False,,ראשון לציון,האלמוגים,,6824-176-8,6824/176,10767.195767195768,31.9878330232,34.7794938074,2024
2024-11-01,2024-01-11,"הרב גורן 5, ראשון לציון",הרב גורן 5,5116-27-48,דירה בבית קומות,3.0,ראשונה,67.33,2200000,,,1997.0,,12.0,10416910224,1,511627,False,,ראשון לציון,הרב גורן,,5116-27-48,5116/27,32674.884895291845,31.9740997615,34.7724662742,2024
2024-11-01,2024-01-11,"מאירוביץ 3, ראשון לציון",מאירוביץ 3,3936-236-11,דירה בבית קומות,3.0,רביעית,75.55,1800000,,,1970.0,,4.0,10416878220,1,3936236,False,41% ב 3.6 שנים,ראשון לציון,מאירוביץ,11.39,3936-236-11,3936/236,23825.28127068167,31.9599505796,34.8082905985,2024
2024-11-01,2024-01-11,"הירשפלד 15, ראשון לציון",הירשפלד 15,3926-671-12,דירה בבית קומות,3.0,שלישית,67.56,1775000,,,1970.0,,4.0,10416948276,1,3926671,False,,ראשון לציון,הירשפלד,,3926-671-12,3926/671,26272.94256956779,31.9582223999,34.7991671154,2024
2024-11-01,2024-01-11,"רחבעם זאבי 40, ראשון לציון",רחבעם זאבי 40,2704-55-628,דירה בבית קומות,5.0,קומה ‎16‏,137.0,4100000,,,2007.0,,23.0,10417417416,1,270455,False,20% ב 10.2 שנים,ראשון לציון,חיל התותחנים,1.96,2704-55-628,2704/55,29927.007299270077,31.9968337355,34.7361771568,2024
2024-11-01,2024-01-11,"לוי משה 11, ראשון לציון",לוי משה 11,6097-217-50,משרד,,שניה,881.6,227000,,,1998.0,,13.0,10420483920,1,6097217,False,,ראשון לציון,לוי משה,,6097-217-50,6097/217,257.486388384755,31.9889793014,34.7734093597,2024
2024-11-01,2024-01-11,"אנילביץ 28, ראשון לציון",אנילביץ 28,7281-91-2,דירה בבית קומות,3.0,ראשונה,64.0,2245000,,,1970.0,,5.0,10417278060,1,728191,False,124% ב 3.6 שנים,ראשון לציון,אנילביץ,34.44,7281-91-2,7281/91,35078.125,31.986208168,34.7898964478,2024
2024-11-01,2024-01-11,"הגדוד העברי 52, ראשון לציון",הגדוד העברי 52,3929-821-28,דירה בבית קומות,4.0,רביעית,84.28,1760000,,,1980.0,,9.0,10417404984,1,3929821,False,,ראשון לציון,הגדוד העברי,,3929-821-28,3929/821,20882.771713336497,31.9681649457,34.8107130194,2024
2024-10-09,2024-09-10,"האלוף דוד 15, ראשון לציון",האלוף דוד 15,3946-411-43,דירה בבית קומות,5.0,קומה ‎11‏,125.7,3610000,,,2011.0,,18.0,10439843736,1,3946411,False,,ראשון לציון,האלוף דוד,,3946-411-43,3946/411,28719.172633253776,31.9701291619,34.7789300311,2024
2024-10-07,2024-07-10,"בית הערבה 4, ראשון לציון",בית הערבה 4,5387-78-16,דירה בבית קומות,3.0,שלישית,63.0,1820000,,,1992.0,,3.0,10433867892,1,538778,False,75% ב 13.7 שנים,ראשון לציון,בית הערבה,5.47,5387-78-16,5387/78,28888.88888888889,31.96551518,34.779086243,2024
2024-10-07,2024-07-10,"היקינטון 16, ראשון לציון",היקינטון 16,5036-83-25,דירה בבית קומות,5.0,ראשונה,106.18,2625000,,,1990.0,,7.0,10434686976,1,503683,False,,ראשון לציון,היקינטון,,5036-83-25,5036/83,24722.169900169523,31.9719991338,34.7814049251,2024
2024-10-07,2024-07-10,,,6286-321-13,,6.0,שמינית,168.0,6350000,1.0,,,,,11181271025,2,6286321,False,,ראשון לציון,ההתיישבות,,6286-321-13,6286/321,37797.619047619046,31.9689374466,34.8253099641,2024
2024-10-07,2024-07-10,"הרצל 74, ראשון לציון",הרצל 74,3934-65-13,חנות,,קרקע,20.1,350000,,,2022.0,,3.0,10433743824,1,393465,False,16% ב 6.4 שנים,ראשון לציון,הרצל,2.5,3934-65-13,3934/65,17412.935323383084,31.9645277382,34.802526255,2024
2024-10-06,2024-06-10,"שוחט מניה 12, ראשון לציון",שוחט מניה 12,3926-914-16,דירה בבית קומות,4.0,רביעית,94.25,2100000,,,1970.0,,6.0,10431417528,1,3926914,False,,ראשון לציון,שוחט מניה,,3926-914-16,3926/914,22281.167108753318,31.9579769257,34.8016180494,2024
2024-10-06,2024-06-10,"מאירוביץ 3, ראשון לציון",מאירוביץ 3,3936-236-10,דירה בבית קומות,3.0,שלישית,66.08,1800000,,,1970.0,,4.0,10432332960,1,3936236,False,285% ב 19.5 שנים,ראשון לציון,מאירוביץ,14.62,3936-236-10,3936/236,27239.709443099277,31.9599505796,34.8082905985,2024
2024-10-06,2024-06-10,"שיבת ציון 25, ראשון לציון",שיבת ציון 25,3937-247-10,דירה בבית קומות,5.0,שלישית,117.64,3350000,,,2002.0,,7.0,10432339260,1,3937247,False,,ראשון לציון,שיבת ציון,,3937-247-10,3937/247,28476.70860251615,31.9596244407,34.8124382097,2024
2024-10-06,2024-06-10,"הנח""ל 2, ראשון לציון","הנח""ל 2",6286-179-2,דירה בבית קומות,7.0,קרקע ראשונה ושניה,183.75,4470000,,,1992.0,,,10431271284,1,6286179,False,95% ב 8.9 שנים,ראשון לציון,"הנח""ל",10.67,6286-179-2,6286/179,24326.530612244896,31.9640712586,34.8185912215,2024
2024-10-06,2024-06-10,"חי""ש 2, ראשון לציון","חי""ש 2",3930-456-17,דירה בבית קומות,5.0,עשרים וארבע,118.0,3215000,,,2025.0,,3.0,10433580276,1,3930456,False,,ראשון לציון,"חי""ש",,3930-456-17,3930/456,27245.762711864405,31.9671298113,34.8174523646,2024
2024-10-06,2024-06-10,"שוהם 21, ראשון לציון",שוהם 21,4747-32-1,דירה בבית קומות,7.0,קרקע וראשונה,144.06,4900000,,,1996.0,,1.0,10432281720,1,474732,False,70% ב 9.4 שנים,ראשון לציון,שוהם,7.45,4747-32-1,4747/32,34013.60544217687,31.9842504949,34.7802728524,2024
2024-10-06,2024-06-10,"הפסנתר 6, ראשון לציון",הפסנתר 6,5182-14-8,דירה בבית קומות,3.0,שניה,64.05,2300000,,,1998.0,,7.0,10430885220,1,518214,False,33% ב 3.6 שנים,ראשון לציון,הפסנתר,9.17,5182-14-8,5182/14,35909.44574551132,31.9669485827,34.7729926904,2024
2024-10-06,2024-06-10,"הורוביץ 1, ראשון לציון",הורוביץ 1,3926-873-2,דירה בבית קומות,3.0,ראשונה,66.88,2000000,,,1970.0,,4.0,10430908824,1,3926873,False,,ראשון לציון,הורוביץ,,3926-873-2,3926/873,29904.306220095696,31.9593551155,34.8011365047,2024
2024-10-06,2024-06-10,"שמואל שרירא 22, ראשון לציון",שמואל שרירא 22,6286-146-16,דירה בבית קומות,3.0,רביעית,55.14,1850000,,,1970.0,,4.0,10432069620,1,6286146,False,,ראשון לציון,שרירא שמואל,,6286-146-16,6286/146,33550.961189698945,31.9657206461,34.8224327853,2024
2024-10-06,2024-06-10,"חיל הרגלים 21, ראשון לציון",חיל הרגלים 21,5031-5-45,דירה בבית קומות,4.0,שישית,,2593000,,,1970.0,2023.0,4.0,10432682316,1,50315,False,,ראשון לציון,חיל הרגלים,,5031-5-45,5031/5,,31.9968560568,34.7427253786,2024
2024-10-05,2024-05-10,"חזון איש 13, ראשון לציון",חזון איש 13,3929-1008-24,דירה בבית קומות,3.5,רביעית,90.0,1940000,1.0,,1970.0,,4.0,10428335064,1,39291008,False,,ראשון לציון,חזון איש,,3929-1008-24,3929/1008,21555.555555555555,31.9686920511,34.8080933015,2024
2024-10-04,2024-04-10,"דרור 50, ראשון לציון",דרור 50,3929-784-2,דירה בבית קומות,3.0,ראשונה,66.31,1760000,,,1970.0,,8.0,10426674468,1,3929784,False,,ראשון לציון,דרור,,3929-784-2,3929/784,26541.999698386368,31.9698771224,34.8066234964,2024
2024-10-04,2024-04-10,"דוד המלך 24, ראשון לציון",דוד המלך 24,5025-52-1,קרקע למגורים,,,442.0,3740000,,,,,,10427651640,1,502552,False,,ראשון לציון,דוד המלך,,5025-52-1,5025/52,8461.538461538461,31.978850265,34.7888395245,2024
2024-10-04,2024-04-10,,,6286-321-12,,6.0,חמישית,135.0,3978000,1.0,,,,,11181271024,2,6286321,False,,ראשון לציון,ההתיישבות,,6286-321-12,6286/321,29466.666666666668,31.9689374466,34.8253099641,2024
2024-10-04,2024-04-10,"הרב נריה 13, ראשון לציון",הרב נריה 13,5116-31-3,דירה בבית קומות,5.0,קרקע + ראשונה,121.05,3870000,,,1997.0,,4.0,10425728628,1,511631,False,219% ב 17 שנים,ראשון לציון,הרב נריה,12.88,5116-31-3,5116/31,31970.260223048328,31.9719646387,34.7744471301,2024
2024-10-04,2024-04-10,"החשמונאים 8, ראשון לציון",החשמונאים 8,4241-188-1,דירה בבית קומות,5.5,ראשונה,140.0,5150000,,,1970.0,,1.0,10425939216,1,4241188,False,,ראשון לציון,החשמונאים,,4241-188-1,4241/188,36785.71428571428,31.9616285578,34.824115067,2024
2024-10-04,2024-04-10,"החלמונית 9, ראשון לציון",החלמונית 9,5036-24-21,דירה בבית קומות,3.0,שישית,78.2,1905000,,,1995.0,,6.0,10425704352,1,503624,False,169% ב 19.6 שנים,ראשון לציון,החלמונית,8.62,5036-24-21,5036/24,24360.61381074169,31.9738502491,34.7851843176,2024
2024-10-03,2024-03-10,"המפוחית 7, ראשון לציון",המפוחית 7,5182-2-29,דירה בבית קומות,4.0,ראשונה,85.2,2500000,,,1997.0,,6.0,10423294224,1,51822,False,64% ב 8.6 שנים,ראשון לציון,המפוחית,7.44,5182-2-29,5182/2,29342.723004694835,31.9659885089,34.7763435998,2024
2024-10-03,2024-03-10,"אלרואי 21, ראשון לציון",אלרואי 21,3929-794-5,דירה בבית קומות,2.0,שניה,36.0,1350000,,,1970.0,,4.0,10423319004,1,3929794,False,,ראשון לציון,אלרואי,,3929-794-5,3929/794,37500.0,31.9697914229,34.8129826325,2024
2024-10-03,2024-03-10,"צלליכין 17, ראשון לציון",צלליכין 17,3926-1375-1,דירה בבית קומות,5.0,שלישית,114.0,3480000,,,2022.0,,,10422954612,1,39261375,False,,ראשון לציון,צלליכין,,3926-1375-1,3926/1375,30526.315789473683,31.9609704226,34.7982851448,2024
2024-10-03,2024-03-10,"הצבעוני 12, ראשון לציון",הצבעוני 12,5036-69-11,דירה בבית קומות,3.0,שניה,63.1,1870000,,,1992.0,,4.0,10423178388,1,503669,False,,ראשון לציון,הצבעוני,,5036-69-11,5036/69,29635.49920760697,31.9725282537,34.7825484697,2024
2024-10-03,2024-03-10,"חנה סנש 3, ראשון לציון",חנה סנש 3,7281-57-34,דירה בבית קומות,2.0,רביעית,35.2,1580000,,,1970.0,,4.0,10423073052,1,728157,False,195% ב 2.2 שנים,ראשון לציון,סנש חנה,88.64,7281-57-34,7281/57,44886.36363636363,31.987131148,34.7884353808,2024
2024-10-03,2024-03-10,"יהודה הלוי 51, ראשון לציון",יהודה הלוי 51,3929-786-12,דירה בבית קומות,3.0,שלישית,48.4,1690000,,,1970.0,,4.0,10423216524,1,3929786,False,13% ב 2 שנים,ראשון לציון,יהודה הלוי,6.5,3929-786-12,3929/786,34917.35537190083,31.9674572684,34.8128880467,2024
2024-10-03,2024-03-10,"טיומקין 6, ראשון לציון",טיומקין 6,3925-797-9,דירה בבית קומות,4.0,שלישית,65.0,2110000,,,1970.0,,5.0,10423963032,1,3925797,False,,ראשון לציון,טיומקין,,3925-797-9,3925/797,32461.53846153846,31.9598081069,34.8031274818,2024
2024-10-03,2024-03-10,"שלמה אלירז 1, ראשון לציון",שלמה אלירז 1,3930-131-500,דירה בבית קומות,4.0,שבע עשרה,109.0,2800000,,,2018.0,,24.0,10422621300,1,3930131,False,,ראשון לציון,אלירז שלמה,,3930-131-500,3930/131,25688.07339449541,31.9660405558,34.818461625,2024
2024-10-03,2024-03-10,"ימית 33, ראשון לציון",ימית 33,5385-74-1,דירה בבית קומות,7.0,מרתף + קרקע +א'+ב',233.0,5855000,,,2000.0,,,10424049636,1,538574,False,208% ב 18.7 שנים,ראשון לציון,ימית,11.12,5385-74-1,5385/74,25128.755364806868,31.9773285169,34.762733444,2024
2024-10-01,2024-01-10,"לוי משה 11, ראשון לציון",לוי משה 11,6097-217-65,משרד,,שלישית,50.2,780000,,,1998.0,,13.0,10416802116,1,6097217,False,,ראשון לציון,לוי משה,,6097-217-65,6097/217,15537.848605577688,31.9889793014,34.7734093597,2024
2024-10-01,2024-01-10,"חביב לובמן 3, ראשון לציון",חביב לובמן 3,3937-119-12,דירה בבית קומות,3.0,שלישית,67.96,1760000,,,1970.0,,6.0,10416869316,1,3937119,False,,ראשון לציון,לובמן חביב,,3937-119-12,3937/119,25897.586815773982,31.9602965521,34.8090800774,2024
2024-10-01,2024-01-10,"שדה נחום 6, ראשון לציון",שדה נחום 6,5387-61-6,דירה בבית קומות,4.0,שניה,85.0,2360000,,,1992.0,,9.0,10416763140,1,538761,False,21% ב 5.8 שנים,ראשון לציון,שדה נחום,3.62,5387-61-6,5387/61,27764.70588235294,31.9657459388,34.7800264939,2024
2024-09-15,2024-09-15,"שרירא שמואל 17, ראשון לציון",שרירא שמואל 17,6286-149-30,דירה בבית קומות,3.5,רביעית,63.84,2210000,,,2021.0,,4.0,10440785376,1,6286149,False,268% ב 14.3 שנים,ראשון לציון,שרירא שמואל,18.74,6286-149-30,6286/149,34617.794486215535,31.9646119882,34.821742148,2024
2024-09-15,2024-09-15,"יהודה הלוי 45, ראשון לציון",יהודה הלוי 45,3929-1032-96,דירה בבית קומות,4.5,חמישית,109.45,2540000,,,1997.0,,8.0,10440940776,1,39291032,False,70% ב 9.4 שנים,ראשון לציון,יהודה הלוי,7.45,3929-1032-96,3929/1032,23206.943809958884,31.9675890173,34.8120953663,2024
2024-09-07,2024-07-09,"גנוסר 35, ראשון לציון",גנוסר 35,5387-18-5,דירה בבית קומות,4.0,שניה,94.5,2800000,,,1990.0,,7.0,10434174156,1,538718,False,129% ב 10 שנים,ראשון לציון,גינוסר,12.9,5387-18-5,5387/18,29629.62962962963,31.9672720556,34.7806955297,2024
2024-09-07,2024-07-09,"החלמונית 4, ראשון לציון",החלמונית 4,5036-5-12,דירה בבית קומות,3.0,שלישית,60.9,2200000,,,1980.0,,8.0,10433903172,1,50365,False,57% ב 5.5 שנים,ראשון לציון,החלמונית,10.36,5036-5-12,5036/5,36124.7947454844,31.9753332125,34.7850910817,2024
2024-09-07,2024-07-09,"החלמונית 16, ראשון לציון",החלמונית 16,5036-48-34,דירה בבית קומות,3.0,שניה,73.0,1900000,,,1990.0,,6.0,10433775072,1,503648,False,195% ב 25 שנים,ראשון לציון,החלמונית,7.8,5036-48-34,5036/48,26027.39726027397,31.9731507656,34.7840556387,2024
2024-09-07,2024-07-09,"הנורית 9, ראשון לציון",הנורית 9,5036-23-12,דירה בבית קומות,4.0,שלישית,83.0,2020000,,,1981.0,,3.0,10434453456,1,503623,False,29% ב 3.1 שנים,ראשון לציון,הנורית,9.35,5036-23-12,5036/23,24337.34939759036,31.9742631779,34.785687835,2024
2024-09-06,2024-06-09,"נעמן 2, ראשון לציון",נעמן 2,3928-731-9,דירה בבית קומות,3.5,שלישית,75.77,2040000,,,1970.0,,4.0,10433531724,1,3928731,False,31% ב 8.4 שנים,ראשון לציון,נעמן,3.69,3928-731-9,3928/731,26923.58453213673,31.9721439815,34.8033807606,2024
2024-09-06,2024-06-09,"חי""ש 2, ראשון לציון","חי""ש 2",3930-456-18,דירה בבית קומות,4.0,שלוש עשרה,105.0,2720000,,,2025.0,,3.0,10434132576,1,3930456,False,,ראשון לציון,"חי""ש",,3930-456-18,3930/456,25904.761904761905,31.9671298113,34.8174523646,2024
2024-09-06,2024-06-09,"דוד הראובני 10, ראשון לציון",דוד הראובני 10,3931-61-1,דירה בבית קומות,4.0,ראשונה,106.84,2410000,,,1990.0,,6.0,10430955276,1,393161,False,63% ב 10.6 שנים,ראשון לציון,דוד הראובני,5.94,3931-61-1,3931/61,22557.094721078247,31.96361212,34.8131374863,2024
2024-09-06,2024-06-09,,,3930-457-3,,5.0,עשרים וארבע,118.0,3215000,1.0,,,,,11181235841,2,3930457,False,,ראשון לציון,"חי""ש",,3930-457-3,3930/457,27245.762711864405,31.9668800649,34.8174788046,2024
2024-09-06,2024-06-09,"הנרקיס 10, ראשון לציון",הנרקיס 10,5036-9-31,דירה בבית קומות,4.0,שמינית,83.2,2380000,,,1980.0,,8.0,10432929528,1,50369,False,109% ב 14 שנים,ראשון לציון,הנרקיס,7.79,5036-9-31,5036/9,28605.76923076923,31.9756267664,34.7839750435,2024
2024-09-06,2024-06-09,"רמז 1, ראשון לציון",רמז 1,3926-172-18,דירה בבית קומות,3.0,רביעית,80.1,1800000,,,1970.0,,4.0,10432894080,1,3926172,False,97% ב 14.3 שנים,ראשון לציון,רמז,6.78,3926-172-18,3926/172,22471.910112359557,31.9643003868,34.7932806846,2024
2024-09-06,2024-06-09,"אליעזר בלבן 1, ראשון לציון",אליעזר בלבן 1,3939-489-59,דירה בבית קומות,3.0,שניה,60.0,1950000,,,1999.0,,6.0,10430863128,1,3939489,False,,ראשון לציון,בלבן אליעזר,,3939-489-59,3939/489,32500.0,31.9717864944,34.8101086176,2024
2024-09-06,2024-06-09,"צבי הרמן שפירא 15, ראשון לציון",צבי הרמן שפירא 15,3928-775-24,דירה בבית קומות,4.0,שישית,101.37,2100000,,,1970.0,,8.0,10431542856,1,3928775,False,30% ב 7 שנים,ראשון לציון,שפירא צבי הרמן,4.29,3928-775-24,3928/775,20716.18822136727,31.9717980976,34.8009153471,2024
2024-09-05,2024-05-09,"הרצל 43, ראשון לציון",הרצל 43,3929-463-10,דירה בבית קומות,3.0,שניה,74.53,1755000,,,1970.0,,7.0,10430298984,1,3929463,False,,ראשון לציון,הרצל,,3929-463-10,3929/463,23547.564739031262,31.969061969,34.8047513582,2024
2024-09-05,2024-05-09,"לבונטין 18, ראשון לציון",לבונטין 18,3937-123-11,דירה בבית קומות,4.0,שלישית,87.03,2200000,,,1982.0,,5.0,10428101376,1,3937123,False,44% ב 7.5 שנים,ראשון לציון,לבונטין,5.87,3937-123-11,3937/123,25278.639549580603,31.9606749001,34.8091500427,2024
2024-09-05,2024-05-09,"הברון הירש 16, ראשון לציון",הברון הירש 16,3928-502-19,דירה בבית קומות,2.0,רביעית,48.0,1530000,,,1970.0,,4.0,10430520156,1,3928502,False,,ראשון לציון,הברון הירש,,3928-502-19,3928/502,31875.0,31.9683105864,34.8012466242,2024
2024-09-05,2024-05-09,"הברון הירש 10, ראשון לציון",הברון הירש 10,3928-335-1,דירה בבית קומות,5.0,ראשונה,98.0,2625000,,,2013.0,,4.0,10429543572,1,3928335,False,51% ב 9.2 שנים,ראשון לציון,הברון הירש,5.54,3928-335-1,3928/335,26785.714285714286,31.9683315414,34.8021167246,2024
2024-09-04,2024-04-09,"הסחלב 9, ראשון לציון",הסחלב 9,5036-89-1,דירה בבית קומות,3.0,ראשונה,66.6,2010000,,,1985.0,,3.0,10427495148,1,503689,False,43% ב 6.4 שנים,ראשון לציון,הסחלב,6.72,5036-89-1,5036/89,30180.18018018018,31.9706179289,34.7847843054,2024
2024-09-04,2024-04-09,"ויניק 47, ראשון לציון",ויניק 47,3926-1025-1,קוטג' חד משפחתי,9.0,מרתף קרקע וראשונה,211.1,5600000,,,1993.0,,,10426707060,1,39261025,False,47% ב 3.7 שנים,ראשון לציון,ויניק,12.7,3926-1025-1,3926/1025,26527.71198484131,31.9577156644,34.791877816,2024
2024-09-04,2024-04-09,"אריאב חיים 2, ראשון לציון",אריאב חיים 2,7281-14-5,דירה בבית קומות,2.0,שניה,36.2,2600000,,,1970.0,,4.0,10426021032,1,728114,False,,ראשון לציון,אריאב חיים,,7281-14-5,7281/14,71823.2044198895,31.9868818971,34.7863110727,2024
2024-09-04,2024-04-09,"המפוחית 8, ראשון לציון",המפוחית 8,5183-73-41,דירה בבית קומות,3.0,רביעית,68.7,2220000,,,2000.0,,,10426635744,1,518373,False,32% ב 7.5 שנים,ראשון לציון,המפוחית,4.27,5183-73-41,5183/73,32314.410480349343,31.9650785318,34.7758868225,2024
2024-09-04,2024-04-09,"הרב מימון 4, ראשון לציון",הרב מימון 4,3929-1083-8,דירה בבית קומות,3.0,שניה,77.53,2390000,,,2007.0,,12.0,10425787512,1,39291083,False,196% ב 16.5 שנים,ראשון לציון,הרב מימון,11.88,3929-1083-8,3929/1083,30826.77673158777,31.9677389468,34.8039353757,2024
2024-09-04,2024-04-09,"קדוש השם 10, ראשון לציון",קדוש השם 10,3929-418-4,דירה בבית קומות,4.0,שניה,82.5,1740000,,,1980.0,,4.0,10425657312,1,3929418,False,247% ב 5 שנים,ראשון לציון,קידוש השם,49.4,3929-418-4,3929/418,21090.90909090909,31.968237426,34.8125679094,2024
2024-09-04,2024-04-09,"חיל הרגלים 2, ראשון לציון",חיל הרגלים 2,5031-2-24,דירה בבית קומות,3.5,שישית,70.0,2270000,,,1980.0,,7.0,10425531732,1,50312,False,69% ב 11.4 שנים,ראשון לציון,חיל הרגלים,6.05,5031-2-24,5031/2,32428.571428571428,31.9962571529,34.7418855417,2024
2024-09-04,2024-04-09,"חיל הרגלים 2, ראשון לציון",חיל הרגלים 2,5031-2-13,דירה בבית קומות,3.0,רביעית,70.0,2150000,,,1980.0,,7.0,10427628876,1,50312,False,,ראשון לציון,חיל הרגלים,,5031-2-13,5031/2,30714.285714285717,31.9962571529,34.7418855417,2024
2024-09-02,2024-02-09,"ה' באייר 43, ראשון לציון",ה' באייר 43,5748-9-11,דירה בבית קומות,3.0,שלוש עשרה,79.0,2585000,,,2016.0,,7.0,10421657316,1,57489,False,,ראשון לציון,ה' באייר,,5748-9-11,5748/9,32721.518987341773,31.9807410515,34.7823423567,2024
2024-09-02,2024-02-09,"הצופים 19, ראשון לציון",הצופים 19,3939-420-9,דירה בבית קומות,3.0,חמישית,73.3,2350000,,,2003.0,,9.0,10420043172,1,3939420,False,,ראשון לציון,הצופים,,3939-420-9,3939/420,32060.027285129607,31.9735317325,34.8168842456,2024
2024-09-02,2024-02-09,"קרית ספר 26, ראשון לציון",קרית ספר 26,3945-651-6,דירה בבית קומות,3.0,שניה,95.55,2435000,,,1970.0,,3.0,10419497172,1,3945651,False,,ראשון לציון,קרית ספר,,3945-651-6,3945/651,25484.039769754057,31.9659601587,34.7964882996,2024
2024-09-01,2024-01-09,"האחים אוסטשינסקי 25, ראשון לציון",האחים אוסטשינסקי 25,3925-478-25,דירה בבית קומות,4.0,שביעית,108.5,2150000,,,1985.0,,7.0,10416622440,1,3925478,False,212% ב 25 שנים,ראשון לציון,האחים אוסטשינסקי,8.48,3925-478-25,3925/478,19815.668202764977,31.9572083859,34.8032972246,2024
2024-09-01,2024-01-09,"קפלנסקי 9, ראשון לציון",קפלנסקי 9,3926-730-3,דירה בבית קומות,5.0,שניה,111.89,4300000,,,1980.0,,4.0,10416705600,1,3926730,False,,ראשון לציון,קפלנסקי,,3926-730-3,3926/730,38430.60148359997,31.9574252651,34.7998654908,2024
2024-09-01,2024-01-09,"הצבעוני 15, ראשון לציון",הצבעוני 15,5036-75-5,דירה בבית קומות,3.5,ראשונה,76.0,1990000,,,1990.0,,3.0,10416697284,1,503675,False,201% ב 16.4 שנים,ראשון לציון,הצבעוני,12.26,5036-75-5,5036/75,26184.21052631579,31.9723963891,34.7815977152,2024
2024-09-01,2024-01-09,"השומר 6, ראשון לציון",השומר 6,3930-390-19,דירה בבית קומות,4.0,חמישית,87.17,1960000,,,1970.0,,8.0,10419136056,1,3930390,False,84% ב 12.9 שנים,ראשון לציון,השומר,6.51,3930-390-19,3930/390,22484.799816450613,31.961846076,34.8161480493,2024
2024-09-01,2024-01-09,"האחים אוסטשינסקי 21, ראשון לציון",האחים אוסטשינסקי 21,3925-476-11,דירה בבית קומות,4.0,שלישית,107.6,2260000,,,1970.0,,7.0,10416649572,1,3925476,False,45% ב 8.1 שנים,ראשון לציון,האחים אוסטשינסקי,5.56,3925-476-11,3925/476,21003.71747211896,31.9573042319,34.8040437713,2024
2024-09-01,2024-01-09,"טיומקין 7, ראשון לציון",טיומקין 7,3925-469-18,דירה בבית קומות,4.0,קרקע,111.0,2475000,,,1970.0,2017.0,4.0,10418629452,1,3925469,False,12% ב 0.4 שנים,ראשון לציון,טיומקין,30.0,3925-469-18,3925/469,22297.297297297297,31.959016087,34.8037917347,2024
2024-08-29,2024-08-29,"הפרג 1, ראשון לציון",הפרג 1,5036-94-52,דירה בבית קומות,3.0,ראשונה,68.0,1880000,,,1980.0,,2.0,10439831304,1,503694,False,29% ב 3.6 שנים,ראשון לציון,הפרג,8.06,5036-94-52,5036/94,27647.058823529413,31.9712079112,34.781898617,2024
2024-08-28,2024-08-28,"שיבת ציון 10, ראשון לציון",שיבת ציון 10,3937-40-13,דירה בבית קומות,3.0,רביעית,69.44,1580000,,,1980.0,,4.0,10438872108,1,393740,False,150% ב 15.9 שנים,ראשון לציון,שיבת ציון,9.43,3937-40-13,3937/40,22753.45622119816,31.9610716035,34.8113986816,2024
2024-08-28,2024-08-28,"חיל הרגלים 21, ראשון לציון",חיל הרגלים 21,5031-5-42,דירה בבית קומות,4.0,שביעית,89.0,2500000,,,1970.0,2023.0,4.0,10439620548,1,50315,False,,ראשון לציון,חיל הרגלים,,5031-5-42,5031/5,28089.88764044944,31.9968560568,34.7427253786,2024
2024-08-27,2024-08-27,"תורה ועבודה 29, ראשון לציון",תורה ועבודה 29,7281-147-29,דירה בבית קומות,3.0,רביעית,39.6,1800000,,,1960.0,,4.0,10438377264,1,7281147,False,,ראשון לציון,תורה ועבודה,,7281-147-29,7281/147,45454.545454545456,31.9888185666,34.7864661046,2024
2024-08-27,2024-08-27,"הרימון 1, ראשון לציון",הרימון 1,3926-78-4,דירה בבית קומות,3.0,שניה,85.31,1980000,,,1960.0,,3.0,10438805580,1,392678,False,,ראשון לציון,הרימון,,3926-78-4,3926/78,23209.47133981948,31.9638320627,34.7981349867,2024
2024-08-26,2024-08-26,"חביב לובמן 17, ראשון לציון",חביב לובמן 17,3937-70-7,דירה בבית קומות,3.0,שלישית,56.73,1730000,,,1980.0,,4.0,10438485372,1,393770,False,,ראשון לציון,לובמן חביב,,3937-70-7,3937/70,30495.328750220346,31.9590006219,34.8092696531,2024
2024-08-26,2024-08-26,"שיבת ציון 10, ראשון לציון",שיבת ציון 10,3937-40-4,דירה בבית קומות,3.0,ראשונה,63.43,1800000,,,1980.0,,4.0,10439026668,1,393740,False,132% ב 15.3 שנים,ראשון לציון,שיבת ציון,8.63,3937-40-4,3937/40,28377.739240107207,31.9610716035,34.8113986816,2024
2024-08-25,2024-08-25,"הורוביץ 8, ראשון לציון",הורוביץ 8,3926-367-5,דירה בבית קומות,4.0,שניה,80.0,1985000,,,1974.0,,4.0,10438077300,1,3926367,False,,ראשון לציון,הורוביץ,,3926-367-5,3926/367,24812.5,31.9598483883,34.8001917047,2024
2024-08-25,2024-08-25,"טרכטנברג 13, ראשון לציון",טרכטנברג 13,3928-699-24,דירה בבית קומות,3.0,רביעית,62.5,1705000,,,1970.0,,4.0,10438101408,1,3928699,False,223% ב 24 שנים,ראשון לציון,טרכטנברג,9.29,3928-699-24,3928/699,27280.0,31.9728267509,34.8015704126,2024
2024-08-23,2024-08-23,"אחד העם 14, ראשון לציון",אחד העם 14,3935-43-8,דירה בבית קומות,4.0,ראשונה,67.0,2000000,,,1970.0,,6.0,10438084944,1,393543,False,12% ב 6.2 שנים,ראשון לציון,אחד העם,1.94,3935-43-8,3935/43,29850.74626865672,31.9626361667,34.807382551,2024
2024-08-22,2024-08-22,,,6286-321-26,דירה בבית קומות,5.0,תשיעית,121.0,3837000,,,2027.0,,,10440945564,2,6286321,False,,ראשון לציון,ההתיישבות,,6286-321-26,6286/321,31710.74380165289,31.9689374466,34.8253099641,2024
2024-08-21,2024-08-21,"הרב הרצוג 2, ראשון לציון",הרב הרצוג 2,3929-1115-8,דירה בבית קומות,4.0,שניה,77.89,2130000,,,1960.0,2021.0,4.0,10439022468,1,39291115,False,,ראשון לציון,הרב הרצוג,,3929-1115-8,3929/1115,27346.257542688407,31.9670191232,34.804109331,2024
2024-08-21,2024-08-21,,,6286-321-21,,5.0,שלישית,122.0,3820000,1.0,,,,,11181271034,2,6286321,False,,ראשון לציון,ההתיישבות,,6286-321-21,6286/321,31311.475409836065,31.9689374466,34.8253099641,2024
2024-08-21,2024-08-21,"יהודה 6, ראשון לציון",יהודה 6,3932-343-4,דירה בבית קומות,4.0,שלישית,98.0,2802000,,,2023.0,,2.0,10438980888,1,3932343,False,,ראשון לציון,יהודה,,3932-343-4,3932/343,28591.83673469388,31.965130792,34.8087250196,2024
2024-08-19,2024-08-19,"ז'בוטינסקי 90, ראשון לציון",ז'בוטינסקי 90,3928-746-11,דירה בבית קומות,4.0,שלישית,72.35,2050000,,,1982.0,,5.0,10437596232,1,3928746,False,95% ב 15.9 שנים,ראשון לציון,ז'בוטינסקי,5.97,3928-746-11,3928/746,28334.485141672427,31.9721149684,34.798412265,2024
2024-08-19,2024-08-19,"מורשת ישראל 9, ראשון לציון",מורשת ישראל 9,5114-45-17,דירה בבית קומות,4.0,חמישית,81.7,2440000,,,1998.0,,8.0,10438885884,1,511445,False,228% ב 19.6 שנים,ראשון לציון,מורשת ישראל,11.63,5114-45-17,5114/45,29865.36107711138,31.9749253722,34.7721376068,2024
2024-08-19,2024-08-19,"שיבת ציון 3, ראשון לציון",שיבת ציון 3,3937-50-5,דירה בבית קומות,3.5,שניה,79.9,1800000,,,1980.0,,4.0,10437629496,1,393750,False,,ראשון לציון,שיבת ציון,,3937-50-5,3937/50,22528.16020025031,31.9618731109,34.8120678238,2024
2024-08-18,2024-08-18,"שלמה אלירז 1, ראשון לציון",שלמה אלירז 1,3930-131-506,דירה בבית קומות,5.0,עשרים וארבע,183.0,4700000,,,2018.0,,24.0,10437943404,1,3930131,False,,ראשון לציון,אלירז שלמה,,3930-131-506,3930/131,25683.060109289618,31.9660405558,34.818461625,2024
2024-08-18,2024-08-18,"ז'בוטינסקי 37, ראשון לציון",ז'בוטינסקי 37,3926-306-18,דירה בבית קומות,3.0,שלישית,58.03,1880000,,,1970.0,,4.0,10437608076,1,3926306,False,91% ב 10.4 שנים,ראשון לציון,ז'בוטינסקי,8.75,3926-306-18,3926/306,32397.036015853868,31.9624781458,34.7999111343,2024
2024-08-18,2024-08-18,,,6286-321-27,דירה בבית קומות,5.0,רביעית,121.0,3867000,,,2027.0,,,10440541440,2,6286321,False,158% ב 7.7 שנים,ראשון לציון,ההתיישבות,20.52,6286-321-27,6286/321,31958.677685950413,31.9689374466,34.8253099641,2024
2024-08-18,2024-08-18,"יהודה הלוי 52, ראשון לציון",יהודה הלוי 52,3930-152-1,דירה בבית קומות,3.0,ראשונה,62.1,1700000,,,1960.0,,3.0,10437478464,1,3930152,False,,ראשון לציון,יהודה הלוי,,3930-152-1,3930/152,27375.201288244767,31.9670903728,34.8127189285,2024
2024-08-18,2024-08-18,"הקוקייה 2, ראשון לציון",הקוקייה 2,6287-153-10,דירה בבית קומות,3.0,שלישית,65.6,2120000,,,1993.0,,9.0,10439543520,1,6287153,False,92% ב 7.5 שנים,ראשון לציון,הקוקיה,12.27,6287-153-10,6287/153,32317.07317073171,31.9619297943,34.8191446418,2024
2024-08-18,2024-08-18,"צ""ג בנות 13, ראשון לציון","צ""ג בנות 13",3929-687-18,דירה בבית קומות,5.0,קרקע,213.0,3500000,,,1960.0,2026.0,4.0,10439870028,1,3929687,False,,ראשון לציון,"צ""ג בנות",,3929-687-18,3929/687,16431.924882629108,31.9699145005,34.8096074626,2024
2024-08-17,2024-08-17,,,6286-321-20,,5.0,רביעית,122.0,3850000,1.0,,,,,11181271033,2,6286321,False,,ראשון לציון,ההתיישבות,,6286-321-20,6286/321,31557.37704918033,31.9689374466,34.8253099641,2024
2024-08-17,2024-08-17,"הירדן 3, ראשון לציון",הירדן 3,3923-465-8,,4.0,,110.0,3220000,1.0,,2025.0,,1.0,11181234917,1,3923465,False,,ראשון לציון,הירדן,,3923-465-8,3923/465,29272.727272727272,31.9628061374,34.7906568362,2024
2024-08-15,2024-08-15,"ש""י עגנון 5, ראשון לציון","ש""י עגנון 5",7281-96-18,דירה בבית קומות,3.0,שלישית,36.0,2180000,,,1960.0,,3.0,10437392532,1,728196,False,142% ב 8.1 שנים,ראשון לציון,"עגנון ש""י",17.53,7281-96-18,7281/96,60555.55555555556,31.9852523838,34.7908032306,2024
2024-08-15,2024-08-15,"האבות 20, ראשון לציון",האבות 20,3930-432-2,דירה בבית קומות,4.0,ראשונה,76.93,1700000,,,1980.0,,8.0,10439008020,1,3930432,False,,ראשון לציון,האבות,,3930-432-2,3930/432,22098.01117899389,31.9608304769,34.8151380874,2024
2024-08-15,2024-08-15,"חלץ 7, ראשון לציון",חלץ 7,3945-77-18,דירה בבית קומות,3.0,שניה,72.57,1990000,,,1970.0,,3.0,10438073772,1,394577,False,,ראשון לציון,חלץ,,3945-77-18,3945/77,27421.799641725236,31.9647875792,34.794687834,2024
2024-08-15,2024-08-15,"הרותם 19, ראשון לציון",הרותם 19,5036-30-14,דירה בבית קומות,3.0,ראשונה,62.1,1700000,,,1990.0,,3.0,10438955268,1,503630,False,,ראשון לציון,הרותם,,5036-30-14,5036/30,27375.201288244767,31.9744177367,34.7828804683,2024
2024-08-15,2024-08-15,"יהודה 6, ראשון לציון",יהודה 6,3932-343-5,דירה בבית קומות,5.0,שישית,145.0,3702000,,,2023.0,,2.0,10438956612,1,3932343,False,,ראשון לציון,יהודה,,3932-343-5,3932/343,25531.03448275862,31.965130792,34.8087250196,2024
2024-08-15,2024-08-15,"התזמורת 12, ראשון לציון",התזמורת 12,5182-21-17,דירה בבית קומות,3.0,חמישית,69.3,2200000,,,1997.0,,6.0,10437497952,1,518221,False,187% ב 21.3 שנים,ראשון לציון,התזמורת,8.78,5182-21-17,5182/21,31746.031746031746,31.967587613,34.7744093668,2024
2024-08-15,2024-08-15,"הקוקייה 44, ראשון לציון",הקוקייה 44,6287-221-21,דירה בבית קומות,5.0,שישית,131.5,3050000,,,1995.0,,9.0,10437851928,1,6287221,False,117% ב 15 שנים,ראשון לציון,הקוקיה,7.8,6287-221-21,6287/221,23193.91634980989,31.9576798717,34.8158493995,2024
2024-08-15,2024-08-15,"ויצמן 19, ראשון לציון",ויצמן 19,3928-285-1,דירה בבית קומות,4.0,ראשונה,78.26,2183000,,,1980.0,,7.0,10437899136,1,3928285,False,44% ב 8.7 שנים,ראשון לציון,ויצמן,5.06,3928-285-1,3928/285,27894.19882443138,31.9716189966,34.8044276798,2024
2024-08-15,2024-08-15,,,6286-321-28,דירה בבית קומות,5.0,שניה,121.0,3717000,,,2027.0,,,10440297588,2,6286321,False,,ראשון לציון,ההתיישבות,,6286-321-28,6286/321,30719.00826446281,31.9689374466,34.8253099641,2024
2024-08-14,2024-08-14,"הפרדס הראשון 1, ראשון לציון",הפרדס הראשון 1,3945-835-36,דירה בבית קומות,4.0,תשיעית,98.5,2450000,,,1997.0,,13.0,10437182448,1,3945835,False,,ראשון לציון,הפרדס הראשון,,3945-835-36,3945/835,24873.096446700507,31.9651153522,34.7905978826,2024
2024-08-14,2024-08-14,"שלמה אלירז 1, ראשון לציון",שלמה אלירז 1,3930-131-505,דירה בבית קומות,3.0,חמישית,86.0,2330000,,,2018.0,,24.0,10437506772,1,3930131,False,,ראשון לציון,אלירז שלמה,,3930-131-505,3930/131,27093.023255813958,31.9660405558,34.818461625,2024
2024-08-14,2024-08-14,,,6286-321-29,דירה בבית קומות,6.0,שניה,134.0,4267000,,,2027.0,,,10439662800,2,6286321,False,,ראשון לציון,ההתיישבות,,6286-321-29,6286/321,31843.283582089556,31.9689374466,34.8253099641,2024
2024-08-14,2024-08-14,,,6286-321-15,,5.0,שניה,122.0,3700000,1.0,,,,,11181271027,2,6286321,False,,ראשון לציון,ההתיישבות,,6286-321-15,6286/321,30327.868852459014,31.9689374466,34.8253099641,2024
2024-08-14,2024-08-14,"התזמורת 40, ראשון לציון",התזמורת 40,5183-39-32,דירה בבית קומות,4.5,שמינית,90.24,3100000,,,1997.0,,12.0,10437349440,1,518339,False,80% ב 12.1 שנים,ראשון לציון,התזמורת,6.61,5183-39-32,5183/39,34352.83687943262,31.9643492875,34.7736652862,2024
2024-08-13,2024-08-13,"חנה סנש 3, ראשון לציון",חנה סנש 3,7281-55-30,דירה בבית קומות,2.5,שלישית,35.2,1860000,,,1960.0,,4.0,10437163800,1,728155,False,215% ב 10.1 שנים,ראשון לציון,סנש חנה,21.29,7281-55-30,7281/55,52840.90909090909,31.9874258488,34.7884523041,2024
2024-08-09,2024-09-08,"חיל הרגלים 21, ראשון לציון",חיל הרגלים 21,5031-5-41,דירה בבית קומות,4.0,חמישית,94.0,2535000,,,1970.0,2023.0,4.0,10440017028,1,50315,False,,ראשון לציון,חיל הרגלים,,5031-5-41,5031/5,26968.08510638298,31.9968560568,34.7427253786,2024
2024-08-09,2024-09-08,"עין הקורא 32, ראשון לציון",עין הקורא 32,3928-300-3,דירה בבית קומות,4.0,ראשונה,79.87,2100000,,,1970.0,,4.0,10440888024,1,3928300,False,47% ב 9.5 שנים,ראשון לציון,עין הקורא,4.95,3928-300-3,3928/300,26292.725679228744,31.9659680246,34.8008392016,2024
2024-08-08,2024-08-08,"לבונטין 30, ראשון לציון",לבונטין 30,3937-28-11,דירה בבית קומות,6.5,רביעית + חמישית,143.09,3030000,,,1982.0,,5.0,10436805540,1,393728,False,79% ב 11 שנים,ראשון לציון,לבונטין,7.18,3937-28-11,3937/28,21175.48396114333,31.9608417958,34.8104131584,2024
2024-08-07,2024-07-08,"מרדכי פופל 4, ראשון לציון",מרדכי פופל 4,3939-288-6,דירה בבית קומות,4.5,שניה,103.7,2205000,,,1970.0,,9.0,10433571120,1,3939288,False,76% ב 9 שנים,ראשון לציון,פופל מרדכי,8.44,3939-288-6,3939/288,21263.259402121505,31.9700699166,34.8139875503,2024
2024-08-07,2024-07-08,"צבי מילר 30, ראשון לציון",צבי מילר 30,3628-326-1,קרקע למגורים,,,447.0,4200000,,,,,,10435989900,1,3628326,False,,ראשון לציון,מילר צבי,,3628-326-1,3628/326,9395.973154362417,31.973595241,34.8036704217,2024
2024-08-07,2024-07-08,"נתן ברניצקי 9, ראשון לציון",נתן ברניצקי 9,3926-887-16,דירה בבית קומות,4.0,שביעית,95.0,3446000,,,1970.0,2027.0,5.0,10434501168,1,3926887,False,,ראשון לציון,ברניצקי נתן,,3926-887-16,3926/887,36273.68421052631,31.9587712987,34.8000092844,2024
2024-08-07,2024-07-08,"רש""י 44, ראשון לציון","רש""י 44",3930-201-17,דירה בבית קומות,4.0,חמישית,92.0,2320000,,,1970.0,,4.0,10434418680,1,3930201,False,,ראשון לציון,"רש""י",,3930-201-17,3930/201,25217.391304347828,31.9669263735,34.8158986234,2024
2024-08-07,2024-07-08,"חיל הרגלים 21, ראשון לציון",חיל הרגלים 21,5031-5-43,דירה בבית קומות,4.0,שישית,91.0,2600000,,,1970.0,2023.0,4.0,10434474960,1,50315,False,,ראשון לציון,חיל הרגלים,,5031-5-43,5031/5,28571.42857142857,31.9968560568,34.7427253786,2024
2024-08-07,2024-07-08,"אהרון קרון 27, ראשון לציון",אהרון קרון 27,3925-226-5,דירה בבית קומות,3.0,שניה,67.74,1790000,,,1970.0,,4.0,10435111764,1,3925226,False,,ראשון לציון,קרון אהרון,,3925-226-5,3925/226,26424.564511366996,31.9579530122,34.8048394001,2024
2024-08-06,2024-06-08,,,3930-457-2,,4.0,שלוש עשרה,105.0,2720000,1.0,,,,,11181235840,2,3930457,False,,ראשון לציון,"חי""ש",,3930-457-2,3930/457,25904.761904761905,31.9668800649,34.8174788046,2024
2024-08-05,2024-05-08,"הבוצרים 24, ראשון לציון",הבוצרים 24,5039-49-51,דירה בבית קומות,6.0,"חמישית, שישית, שביעית",153.6,4000000,,,1995.0,,5.0,10427817960,1,503949,False,,ראשון לציון,הבוצרים,,5039-49-51,5039/49,26041.666666666668,31.9710542424,34.779423338,2024
2024-08-05,2024-05-08,"בית יוסף 3, ראשון לציון",בית יוסף 3,3930-229-4,דירה בבית קומות,4.0,שניה,77.55,1840000,,,1980.0,,8.0,10428469464,1,3930229,False,187% ב 16 שנים,ראשון לציון,בית יוסף,11.69,3930-229-4,3930/229,23726.62798194713,31.9644562407,34.8144541775,2024
2024-08-04,2024-04-08,"טרומפלדור 2, ראשון לציון",טרומפלדור 2,3928-137-21,דירה בבית קומות,3.0,חמישית,73.55,1580000,,,1970.0,,7.0,10426262868,1,3928137,False,,ראשון לציון,טרומפלדור,,3928-137-21,3928/137,21481.98504418763,31.9668448777,34.8021477999,2024
2024-08-04,2024-04-08,"ברנדיס 20, ראשון לציון",ברנדיס 20,3929-997-10,דירה בבית קומות,3.5,רביעית,74.75,1775000,,,1970.0,,4.0,10425461088,1,3929997,False,39% ב 5.2 שנים,ראשון לציון,ברנדיס,7.5,3929-997-10,3929/997,23745.81939799331,31.9716748931,34.8081459963,2024
2024-08-04,2024-04-08,"ז'בוטינסקי 90, ראשון לציון",ז'בוטינסקי 90,3928-746-15,דירה בבית קומות,4.0,רביעית,72.35,3000000,,,1982.0,,5.0,10425424296,1,3928746,False,,ראשון לציון,ז'בוטינסקי,,3928-746-15,3928/746,41465.10020732551,31.9721149684,34.798412265,2024
2024-08-04,2024-04-08,"אברהם ברד 4, ראשון לציון",אברהם ברד 4,3926-607-6,דירה בבית קומות,3.0,שניה,63.4,1770000,,,1970.0,,4.0,10426894884,1,3926607,False,,ראשון לציון,ברד אברהם,,3926-607-6,3926/607,27917.981072555205,31.9596621628,34.796989003,2024
2024-08-04,2024-04-08,"הצופים 4, ראשון לציון",הצופים 4,3939-440-13,דירה בבית קומות,4.0,רביעית,105.01,2620000,,,2001.0,,10.0,10426289160,1,3939440,False,72% ב 11.4 שנים,ראשון לציון,הצופים,6.32,3939-440-13,3939/440,24950.004761451288,31.9739064971,34.81401327,2024
2024-08-04,2024-04-08,,,6286-321-45,,5.0,שלישית,134.0,4048000,,,2027.0,,,10427598888,2,6286321,False,,ראשון לציון,ההתיישבות,,6286-321-45,6286/321,30208.955223880595,31.9689374466,34.8253099641,2024
2024-08-04,2024-04-08,"קפלנסקי 30, ראשון לציון",קפלנסקי 30,3926-674-11,דירה בבית קומות,3.0,שלישית,65.0,1950000,,,1970.0,,5.0,10425431940,1,3926674,False,77% ב 9.3 שנים,ראשון לציון,קפלנסקי,8.28,3926-674-11,3926/674,30000.0,31.9580977874,34.797379268,2024
2024-08-03,2024-03-08,"הרשב""א 6, ראשון לציון","הרשב""א 6",5115-32-14,דירה בבית קומות,4.0,שלישית,112.93,2730000,,,1997.0,,11.0,10422618444,1,511532,False,,ראשון לציון,"הרשב""א",,5115-32-14,5115/32,24174.267245196137,31.9778104248,34.7751227102,2024
2024-08-02,2024-02-08,"מעגל השלום 25, ראשון לציון",מעגל השלום 25,5096-3-78,דירה בבית קומות,4.0,שביעית,94.0,3015000,,,2002.0,,13.0,10419528924,1,50963,False,109% ב 15.5 שנים,ראשון לציון,מעגל השלום,7.03,5096-3-78,5096/3,32074.468085106382,31.9701584077,34.7633743729,2024
2024-08-02,2024-02-08,"הורוביץ 23, ראשון לציון",הורוביץ 23,3926-612-11,דירה בבית קומות,3.0,שניה,66.53,1720000,,,1970.0,,3.0,10419881640,1,3926612,False,198% ב 17 שנים,ראשון לציון,הורוביץ,11.65,3926-612-11,3926/612,25852.998647226814,31.9596544153,34.7984450626,2024
2024-08-02,2024-02-08,"ריב""ל 8, ראשון לציון","ריב""ל 8",5114-37-117,דירה בבית קומות,3.5,שביעית,94.0,2400000,,,1998.0,,11.0,10419931032,1,511437,False,29% ב 3.1 שנים,ראשון לציון,"ריב""ל",9.35,5114-37-117,5114/37,25531.91489361702,31.9754918957,34.7720303753,2024
2024-08-02,2024-02-08,"היצהר 3, ראשון לציון",היצהר 3,5038-11-64,דירה בבית קומות,3.0,שלישית,82.3,2270000,,,1994.0,,9.0,10419463236,1,503811,False,15% ב 2 שנים,ראשון לציון,היצהר,7.5,5038-11-64,5038/11,27582.017010935604,31.9763473863,34.7782140826,2024
2024-08-02,2024-02-08,"היצהר 9, ראשון לציון",היצהר 9,5038-11-24,דירה בבית קומות,4.0,שישית,85.1,2440000,,,1996.0,,6.0,10419475668,1,503811,False,,ראשון לציון,היצהר,,5038-11-24,5038/11,28672.150411280847,31.9763473863,34.7782140826,2024
2024-08-02,2024-02-08,"מרדכי פופל 12, ראשון לציון",מרדכי פופל 12,3939-285-19,דירה בבית קומות,5.0,חמישית,99.6,2119000,,,1970.0,,8.0,10420472160,1,3939285,False,,ראשון לציון,פופל מרדכי,,3939-285-19,3939/285,21275.100401606425,31.9696963177,34.8149515252,2024
2024-08-02,2024-02-08,"אז""ר 4, ראשון לציון","אז""ר 4",3934-116-5,דירה בבית קומות,3.0,שניה,76.81,2125000,,,1950.0,,3.0,10420538016,1,3934116,False,84% ב 8 שנים,ראשון לציון,"אז""ר",10.5,3934-116-5,3934/116,27665.668532743133,31.9645242969,34.8004843999,2024
2024-08-02,2024-02-08,"הלוטם 8, ראשון לציון",הלוטם 8,5036-110-4,דירה בבית קומות,3.0,ראשונה,62.3,1850000,,,1990.0,,,10419619056,1,5036110,False,73% ב 9.7 שנים,ראשון לציון,הלוטם,7.53,5036-110-4,5036/110,29695.02407704655,31.969710634,34.7841488144,2024
2024-08-02,2024-02-08,"חי""ש 2, ראשון לציון","חי""ש 2",3930-456-34,דירה בבית קומות,5.0,עשרים ושש,118.0,3295000,,,2025.0,,3.0,10422268584,1,3930456,False,,ראשון לציון,"חי""ש",,3930-456-34,3930/456,27923.728813559323,31.9671298113,34.8174523646,2024
2024-08-02,2024-02-08,"הרצל 116, ראשון לציון",הרצל 116,3925-438-11,דירה בבית קומות,2.0,קרקע,56.93,1650000,,,1960.0,,3.0,10420010076,1,3925438,False,,ראשון לציון,הרצל,,3925-438-11,3925/438,28982.961531705605,31.9599848127,34.8022109504,2024
2024-08-02,2024-02-08,"אריאב חיים 5, ראשון לציון",אריאב חיים 5,7281-151-22,דירה בבית קומות,3.0,שלישית,39.6,1760000,,,1970.0,,4.0,10420262244,1,7281151,False,,ראשון לציון,אריאב חיים,,7281-151-22,7281/151,44444.444444444445,31.9874152536,34.7856379024,2024
2024-08-02,2024-02-08,"הרב זינגר 7, ראשון לציון",הרב זינגר 7,3935-75-9,דירה בבית קומות,4.0,חמישית,77.48,2000000,,,1970.0,,7.0,10419683568,1,393575,False,,ראשון לציון,הרב זינגר,,3935-75-9,3935/75,25813.113061435208,31.9633802282,34.8063900659,2024
2024-08-02,2024-02-08,"השומר 4, ראשון לציון",השומר 4,3930-389-15,דירה בבית קומות,4.0,רביעית,90.79,2100000,,,1987.0,,7.0,10422078576,1,3930389,False,81% ב 13.2 שנים,ראשון לציון,השומר,6.14,3930-389-15,3930/389,23130.30069390902,31.9620761327,34.81643734,2024
2024-08-02,2024-02-08,"יונה בוגלה 13, ראשון לציון",יונה בוגלה 13,4246-195-21,דירה בבית קומות,3.0,ראשונה,62.0,2150000,,,2018.0,,3.0,10419962784,1,4246195,False,,ראשון לציון,בוגלה יונה,,4246-195-21,4246/195,34677.41935483871,31.9460023406,34.8210095294,2024
2024-08-02,2024-02-08,"פרופ' נחום 8, ראשון לציון",פרופ' נחום 8,3945-219-9,דירה בבית קומות,3.0,שלישית,62.01,1837000,,,1971.0,,3.0,10420022508,1,3945219,False,,ראשון לציון,פרופ' נחום,,3945-219-9,3945/219,29624.25415255604,31.9677442163,34.7970817665,2024
2024-08-02,2024-02-08,"שיבת ציון 10, ראשון לציון",שיבת ציון 10,3937-40-11,דירה בבית קומות,3.0,שלישית,63.39,1700000,,,1980.0,,4.0,10419508260,1,393740,False,288% ב 18.3 שנים,ראשון לציון,שיבת ציון,15.74,3937-40-11,3937/40,26818.110112005048,31.9610716035,34.8113986816,2024
2024-08-01,2024-01-08,"מבצע נחשון 3, ראשון לציון",מבצע נחשון 3,5384-57-16,דירה בבית קומות,3.0,רביעית,75.6,2100000,,,2000.0,,9.0,10416892080,1,538457,False,,ראשון לציון,מבצע נחשון,,5384-57-16,5384/57,27777.77777777778,31.9803485546,34.7812614982,2024
2024-08-01,2024-01-08,"קשת 2, ראשון לציון",קשת 2,5436-172-2,קוטג' דו משפחתי,6.0,ראשונה,251.0,784000,,,2009.0,,1.0,10416783972,1,5436172,False,,ראשון לציון,קשת,,5436-172-2,5436/172,3123.5059760956174,31.9833157828,34.7648212531,2024
2024-08-01,2024-01-08,"צייטלין 8, ראשון לציון",צייטלין 8,7281-71-16,דירה בבית קומות,4.0,שניה,94.0,1920000,,,1960.0,,3.0,10416844956,1,728171,False,,ראשון לציון,צייטלין,,7281-71-16,7281/71,20425.531914893618,31.9850991892,34.789359194,2024
2024-08-01,2024-01-08,"הצופים 16, ראשון לציון",הצופים 16,3939-434-14,דירה בבית קומות,4.0,רביעית,95.86,2500000,,,2004.0,,9.0,10417298808,1,3939434,False,36% ב 7.7 שנים,ראשון לציון,הצופים,4.68,3939-434-14,3939/434,26079.69956186105,31.9730186114,34.8165489811,2024
2024-07-31,2024-07-31,"יונה בוגלה 13, ראשון לציון",יונה בוגלה 13,4246-195-22,דירה בבית קומות,3.0,שניה,65.0,2300000,,,2018.0,,3.0,10436072388,1,4246195,False,,ראשון לציון,בוגלה יונה,,4246-195-22,4246/195,35384.61538461538,31.9460023406,34.8210095294,2024
2024-07-31,2024-07-31,"הגלים 10, ראשון לציון",הגלים 10,6823-181-47,דירה בבית קומות,3.5,שלישית,76.63,2250000,,,1996.0,,9.0,10438378608,1,6823181,False,39% ב 4.3 שנים,ראשון לציון,הגלים,9.07,6823-181-47,6823/181,29361.868719822527,31.9871100213,34.7849082406,2024
2024-07-31,2024-07-31,"טוליפמן 1, ראשון לציון",טוליפמן 1,3942-165-70,,1.0,שניה,54.0,856867,1.0,,,,7.0,11181236164,1,3942165,False,,ראשון לציון,טוליפמן,,3942-165-70,3942/165,15867.907407407409,31.9835847225,34.8115140392,2024
2024-07-31,2024-07-31,"התומר 4, ראשון לציון",התומר 4,3926-1313-6,דירה בבית קומות,3.0,שלישית,69.08,2158000,,,2008.0,,4.0,10436616960,1,39261313,False,,ראשון לציון,התומר,,3926-1313-6,3926/1313,31239.143022582517,31.9630883021,34.7996559053,2024
2024-07-31,2024-07-31,"ויתקין 8, ראשון לציון",ויתקין 8,3929-694-20,דירה בבית קומות,4.0,שישית,127.0,2600000,,,1970.0,2020.0,4.0,10438068984,1,3929694,False,,ראשון לציון,ויתקין,,3929-694-20,3929/694,20472.44094488189,31.9689929661,34.8053356072,2024
2024-07-30,2024-07-30,"הרשב""א 2, ראשון לציון","הרשב""א 2",5115-79-15,דירה בבית קומות,3.0,רביעית,65.4,2270000,,,1995.0,,7.0,10436860980,1,511579,False,90% ב 13.3 שנים,ראשון לציון,"הרשב""א",6.77,5115-79-15,5115/79,34709.48012232416,31.9778447714,34.774623698,2024
2024-07-30,2024-07-30,"השחר 4, ראשון לציון",השחר 4,3945-231-5,דירה בבית קומות,2.0,ראשונה,62.78,1820000,,,1970.0,,3.0,10436016192,1,3945231,False,45% ב 8.8 שנים,ראשון לציון,השחר,5.11,3945-231-5,3945/231,28990.12424338961,31.9677717356,34.7961871931,2024
2024-07-30,2024-07-30,,,6286-321-32,דירה בבית קומות,4.0,רביעית,94.0,3346000,,,2027.0,,,10438207500,2,6286321,False,,ראשון לציון,ההתיישבות,,6286-321-32,6286/321,35595.744680851065,31.9689374466,34.8253099641,2024
2024-07-29,2024-07-29,"רמב""ם 49, ראשון לציון","רמב""ם 49",3930-362-1,דירה בבית קומות,4.0,ראשונה,90.61,1800000,,,1990.0,,5.0,10435864320,1,3930362,False,,ראשון לציון,"רמב""ם",,3930-362-1,3930/362,19865.35702461097,31.9654524593,34.8160601889,2024
2024-07-29,2024-07-29,"לילינבלום 3, ראשון לציון",לילינבלום 3,3945-221-3,דירה בבית קומות,4.0,שניה,79.61,2300000,,,1987.0,,4.0,10436112540,1,3945221,False,226% ב 17.5 שנים,ראשון לציון,לילינבלום,12.91,3945-221-3,3945/221,28890.84285893732,31.9677313083,34.7973345369,2024
2024-07-29,2024-07-29,"יהושע גיבשטיין 21, ראשון לציון",יהושע גיבשטיין 21,6288-104-2,דירה בבית קומות,3.0,ראשונה,68.39,1950000,,,1990.0,,3.0,10437289884,1,6288104,False,38% ב 8 שנים,ראשון לציון,גיבשטיין יהושע,4.75,6288-104-2,6288/104,28512.94048837549,31.9530254293,34.8117227303,2024
2024-07-28,2024-07-28,"אליעזר בלבן 8, ראשון לציון",אליעזר בלבן 8,3939-501-96,דירה בבית קומות,4.0,קומה ‎5‏,88.17,2530000,,,2000.0,,12.0,10436178396,1,3939501,False,,ראשון לציון,בלבן אליעזר,,3939-501-96,3939/501,28694.56731314506,31.9719751771,34.8110256684,2024
2024-07-28,2024-07-28,"הירשפלד 2, ראשון לציון",הירשפלד 2,3926-1365-7,דירה בבית קומות,3.0,שניה,61.2,2200000,,,1970.0,2014.0,3.0,10436422248,1,39261365,False,84% ב 8.6 שנים,ראשון לציון,הירשפלד,9.77,3926-1365-7,3926/1365,35947.71241830065,31.9583756417,34.8010019088,2024
2024-07-27,2024-07-27,,,6286-321-23,,6.0,שמינית,168.0,6350000,1.0,,,,,11181271036,2,6286321,False,,ראשון לציון,ההתיישבות,,6286-321-23,6286/321,37797.619047619046,31.9689374466,34.8253099641,2024
2024-07-26,2024-07-26,"היקב 9, ראשון לציון",היקב 9,5039-7-36,דירה בבית קומות,4.0,רביעית,82.3,2571000,,,1999.0,,6.0,10436111196,1,50397,False,,ראשון לציון,היקב,,5039-7-36,5039/7,31239.36816524909,31.9727224107,34.7779591393,2024
2024-07-25,2024-07-25,"שינקין 3, ראשון לציון",שינקין 3,3928-244-5,דירה בבית קומות,4.0,שלישית,78.59,1960000,,,1970.0,,4.0,10435521432,1,3928244,False,32% ב 7 שנים,ראשון לציון,שינקין,4.57,3928-244-5,3928/244,24939.55974042499,31.9705238773,34.8002036329,2024
2024-07-25,2024-07-25,"החליל 20, ראשון לציון",החליל 20,5183-20-10,דירה בבית קומות,3.0,שניה,65.69,2075000,,,1998.0,,2.0,10436162436,1,518320,False,31% ב 5.4 שנים,ראשון לציון,החליל,5.74,5183-20-10,5183/20,31587.760694169585,31.9615004449,34.774092934,2024
2024-07-25,2024-07-25,"אוסישקין 18, ראשון לציון",אוסישקין 18,3928-489-14,דירה בבית קומות,3.0,שלישית,55.51,1500000,,,1960.0,,3.0,10436981520,1,3928489,False,118% ב 16 שנים,ראשון לציון,אוסישקין,7.38,3928-489-14,3928/489,27022.158169699152,31.9702901907,34.8038219408,2024
2024-07-25,2024-07-25,"בית יוסף 4, ראשון לציון",בית יוסף 4,3930-226-3,דירה בבית קומות,3.0,ראשונה,61.51,1845000,,,1970.0,,4.0,10436238792,1,3930226,False,,ראשון לציון,בית יוסף,,3930-226-3,3930/226,29995.122744269225,31.9643809895,34.8139984382,2024
2024-07-25,2024-07-25,"יוחנן הסנדלר 21, ראשון לציון",יוחנן הסנדלר 21,3929-1141-1,דירה בבית קומות,4.0,שניה,79.0,2275000,,,2023.0,,,10436046600,1,39291141,False,,ראשון לציון,יוחנן הסנדלר,,3929-1141-1,3929/1141,28797.46835443038,31.9689479187,34.8134781567,2024
2024-07-25,2024-07-25,"אנילביץ 18, ראשון לציון",אנילביץ 18,7282-6-10,דירה בבית קומות,3.0,שניה,64.6,2400000,,,1960.0,,3.0,10435479180,1,72826,False,,ראשון לציון,אנילביץ,,7282-6-10,7282/6,37151.70278637771,31.9840971397,34.7901999984,2024
2024-07-25,2024-07-25,"גבעתי 20, ראשון לציון",גבעתי 20,3930-424-32,דירה בבית קומות,4.0,רביעית,96.0,2225000,,,1991.0,,7.0,10435608792,1,3930424,False,108% ב 14.6 שנים,ראשון לציון,גבעתי,7.4,3930-424-32,3930/424,23177.08333333333,31.9646705161,34.8167532395,2024
2024-07-25,2024-07-25,"התורמוס 10, ראשון לציון",התורמוס 10,5036-156-27,דירה בבית קומות,4.0,שביעית,92.6,2775000,,,2008.0,,9.0,10435468680,1,5036156,False,137% ב 15.3 שנים,ראשון לציון,התורמוס,8.95,5036-156-27,5036/156,29967.60259179266,31.975264993,34.7859848636,2024
2024-07-24,2024-07-24,"העסיס 32, ראשון לציון",העסיס 32,5038-9-29,דירה בבית קומות,4.0,שניה,95.1,2663000,,,1995.0,,6.0,10436940612,1,50389,False,,ראשון לציון,העסיס,,5038-9-29,5038/9,28002.103049421665,31.9768560702,34.7797583,2024
2024-07-24,2024-07-24,"ברנדייס 16, ראשון לציון",ברנדייס 16,3929-998-14,מחסנים,,ראשונה,,70000,,,1970.0,2022.0,5.0,10435896240,1,3929998,False,,ראשון לציון,ברנדיס,,3929-998-14,3929/998,,31.9714883459,34.8081486341,2024
2024-07-23,2024-07-23,"יוני צבי פינשטיין 7, ראשון לציון",יוני צבי פינשטיין 7,6288-109-104,דירה בבית קומות,4.0,שמינית,78.29,2150000,,,1993.0,,9.0,10435771500,1,6288109,False,31% ב 6.1 שנים,ראשון לציון,פינשטיין יונה צבי,5.08,6288-109-104,6288/109,27462.000255460465,31.9535369919,34.8135725855,2024
2024-07-23,2024-07-23,"דוד המלך 8, ראשון לציון",דוד המלך 8,5025-111-1,קוטג' חד משפחתי,5.0,ראשונה,110.0,4250000,,,1930.0,,1.0,10435212396,1,5025111,False,,ראשון לציון,דוד המלך,,5025-111-1,5025/111,38636.36363636364,31.9786559049,34.7901744586,2024
2024-07-23,2024-07-23,,,6286-321-33,דירה בבית קומות,6.0,ראשונה,134.0,3968000,,,2027.0,,,10437569940,2,6286321,False,,ראשון לציון,ההתיישבות,,6286-321-33,6286/321,29611.940298507463,31.9689374466,34.8253099641,2024
2024-07-22,2024-07-22,,,6286-321-22,,6.0,ראשונה,135.0,3950000,1.0,,,,,11181271035,2,6286321,False,,ראשון לציון,ההתיישבות,,6286-321-22,6286/321,29259.25925925926,31.9689374466,34.8253099641,2024
2024-07-22,2024-07-22,"דוד תדהר 1, ראשון לציון",דוד תדהר 1,7281-23-6,דירה בבית קומות,2.0,ראשונה,39.0,1900000,,,1970.0,,3.0,10435102776,1,728123,False,,ראשון לציון,תדהר דוד,,7281-23-6,7281/23,48717.94871794872,31.9861805601,34.7864110046,2024
2024-07-22,2024-07-22,"הורוביץ 39, ראשון לציון",הורוביץ 39,3926-620-13,דירה בבית קומות,3.0,רביעית,59.3,1820000,,,1970.0,,4.0,10435949664,1,3926620,False,,ראשון לציון,הורוביץ,,3926-620-13,3926/620,30691.399662731877,31.9598960177,34.7962308994,2024
2024-07-22,2024-07-22,"קרל נטר 16, ראשון לציון",קרל נטר 16,3928-633-3,דירה בבית קומות,3.0,ראשונה,58.0,1800000,,,1970.0,,4.0,10435240032,1,3928633,False,,ראשון לציון,קרל נטר,,3928-633-3,3928/633,31034.48275862069,31.9729537491,34.8044281882,2024
2024-07-22,2024-07-22,"ז'בוטינסקי 29, ראשון לציון",ז'בוטינסקי 29,3926-465-13,דירה בבית קומות,4.0,רביעית,82.0,1890000,,,1967.0,,4.0,10437273924,1,3926465,False,101% ב 11 שנים,ראשון לציון,ז'בוטינסקי,9.18,3926-465-13,3926/465,23048.78048780488,31.9615349642,34.8002389802,2024
2024-07-21,2024-07-21,"העוגב 7, ראשון לציון",העוגב 7,5182-62-37,דירה בבית קומות,3.0,שלישית,75.0,2280000,,,1997.0,,6.0,10434824232,1,518262,False,151% ב 16.2 שנים,ראשון לציון,העוגב,9.32,5182-62-37,5182/62,30400.0,31.9678193051,34.7728777019,2024
2024-07-21,2024-07-21,"אוסישקין 32, ראשון לציון",אוסישקין 32,3928-165-6,דירה בבית קומות,4.0,שלישית,96.2,2200000,,,1979.0,,4.0,10434858168,1,3928165,False,29% ב 5.7 שנים,ראשון לציון,אוסישקין,5.09,3928-165-6,3928/165,22869.02286902287,31.9720524606,34.8040604975,2024
2024-07-21,2024-07-21,"הרשב""א 17, ראשון לציון","הרשב""א 17",5115-26-26,דירה בבית קומות,4.0,שביעית,81.7,2525000,,,1997.0,,8.0,10434838008,1,511526,False,35% ב 5 שנים,ראשון לציון,"הרשב""א",7.0,5115-26-26,5115/26,30905.75275397797,31.9788686849,34.7782427795,2024
2024-07-21,2024-07-21,"ההדרים 9, ראשון לציון",ההדרים 9,3926-149-18,דירה בבית קומות,4.0,קומה ‎0‏,97.0,2450000,,,1970.0,,5.0,10435996116,1,3926149,False,,ראשון לציון,ההדרים,,3926-149-18,3926/149,25257.731958762888,31.9633954357,34.7940835074,2024
2024-07-21,2024-07-21,"קפלנסקי 19, ראשון לציון",קפלנסקי 19,3926-684-2,דירה בבית קומות,5.0,ראשונה,109.73,2220000,,,1980.0,,6.0,10434711924,1,3926684,False,296% ב 19.1 שנים,ראשון לציון,קפלנסקי,15.5,3926-684-2,3926/684,20231.477262371274,31.957583546,34.7983612504,2024
2024-07-21,2024-07-21,,,6286-321-34,דירה בבית קומות,6.0,שישית,135.0,4248000,,,2027.0,,,10437394716,2,6286321,False,,ראשון לציון,ההתיישבות,,6286-321-34,6286/321,31466.666666666668,31.9689374466,34.8253099641,2024
2024-07-21,2024-07-21,"כהן יעקב 32, ראשון לציון",כהן יעקב 32,7282-42-12,דירה בבית קומות,3.0,שניה,64.5,1859000,,,1960.0,,2.0,10434885300,1,728242,False,,ראשון לציון,כהן יעקב,,7282-42-12,7282/42,28821.705426356588,31.9816686853,34.7880289346,2024
2024-07-19,2024-07-19,"הכרמל 14, ראשון לציון",הכרמל 14,3935-67-4,דירה בבית קומות,2.0,ראשונה,52.0,1680000,,,1950.0,,2.0,10434685716,1,393567,False,34% ב 7.6 שנים,ראשון לציון,הכרמל,4.47,3935-67-4,3935/67,32307.69230769231,31.9619949485,34.8059271695,2024
2024-07-18,2024-07-18,"מאירוביץ 17, ראשון לציון",מאירוביץ 17,3936-163-17,דירה בבית קומות,4.0,רביעית,89.34,2050000,,,1990.0,,6.0,10434644724,1,3936163,False,81% ב 11 שנים,ראשון לציון,מאירוביץ,7.36,3936-163-17,3936/163,22946.048802328183,31.9586269226,34.8085590708,2024
2024-07-18,2024-07-18,"נגבה 30, ראשון לציון",נגבה 30,5387-70-32,דירה בבית קומות,3.0,שמינית,64.0,1880000,,,1994.0,,9.0,10434764676,1,538770,False,170% ב 24.7 שנים,ראשון לציון,נגבה,6.88,5387-70-32,5387/70,29375.0,31.9640754999,34.7772017035,2024
2024-07-18,2024-07-18,"סאלד 1, ראשון לציון",סאלד 1,3928-671-25,דירה בבית קומות,5.0,חמישית,124.0,2825000,,,1970.0,,4.0,10434691848,1,3928671,False,,ראשון לציון,סולד,,3928-671-25,3928/671,22782.25806451613,31.9694543745,34.8014540994,2024
2024-07-18,2024-07-18,"השקד 6, ראשון לציון",השקד 6,3926-108-9,דירה בבית קומות,7.0,שישית,155.0,3350000,1.0,,2017.0,,4.0,10436057100,1,3926108,False,,ראשון לציון,השקד,,3926-108-9,3926/108,21612.90322580645,31.9637185723,34.7964187542,2024
2024-07-17,2024-07-17,"יוני צבי פינשטיין 7, ראשון לציון",יוני צבי פינשטיין 7,6288-109-91,דירה בבית קומות,4.0,חמישית,77.26,2075000,,,1993.0,,9.0,10434730068,1,6288109,False,25% ב 6.3 שנים,ראשון לציון,פינשטיין יונה צבי,3.97,6288-109-91,6288/109,26857.364742428163,31.9535369919,34.8135725855,2024
2024-07-17,2024-07-17,"הנגיד 9, ראשון לציון",הנגיד 9,5115-31-73,דירה בבית קומות,4.5,תשיעית,119.0,3400000,,,1997.0,,11.0,10434536616,1,511531,False,64% ב 9 שנים,ראשון לציון,הנגיד,7.11,5115-31-73,5115/31,28571.42857142857,31.9772124707,34.7762878661,2024
2024-07-17,2024-07-17,"קלישר 10, ראשון לציון",קלישר 10,5116-45-3,דירה בבית קומות,3.0,ראשונה,65.0,2300000,,,1997.0,,3.0,10434883956,1,511645,False,,ראשון לציון,קלישר,,5116-45-3,5116/45,35384.61538461538,31.9740036288,34.77055967,2024
2024-07-17,2024-07-17,"ש""י עגנון 5, ראשון לציון","ש""י עגנון 5",7281-96-24,דירה בבית קומות,3.0,שלישית,44.0,1730000,,,1960.0,,3.0,10437320544,1,728196,True,-1% ב 2 שנים,ראשון לציון,"עגנון ש""י",-0.5,7281-96-24,7281/96,39318.181818181816,31.9852523838,34.7908032306,2024
2024-07-17,2024-07-17,"ש""י עגנון 3, ראשון לציון","ש""י עגנון 3",7282-2-3,דירה בבית קומות,2.0,ראשונה,36.0,1670000,,,1970.0,,3.0,10437391860,1,72822,False,33% ב 4.6 שנים,ראשון לציון,"עגנון ש""י",7.17,7282-2-3,7282/2,46388.88888888889,31.9850229869,34.7908219578,2024
2024-07-16,2024-07-16,"הכרמל 9, ראשון לציון",הכרמל 9,3936-149-3,דירה בבית קומות,3.0,ראשונה,76.91,1800000,,,1950.0,,4.0,10434422208,1,3936149,False,,ראשון לציון,הכרמל,,3936-149-3,3936/149,23403.978676374983,31.9616325829,34.8065319034,2024
2024-07-16,2024-07-16,"סוקולוב 22, ראשון לציון",סוקולוב 22,3925-816-19,דירה בבית קומות,4.0,חמישית,102.0,2480000,,,2023.0,,5.0,10436668956,1,3925816,False,,ראשון לציון,סוקולוב,,3925-816-19,3925/816,24313.72549019608,31.9596310283,34.8038426331,2024
2024-07-16,2024-07-16,"יהודה לייב 24, ראשון לציון",יהודה לייב 24,3929-63-12,דירה בבית קומות,4.0,שלישית,79.5,1500000,,,1973.0,,4.0,10436075916,1,392963,False,,ראשון לציון,יהודה לייב,,3929-63-12,3929/63,18867.924528301886,31.9670821727,34.807475198,2024
2024-07-16,2024-07-16,"חב""ד 15, ראשון לציון","חב""ד 15",3929-820-81,דירה בבית קומות,5.0,תשיעית,220.79,3250000,,,1970.0,,9.0,10434341232,1,3929820,False,,ראשון לציון,"חב""ד",,3929-820-81,3929/820,14719.869559309753,31.9686476283,34.8107126719,2024
2024-07-16,2024-07-16,"החלמונית 13, ראשון לציון",החלמונית 13,5036-24-63,דירה בבית קומות,3.0,רביעית,78.2,1840000,,,1995.0,,6.0,10435452720,1,503624,False,,ראשון לציון,החלמונית,,5036-24-63,5036/24,23529.41176470588,31.9738502491,34.7851843176,2024
2024-07-16,2024-07-16,"נחמה 19, ראשון לציון",נחמה 19,3932-70-3,דירה בבית קומות,3.0,ראשונה,55.0,1850000,,,1970.0,,4.0,10437332976,1,393270,False,29% ב 4.4 שנים,ראשון לציון,נחמה,6.59,3932-70-3,3932/70,33636.36363636364,31.9649404139,34.8099339263,2024
2024-07-16,2024-07-16,"מבצע שלמה 6, ראשון לציון",מבצע שלמה 6,4747-12-1,דירה בבית קומות,6.0,קרקע + ראשונה,144.13,4745000,,,1990.0,,,10435359228,1,474712,False,,ראשון לציון,מבצע שלמה,,4747-12-1,4747/12,32921.667938666484,31.9858100613,34.7770443209,2024
2024-07-16,2024-07-16,"הרב ברוק 8, ראשון לציון",הרב ברוק 8,3930-446-26,דירה בבית קומות,2.0,שניה,42.0,1300000,,,1960.0,,3.0,10435899768,1,3930446,False,,ראשון לציון,הרב ברוק,,3930-446-26,3930/446,30952.380952380958,31.9645292707,34.8149194067,2024
2024-07-15,2024-07-15,"אבן גבירול 8, ראשון לציון",אבן גבירול 8,5115-39-8,דירה בבית קומות,3.0,שניה,66.14,2170000,,,1995.0,,3.0,10434447996,1,511539,False,20% ב 1.8 שנים,ראשון לציון,אבן גבירול,11.11,5115-39-8,5115/39,32809.19262171152,31.9756525597,34.7752364814,2024
2024-07-15,2024-07-15,"ריב""ל 12, ראשון לציון","ריב""ל 12",5114-36-85,דירה בבית קומות,5.0,עשירית + אחת עשרה,121.9,3250000,,,1997.0,,13.0,10434916296,1,511436,False,38% ב 3.1 שנים,ראשון לציון,"ריב""ל",12.26,5114-36-85,5114/36,26661.197703035272,31.9760750585,34.7709134741,2024
2024-07-15,2024-07-15,"החליל 26, ראשון לציון",החליל 26,5183-23-6,דירה בבית קומות,4.0,ראשונה,87.75,2400000,,,1998.0,,2.0,10434290664,1,518323,False,64% ב 9.5 שנים,ראשון לציון,החליל,6.74,5183-23-6,5183/23,27350.42735042735,31.9624153935,34.7740768077,2024
2024-07-15,2024-07-15,"קפלנסקי 26, ראשון לציון",קפלנסקי 26,3926-676-14,דירה בבית קומות,3.0,קומה ‎4‏,101.76,2340000,,,2020.0,,7.0,10435549908,1,3926676,False,,ראשון לציון,קפלנסקי,,3926-676-14,3926/676,22995.28301886792,31.9580420207,34.7979352898,2024
2024-07-15,2024-07-15,"תנועות הנוער 14, ראשון לציון",תנועות הנוער 14,3939-430-5,דירה בבית קומות,3.0,שלישית,73.3,2350000,,,2001.0,,9.0,10434271848,1,3939430,False,88% ב 12.5 שנים,ראשון לציון,תנועות הנוער,7.04,3939-430-5,3939/430,32060.027285129607,31.9719805881,34.8158209698,2024
2024-07-15,2024-07-15,"ש""י עגנון 1, ראשון לציון","ש""י עגנון 1",7282-4-6,דירה בבית קומות,4.0,ראשונה,65.0,1800000,,,1970.0,,3.0,10434898404,1,72824,False,,ראשון לציון,"עגנון ש""י",,7282-4-6,7282/4,27692.30769230769,31.9847896313,34.7908228632,2024
2024-07-15,2024-07-15,"על כנפי נשרים 9, ראשון לציון",על כנפי נשרים 9,3939-299-3,דירה בבית קומות,4.0,ראשונה,88.0,2020000,,,1980.0,,5.0,10435649700,1,3939299,False,,ראשון לציון,על כנפי נשרים,,3939-299-3,3939/299,22954.545454545456,31.9710311209,34.8173051461,2024
2024-07-15,2024-07-15,"הרצל גרינשפן 11, ראשון לציון",הרצל גרינשפן 11,6287-288-22,דירה בבית קומות,5.5,שישית,123.0,2880000,,,1997.0,,8.0,10436253912,1,6287288,False,60% ב 11.2 שנים,ראשון לציון,גרינשפן הרשל,5.36,6287-288-22,6287/288,23414.634146341465,31.9567750482,34.8159831139,2024
2024-07-14,2024-07-14,"נתן ברניצקי 36, ראשון לציון",נתן ברניצקי 36,3926-604-4,חניה,,ראשונה,69.29,75000,,,1970.0,,5.0,10435646172,1,3926604,False,,ראשון לציון,ברניצקי נתן,,3926-604-4,3926/604,1082.4072737768795,31.9595745138,34.7964271983,2024
2024-07-14,2024-07-14,"יוסף וריסיה ליבין 3, ראשון לציון",יוסף וריסיה ליבין 3,7374-102-37,דירה בבית קומות,4.0,אחת עשרה,98.4,3040000,,,2010.0,,13.0,10434585000,1,7374102,False,26% ב 6.1 שנים,ראשון לציון,ליבין יוסף וריסיה,4.26,7374-102-37,7374/102,30894.30894308943,31.9809401161,34.802900948,2024
2024-07-08,2024-08-07,"בן-אליעזר 9, ראשון לציון",בן-אליעזר 9,3926-1331-2,דירה בבית קומות,4.0,ראשונה,94.83,2100000,,,1970.0,,4.0,10436995548,1,39261331,False,,ראשון לציון,בן אליעזר,,3926-1331-2,3926/1331,22144.890857323637,31.9607265365,34.7954961188,2024
2024-07-08,2024-08-07,"על כנפי נשרים 5, ראשון לציון",על כנפי נשרים 5,3939-301-9,דירה בבית קומות,4.0,שלישית,80.2,1840000,,,1980.0,,4.0,10436881056,1,3939301,False,242% ב 22.3 שנים,ראשון לציון,על כנפי נשרים,10.85,3939-301-9,3939/301,22942.6433915212,31.9704112012,34.8170536802,2024
2024-07-08,2024-08-07,"ראובן ובת-שבע 7, ראשון לציון",ראובן ובת-שבע 7,3939-297-6,דירה בבית קומות,3.5,שניה,86.0,1860000,,,1980.0,,8.0,10436757660,1,3939297,False,260% ב 26.4 שנים,ראשון לציון,ראובן ובת שבע,9.85,3939-297-6,3939/297,21627.906976744187,31.971432264,34.8160859939,2024
2024-07-07,2024-07-07,"רש""י 28, ראשון לציון","רש""י 28",3930-580-1,דירה בבית קומות,4.0,ראשונה,92.12,2250000,,,1997.0,,4.0,10435312860,1,3930580,False,55% ב 9 שנים,ראשון לציון,"רש""י",6.11,3930-580-1,3930/580,24424.66348241424,31.9665781064,34.8132103678,2024
2024-07-07,2024-07-07,"המורן 9, ראשון לציון",המורן 9,5036-38-12,דירה בבית קומות,3.0,שניה,64.9,1730000,,,1988.0,,3.0,10433428404,1,503638,False,,ראשון לציון,המורן,,5036-38-12,5036/38,26656.39445300462,31.9738527936,34.782451162,2024
2024-07-07,2024-07-07,"האחים אוסטשינסקי 17, ראשון לציון",האחים אוסטשינסקי 17,3925-228-19,דירה בבית קומות,4.5,חמישית,109.0,2700000,,,1970.0,2026.0,5.0,10435286400,1,3925228,False,,ראשון לציון,האחים אוסטשינסקי,,3925-228-19,3925/228,24770.642201834864,31.957356412,34.8048861482,2024
2024-07-07,2024-07-07,,,6286-321-35,דירה בבית קומות,4.0,שלישית,95.0,3316000,,,2027.0,,,10436242908,2,6286321,False,,ראשון לציון,ההתיישבות,,6286-321-35,6286/321,34905.26315789474,31.9689374466,34.8253099641,2024
2024-07-07,2024-07-07,"החלמונית 29, ראשון לציון",החלמונית 29,5036-87-204,דירת גג,6.0,עשירית,230.0,3930000,,,1998.0,,17.0,10434048828,1,503687,False,,ראשון לציון,החלמונית,,5036-87-204,5036/87,17086.956521739132,31.9704044809,34.7836741506,2024
2024-07-07,2024-07-07,"נווה אטי""ב 14, ראשון לציון","נווה אטי""ב 14",5436-134-3,קוטג' דו משפחתי,6.0,מרתף קרקע + א' + ב',217.0,5450000,,,2001.0,,,10433695356,1,5436134,False,120% ב 14.9 שנים,ראשון לציון,"נווה אטי""ב",8.05,5436-134-3,5436/134,25115.20737327189,31.9829878385,34.763106839,2024
2024-07-07,2024-07-07,"מוהליבר 32, ראשון לציון",מוהליבר 32,3933-36-4,דירה בבית קומות,2.0,ראשונה,52.1,1690000,,,1950.0,,3.0,10434271176,1,393336,False,272% ב 22.4 שנים,ראשון לציון,מוהליבר,12.14,3933-36-4,3933/36,32437.619961612283,31.9668176895,34.8049913293,2024
2024-07-06,2024-06-07,"שיבת ציון 8, ראשון לציון",שיבת ציון 8,3937-116-5,דירה בבית קומות,4.0,שלישית,85.9,1855000,,,1980.0,,4.0,10430694876,1,3937116,False,33% ב 4.4 שנים,ראשון לציון,שיבת ציון,7.5,3937-116-5,3937/116,21594.87776484284,31.9612834103,34.8116278521,2024
2024-07-06,2024-06-07,"קידוש השם 15, ראשון לציון",קידוש השם 15,3929-812-12,דירה בבית קומות,4.0,שישית,93.0,2175000,,,1984.0,,8.0,10431188124,1,3929812,False,236% ב 21.3 שנים,ראשון לציון,קידוש השם,11.08,3929-812-12,3929/812,23387.09677419355,31.9689610321,34.812072654,2024
2024-07-05,2024-05-07,,,6286-321-41,דירה בבית קומות,5.0,חמישית,121.0,3787000,,,2027.0,,,10427727996,2,6286321,False,,ראשון לציון,ההתיישבות,,6286-321-41,6286/321,31297.520661157025,31.9689374466,34.8253099641,2024
2024-07-05,2024-05-07,"יהודה 6, ראשון לציון",יהודה 6,3932-343-9,דירה בבית קומות,4.0,שלישית,98.0,2602000,,,2023.0,,2.0,10427953872,1,3932343,False,,ראשון לציון,יהודה,,3932-343-9,3932/343,26551.020408163266,31.965130792,34.8087250196,2024
2024-07-05,2024-05-07,"שמואל שרירא 3, ראשון לציון",שמואל שרירא 3,6286-157-36,דירה בבית קומות,4.0,שישית,108.0,2543000,,,1995.0,,10.0,10427900448,1,6286157,False,117% ב 12 שנים,ראשון לציון,שרירא שמואל,9.75,6286-157-36,6286/157,23546.296296296296,31.9665472078,34.8233883857,2024
2024-07-05,2024-05-07,"שרירא שמואל 17, ראשון לציון",שרירא שמואל 17,6286-149-25,דירה בבית קומות,3.0,שלישית,64.32,1970000,,,2021.0,,4.0,10427754288,1,6286149,False,137% ב 13.8 שנים,ראשון לציון,שרירא שמואל,9.93,6286-149-25,6286/149,30628.10945273632,31.9646119882,34.821742148,2024
2024-07-04,2024-04-07,"הרב גורן 3, ראשון לציון",הרב גורן 3,5116-27-35,דירה בבית קומות,4.0,תשיעית,95.66,2600000,,,1997.0,,12.0,10425535932,1,511627,False,55% ב 9.2 שנים,ראשון לציון,הרב גורן,5.98,5116-27-35,5116/27,27179.59439682208,31.9740997615,34.7724662742,2024
2024-07-04,2024-04-07,"קפלנסקי 12, ראשון לציון",קפלנסקי 12,3926-712-4,דירה בבית קומות,3.5,ראשונה,61.9,1800000,,,1970.0,,5.0,10425321144,1,3926712,False,,ראשון לציון,קפלנסקי,,3926-712-4,3926/712,29079.159935379645,31.9577361262,34.8001518747,2024
2024-07-04,2024-04-07,"זלמן שניאור 2, ראשון לציון",זלמן שניאור 2,7282-37-5,דירה בבית קומות,3.0,ראשונה,45.0,1780000,,,1960.0,,2.0,10427159064,1,728237,False,48% ב 7.9 שנים,ראשון לציון,שניאור זלמן,6.08,7282-37-5,7282/37,39555.55555555556,31.9821255937,34.7865930674,2024
2024-07-04,2024-04-07,,,6286-321-10,,6.0,שלישית,135.0,4030000,1.0,,,,,11181271022,2,6286321,False,,ראשון לציון,ההתיישבות,,6286-321-10,6286/321,29851.85185185185,31.9689374466,34.8253099641,2024
2024-07-04,2024-04-07,,,6286-321-46,דירה בבית קומות,6.0,שניה,134.0,3927000,,,2027.0,,,10427466672,2,6286321,False,,ראשון לציון,ההתיישבות,,6286-321-46,6286/321,29305.97014925373,31.9689374466,34.8253099641,2024
2024-07-04,2024-04-07,"חיים אריאב 19, ראשון לציון",חיים אריאב 19,7281-6-13,דירה בבית קומות,3.0,שניה,46.2,1695000,,,1960.0,,4.0,10425661932,1,72816,False,,ראשון לציון,אריאב חיים,,7281-6-13,7281/6,36688.31168831169,31.9883350112,34.786410724,2024
2024-07-04,2024-04-07,,,6286-321-11,,5.0,חמישית,122.0,3770000,1.0,,,,,11181271023,2,6286321,False,,ראשון לציון,ההתיישבות,,6286-321-11,6286/321,30901.63934426229,31.9689374466,34.8253099641,2024
2024-07-04,2024-04-07,"הרימון 6, ראשון לציון",הרימון 6,3926-87-7,דירה בבית קומות,2.0,שלישית,52.0,1536000,,,1968.0,,3.0,10429242768,1,392687,False,,ראשון לציון,הרימון,,3926-87-7,3926/87,29538.46153846154,31.9635004585,34.7977324601,2024
2024-07-04,2024-04-07,"האחים סולימן 16, ראשון לציון",האחים סולימן 16,3930-553-188,דירה בבית קומות,5.0,אחת עשרה,102.6,3120000,,,2009.0,,19.0,10425748536,1,3930553,False,34% ב 2.9 שנים,ראשון לציון,האחים סולימן,11.72,3930-553-188,3930/553,30409.3567251462,31.963309212,34.816417006,2024
2024-07-03,2024-03-07,"ההתיישבות 8, ראשון לציון",ההתיישבות 8,6286-315-31,דירה בבית קומות,5.0,שלישית,140.8,3600000,,,2012.0,,8.0,10423287168,1,6286315,False,119% ב 11.8 שנים,ראשון לציון,ההתיישבות,10.08,6286-315-31,6286/315,25568.181818181816,31.9685802496,34.8232154848,2024
2024-07-03,2024-03-07,"הפרדס הראשון 35, ראשון לציון",הפרדס הראשון 35,3945-824-21,דירה בבית קומות,3.0,שלישית,74.6,1900000,,,1978.0,,8.0,10422569892,1,3945824,False,66% ב 11.3 שנים,ראשון לציון,הפרדס הראשון,5.84,3945-824-21,3945/824,25469.16890080429,31.9684295423,34.7905147302,2024
2024-07-03,2024-03-07,"יהודה לייב 20, ראשון לציון",יהודה לייב 20,3932-292-30,דירה בבית קומות,5.0,חמישית,114.48,2635000,,,1970.0,,6.0,10422372408,1,3932292,False,,ראשון לציון,יהודה לייב,,3932-292-30,3932/292,23017.120894479383,31.9666140572,34.8076006962,2024
2024-07-02,2024-02-07,"הירשפלד 2, ראשון לציון",הירשפלד 2,3926-1365-13,דירה בבית קומות,3.0,קרקע,45.3,1450000,,,1970.0,,3.0,10419546396,1,39261365,False,,ראשון לציון,הירשפלד,,3926-1365-13,3926/1365,32008.830022075057,31.9583756417,34.8010019088,2024
2024-07-02,2024-02-07,"שפינוזה 25, ראשון לציון",שפינוזה 25,3928-602-18,דירה בבית קומות,4.0,קרקע,105.0,2440000,,,1980.0,2021.0,4.0,10419989916,1,3928602,False,,ראשון לציון,שפינוזה,,3928-602-18,3928/602,23238.09523809524,31.9684619866,34.7995743208,2024
2024-07-02,2024-02-07,"האחים אוסטשינסקי 21, ראשון לציון",האחים אוסטשינסקי 21,3925-476-15,דירה בבית קומות,4.0,רביעית,107.6,1850000,,,1970.0,,7.0,10421144412,1,3925476,False,,ראשון לציון,האחים אוסטשינסקי,,3925-476-15,3925/476,17193.308550185873,31.9573042319,34.8040437713,2024
2024-07-02,2024-02-07,"בית יהושע 6, ראשון לציון",בית יהושע 6,5387-69-8,דירה בבית קומות,3.5,שלישית,74.0,2250000,,,1992.0,,3.0,10419705744,1,538769,False,66% ב 9 שנים,ראשון לציון,בית יהושע,7.33,5387-69-8,5387/69,30405.405405405407,31.964607147,34.7775369886,2024
2024-07-01,2024-01-07,"אברבנאל 39, ראשון לציון",אברבנאל 39,3930-566-4,דירה בבית קומות,4.0,שניה,107.79,2180000,,,1992.0,,6.0,10416525420,1,3930566,False,,ראשון לציון,אברבנאל,,3930-566-4,3930/566,20224.510622506725,31.9665927885,34.8153653601,2024
2024-07-01,2024-01-07,"שמואל שרירא 18, ראשון לציון",שמואל שרירא 18,6286-141-32,דירה בבית קומות,3.0,רביעית,63.12,1700000,,,1970.0,,5.0,10416537936,1,6286141,False,54% ב 6 שנים,ראשון לציון,שרירא שמואל,9.0,6286-141-32,6286/141,26932.82636248416,31.9664522845,34.8225297547,2024
2024-07-01,2024-01-07,"שרירא שמואל 34, ראשון לציון",שרירא שמואל 34,6286-153-11,דירה בבית קומות,3.0,רביעית,73.1,2906000,,,1970.0,2024.0,5.0,10418923368,1,6286153,False,41% ב 1 שנים,ראשון לציון,שרירא שמואל,41.0,6286-153-11,6286/153,39753.76196990424,31.9649407765,34.8213088402,2024
2024-07-01,2024-01-07,"השירה העברית 4, ראשון לציון",השירה העברית 4,5114-44-30,דירה בבית קומות,4.0,שמינית,81.7,2430000,,,1995.0,,8.0,10416521976,1,511444,False,115% ב 14.5 שנים,ראשון לציון,השירה העברית,7.93,5114-44-30,5114/44,29742.96205630355,31.97589709,34.770273726,2024
2024-07-01,2024-01-07,"האחים סמילצ'נסקי 10, ראשון לציון",האחים סמילצ'נסקי 10,3926-390-1,דירה בבית קומות,4.0,ראשונה,86.79,2140000,,,1960.0,,4.0,10417036980,1,3926390,False,16% ב 2.7 שנים,ראשון לציון,האחים סמילצ'נסקי,5.93,3926-390-1,3926/390,24657.21857356838,31.9605896187,34.7991394391,2024
2024-07-01,2024-01-07,"ההתיישבות 4, ראשון לציון",ההתיישבות 4,6286-313-21,דירת גג,5.0,תשיעית,171.0,5050000,,,2019.0,,8.0,10417716876,1,6286313,False,,ראשון לציון,ההתיישבות,,6286-313-21,6286/313,29532.16374269006,31.9693578219,34.8225252854,2024
2024-06-30,2024-06-30,"חי""ש 2, ראשון לציון","חי""ש 2",3930-456-13,דירה בבית קומות,4.0,שמונה עשרה,105.0,2900000,,,2025.0,,3.0,10434847836,1,3930456,False,,ראשון לציון,"חי""ש",,3930-456-13,3930/456,27619.04761904762,31.9671298113,34.8174523646,2024
2024-06-30,2024-06-30,"משה בן-נחמן 17, ראשון לציון",משה בן-נחמן 17,4247-578-9,דירה בבית קומות,4.0,ראשונה,98.01,3200000,,,2002.0,,4.0,10433315508,1,4247578,False,55% ב 8.3 שנים,ראשון לציון,משה בן נחמן,6.63,4247-578-9,4247/578,32649.729619426587,31.9470936193,34.8132195933,2024
2024-06-30,2024-06-30,"הרב יצחק שלינקה 6, ראשון לציון",הרב יצחק שלינקה 6,7373-73-26,דירה בבית קומות,5.0,שביעית,163.82,5100000,,,2010.0,,8.0,10433171364,1,737373,False,83% ב 13 שנים,ראשון לציון,הרב שלינקה יצחק,6.38,7373-73-26,7373/73,31131.72994750336,31.9827421055,34.8037499084,2024
2024-06-30,2024-06-30,"קפלנסקי 21, ראשון לציון",קפלנסקי 21,3926-683-17,דירה בבית קומות,4.0,שישית,100.0,2444000,,,1970.0,2024.0,4.0,10433400012,1,3926683,False,,ראשון לציון,קפלנסקי,,3926-683-17,3926/683,24440.0,31.9576118874,34.7980994034,2024
2024-06-30,2024-06-30,"משה מזרחי 4, ראשון לציון",משה מזרחי 4,3930-370-2,דירה בבית קומות,3.5,ראשונה,77.75,1925000,,,1980.0,,9.0,10432806720,1,3930370,False,28% ב 2.6 שנים,ראשון לציון,מזרחי משה,10.77,3930-370-2,3930/370,24758.842443729904,31.9641533291,34.8160025287,2024
2024-06-30,2024-06-30,"התקווה 5, ראשון לציון",התקווה 5,3945-871-20,דירה בבית קומות,5.0,שמינית,186.07,4950000,,,2001.0,,12.0,10432805376,1,3945871,False,,ראשון לציון,התקוה,,3945-871-20,3945/871,26602.891384962648,31.9647773552,34.7980586727,2024
2024-06-30,2024-06-30,"ויצמן 23, ראשון לציון",ויצמן 23,3928-163-4,דירה בבית קומות,3.0,שניה,62.92,1950000,,,1974.0,,4.0,10433066028,1,3928163,False,55% ב 9.1 שנים,ראשון לציון,ויצמן,6.04,3928-163-4,3928/163,30991.73553719008,31.9722012255,34.8045321068,2024
2024-06-30,2024-06-30,"טוליפמן 1, ראשון לציון",טוליפמן 1,3942-165-71,משרד,,חמישית,71.0,1012000,,,2022.0,,7.0,10434168528,1,3942165,False,,ראשון לציון,טוליפמן,,3942-165-71,3942/165,14253.521126760565,31.9835847225,34.8115140392,2024
2024-06-29,2024-06-29,,,3930-457-6,,4.0,שמונה עשרה,105.0,2900000,1.0,,,,,11181235844,2,3930457,False,,ראשון לציון,"חי""ש",,3930-457-6,3930/457,27619.04761904762,31.9668800649,34.8174788046,2024
2024-06-29,2024-06-29,"חי""ש 2, ראשון לציון","חי""ש 2",3930-456-0,,4.0,שניה,105.0,2810000,1.0,,2025.0,,3.0,11181235835,1,3930456,False,,ראשון לציון,"חי""ש",,3930-456-0,3930/456,26761.904761904763,31.9671298113,34.8174523646,2024
2024-06-29,2024-06-29,"טוליפמן 1, ראשון לציון",טוליפמן 1,3942-165-69,,1.0,חמישית,72.0,1012084,1.0,,,,7.0,11181236162,1,3942165,False,,ראשון לציון,טוליפמן,,3942-165-69,3942/165,14056.722222222224,31.9835847225,34.8115140392,2024
2024-06-28,2024-06-28,"אודם 42, ראשון לציון",אודם 42,5436-110-1,קוטג' דו משפחתי,6.0,מרתף+ קרקע + א' + ב',252.0,6500000,,,2002.0,,,10435517904,1,5436110,False,,ראשון לציון,אודם,,5436-110-1,5436/110,25793.650793650795,31.9835185864,34.7627145141,2024
2024-06-27,2024-06-27,"קרל נטר 9, ראשון לציון",קרל נטר 9,3928-153-2,דירה בבית קומות,4.0,ראשונה,83.21,2320000,,,1960.0,,6.0,10433032764,1,3928153,False,,ראשון לציון,קרל נטר,,3928-153-2,3928/153,27881.26427112126,31.9723589931,34.8050513145,2024
2024-06-27,2024-06-27,"חי""ש 2, ראשון לציון","חי""ש 2",3930-456-16,דירה בבית קומות,4.0,שמונה עשרה,105.0,2790000,,,2025.0,,3.0,10434778452,1,3930456,False,,ראשון לציון,"חי""ש",,3930-456-16,3930/456,26571.42857142857,31.9671298113,34.8174523646,2024
2024-06-27,2024-06-27,"יוסף וריסיה ליבין 3, ראשון לציון",יוסף וריסיה ליבין 3,7374-102-39,דירה בבית קומות,5.0,שתים עשרה,131.7,5075000,,,2010.0,,13.0,10434576684,1,7374102,True,-5% ב 12.1 שנים,ראשון לציון,ליבין יוסף וריסיה,-0.41,7374-102-39,7374/102,38534.54821564161,31.9809401161,34.802900948,2024
2024-06-26,2024-06-26,"אברהם וינברג 45, ראשון לציון",אברהם וינברג 45,3628-265-1,קוטג' דו משפחתי,6.0,ראשונה,290.0,4150000,,,2016.0,,1.0,10433041080,1,3628265,False,,ראשון לציון,וינברג אברהם,,3628-265-1,3628/265,14310.344827586208,31.9768536175,34.8021817292,2024
2024-06-26,2024-06-26,"יוחנן הסנדלר 10, ראשון לציון",יוחנן הסנדלר 10,3929-938-1,דירה בבית קומות,3.0,ראשונה,72.62,2195000,,,2000.0,,9.0,10432946160,1,3929938,False,77% ב 10 שנים,ראשון לציון,יוחנן הסנדלר,7.7,3929-938-1,3929/938,30225.833103828143,31.968676539,34.8140239479,2024
2024-06-26,2024-06-26,,,3930-457-4,,4.0,שמונה עשרה,105.0,2790000,1.0,,,,,11181235842,2,3930457,False,,ראשון לציון,"חי""ש",,3930-457-4,3930/457,26571.42857142857,31.9668800649,34.8174788046,2024
2024-06-26,2024-06-26,"יהודה הלוי 29, ראשון לציון",יהודה הלוי 29,3929-394-3,דירה בבית קומות,3.0,שניה,74.25,1730000,,,1970.0,,4.0,10433276028,1,3929394,False,,ראשון לציון,יהודה הלוי,,3929-394-3,3929/394,23299.663299663294,31.9670637937,34.8099950759,2024
2024-06-26,2024-06-26,"יגאל אלון 24, ראשון לציון",יגאל אלון 24,6287-286-33,דירה בבית קומות,4.0,שמינית,108.0,2630000,,,1997.0,,9.0,10432501380,1,6287286,False,87% ב 11.4 שנים,ראשון לציון,אלון יגאל,7.63,6287-286-33,6287/286,24351.85185185185,31.9568873651,34.8166929293,2024
2024-06-26,2024-06-26,"עזרה ובצרון 1, ראשון לציון",עזרה ובצרון 1,7282-200-1,דירה בבית קומות,6.0,ראשונה,180.0,3300000,,,2006.0,,,10432679460,1,7282200,False,,ראשון לציון,עזרה ובצרון,,7282-200-1,7282/200,18333.33333333333,31.9837680379,34.7854791265,2024
2024-06-26,2024-06-26,"נחל שורק 6, ראשון לציון",נחל שורק 6,3926-1112-6,דירה בבית קומות,4.0,שלישית,93.0,2235000,,,1983.0,,5.0,10432943472,1,39261112,False,,ראשון לציון,נחל שורק,,3926-1112-6,3926/1112,24032.25806451613,31.9598149892,34.794465463,2024
2024-06-26,2024-06-26,"השומר 6, ראשון לציון",השומר 6,3930-390-11,דירה בבית קומות,4.0,שלישית,88.78,1950000,,,1970.0,,8.0,10432592184,1,3930390,False,8% ב 2.5 שנים,ראשון לציון,השומר,3.2,3930-390-11,3930/390,21964.40639783735,31.961846076,34.8161480493,2024
2024-06-25,2024-06-25,"הקלרנית 3, ראשון לציון",הקלרנית 3,5183-34-41,דירה בבית קומות,3.0,שלישית,64.27,2080000,,,1997.0,,7.0,10432279032,1,518334,False,,ראשון לציון,הקלרנית,,5183-34-41,5183/34,32363.46662517505,31.9641793551,34.774745098,2024
2024-06-25,2024-06-25,"גרינבוים 22, ראשון לציון",גרינבוים 22,3934-211-17,דירה בבית קומות,4.0,רביעית,80.38,1970000,,,1970.0,,4.0,10432612932,1,3934211,False,282% ב 22.7 שנים,ראשון לציון,גרינבוים,12.42,3934-211-17,3934/211,24508.584224931576,31.9632636309,34.8006765061,2024
2024-06-25,2024-06-25,"קפלנסקי 21, ראשון לציון",קפלנסקי 21,3926-683-18,דירה בבית קומות,4.0,חמישית,100.0,2415000,,,1970.0,2024.0,4.0,10433394468,1,3926683,False,,ראשון לציון,קפלנסקי,,3926-683-18,3926/683,24150.0,31.9576118874,34.7980994034,2024
2024-06-25,2024-06-25,"יהושע גיבשטיין 15, ראשון לציון",יהושע גיבשטיין 15,6288-110-32,דירה בבית קומות,3.0,רביעית,63.09,2050000,,,1980.0,,4.0,10432911552,1,6288110,False,125% ב 13 שנים,ראשון לציון,גיבשטיין יהושע,9.62,6288-110-32,6288/110,32493.2635916944,31.9533327863,34.8121367258,2024
2024-06-24,2024-06-24,"צבי הרמן שפירא 15, ראשון לציון",צבי הרמן שפירא 15,3928-775-31,,5.0,שמינית + תשיעית,144.66,2740000,,,1970.0,,8.0,10433109792,1,3928775,False,,ראשון לציון,שפירא צבי הרמן,,3928-775-31,3928/775,18940.96502142956,31.9717980976,34.8009153471,2024
2024-06-24,2024-06-24,"בית""ר 13, ראשון לציון","בית""ר 13",3928-771-11,חנות,,קרקע,30.21,805000,,,1970.0,,7.0,10434212964,1,3928771,False,69% ב 1 שנים,ראשון לציון,"בית""ר",69.0,3928-771-11,3928/771,26646.80569347898,31.9672693372,34.7998266181,2024
2024-06-24,2024-06-24,"החרצית 14, ראשון לציון",החרצית 14,5036-26-1,דירה בבית קומות,4.0,שניה,82.0,2160000,,,1985.0,,,10432520112,1,503626,False,,ראשון לציון,החרצית,,5036-26-1,5036/26,26341.463414634145,31.9738952185,34.7855276013,2024
2024-06-24,2024-06-24,"התזמורת 8, ראשון לציון",התזמורת 8,5182-23-12,דירה בבית קומות,4.0,שלישית,87.99,2630000,,,1997.0,,13.0,10432795884,1,518223,False,76% ב 13.4 שנים,ראשון לציון,התזמורת,5.67,5182-23-12,5182/23,29889.76020002273,31.9664629967,34.7736453159,2024
2024-06-24,2024-06-24,"הצופים 2, ראשון לציון",הצופים 2,3939-441-28,דירה בבית קומות,4.0,שביעית,93.4,2730000,,,2001.0,,9.0,10432121028,1,3939441,False,95% ב 13.4 שנים,ראשון לציון,הצופים,7.09,3939-441-28,3939/441,29229.12205567452,31.9739795562,34.81355409,2024
2024-06-23,2024-06-23,"תורה ועבודה 7, ראשון לציון",תורה ועבודה 7,7281-44-14,דירה בבית קומות,2.0,שניה,39.5,1855000,,,1970.0,,4.0,10433379348,1,728144,False,8% ב 1.5 שנים,ראשון לציון,תורה ועבודה,5.33,7281-44-14,7281/44,46962.0253164557,31.9886054147,34.7894037742,2024
2024-06-20,2024-06-20,"קפלנסקי 21, ראשון לציון",קפלנסקי 21,3926-683-19,דירה בבית קומות,4.0,חמישית,100.0,2421000,,,1970.0,2024.0,4.0,10433386992,1,3926683,False,,ראשון לציון,קפלנסקי,,3926-683-19,3926/683,24210.0,31.9576118874,34.7980994034,2024
2024-06-20,2024-06-20,"הורוביץ 39, ראשון לציון",הורוביץ 39,3926-620-17,דירה בבית קומות,4.0,חמישית,110.0,2580000,,,1970.0,2027.0,4.0,10433366916,1,3926620,False,,ראשון לציון,הורוביץ,,3926-620-17,3926/620,23454.545454545456,31.9598960177,34.7962308994,2024
2024-06-20,2024-06-20,"האחים אוסטשינסקי 17, ראשון לציון",האחים אוסטשינסקי 17,3925-228-18,דירה בבית קומות,3.5,קומה ‎0‏,,2380000,,,1970.0,2026.0,5.0,10435289256,1,3925228,False,,ראשון לציון,האחים אוסטשינסקי,,3925-228-18,3925/228,,31.957356412,34.8048861482,2024
2024-06-19,2024-06-19,"פרופ' נחום 11, ראשון לציון",פרופ' נחום 11,3945-225-5,דירה בבית קומות,3.0,שניה,69.59,1900000,,,1985.0,,4.0,10431659280,1,3945225,False,,ראשון לציון,פרופ' נחום,,3945-225-5,3945/225,27302.773386980887,31.9678909417,34.7966330892,2024
2024-06-19,2024-06-19,"חיל החימוש 24, ראשון לציון",חיל החימוש 24,2717-5-25,דירה בבית קומות,4.0,חמישית,99.42,2415000,,,1990.0,,8.0,10434232200,1,27175,False,,ראשון לציון,חיל החימוש,,2717-5-25,2717/5,24290.88714544357,31.9975575289,34.7406349554,2024
2024-06-19,2024-06-19,"אנילביץ 53, ראשון לציון",אנילביץ 53,7281-56-6,דירה בבית קומות,5.0,ראשונה,103.0,2050000,,,1970.0,,4.0,10434520656,1,728156,False,,ראשון לציון,אנילביץ,,7281-56-6,7281/56,19902.912621359224,31.9872188867,34.7890054713,2024
2024-06-19,2024-06-19,"הרצל 93, ראשון לציון",הרצל 93,3925-674-54,דירה בבית קומות,2.0,שישית,40.8,1440000,,,2000.0,,15.0,10431637776,1,3925674,False,,ראשון לציון,הרצל,,3925-674-54,3925/674,35294.117647058825,31.960846752,34.8034457232,2024
2024-06-19,2024-06-19,"הקוקייה 17, ראשון לציון",הקוקייה 17,6287-308-13,דירה בבית קומות,4.0,שניה,109.0,2615000,,,2004.0,,5.0,10431642648,1,6287308,False,,ראשון לציון,הקוקיה,,6287-308-13,6287/308,23990.825688073397,31.9591576087,34.8180684593,2024
2024-06-19,2024-06-19,,,6286-321-36,דירה בבית קומות,6.0,רביעית,135.0,4118000,,,2027.0,,,10434328716,2,6286321,False,,ראשון לציון,ההתיישבות,,6286-321-36,6286/321,30503.703703703704,31.9689374466,34.8253099641,2024
2024-06-18,2024-06-18,"הירדן 3, ראשון לציון",הירדן 3,3923-465-9,דירה בבית קומות,4.0,רביעית,111.0,3220000,,,2025.0,,1.0,10431675240,1,3923465,False,,ראשון לציון,הירדן,,3923-465-9,3923/465,29009.00900900901,31.9628061374,34.7906568362,2024
2024-06-18,2024-06-18,"אברבנאל 23, ראשון לציון",אברבנאל 23,3930-659-2,דירה בבית קומות,4.0,ראשונה ושניה,94.12,2150000,,,1970.0,,6.0,10432311456,1,3930659,False,,ראשון לציון,אברבנאל,,3930-659-2,3930/659,22843.178920526985,31.9660711863,34.812687719,2024
2024-06-18,2024-06-18,"החלמונית 22, ראשון לציון",החלמונית 22,5036-65-21,דירה בבית קומות,3.5,ראשונה,74.0,1900000,,,1990.0,,6.0,10431547644,1,503665,False,,ראשון לציון,החלמונית,,5036-65-21,5036/65,25675.67567567568,31.9724926656,34.7836675279,2024
2024-06-18,2024-06-18,,,6286-321-37,דירה בבית קומות,4.0,שלישית,94.0,3286000,,,2027.0,,,10434135432,2,6286321,False,,ראשון לציון,ההתיישבות,,6286-321-37,6286/321,34957.44680851064,31.9689374466,34.8253099641,2024
2024-06-18,2024-06-18,"הקוקייה 29, ראשון לציון",הקוקייה 29,6287-313-10,דירה בבית קומות,4.0,קומה ‎2‏,96.65,2770000,,,2002.0,,9.0,10433531052,1,6287313,False,232% ב 22.3 שנים,ראשון לציון,הקוקיה,10.4,6287-313-10,6287/313,28660.11381272633,31.957733503,34.817013675,2024
2024-06-18,2024-06-18,"יוסף הלוי 4, ראשון לציון",יוסף הלוי 4,3929-1127-5,דירה בבית קומות,3.0,ראשונה,50.36,2050000,,,1970.0,,4.0,10433564316,1,39291127,False,,ראשון לציון,הלוי יוסף,,3929-1127-5,3929/1127,40706.91024622716,31.9675326218,34.806823411,2024
2024-06-18,2024-06-18,"ויניק 32, ראשון לציון",ויניק 32,3926-663-19,דירה בבית קומות,4.0,חמישית,99.0,2630000,,,1970.0,2024.0,5.0,10433344572,1,3926663,False,,ראשון לציון,ויניק,,3926-663-19,3926/663,26565.656565656565,31.9575482377,34.7962098501,2024
2024-06-17,2024-06-17,"גיסין 3, ראשון לציון",גיסין 3,3928-761-18,דירה בבית קומות,4.5,שישית,112.26,2450000,,,1970.0,,7.0,10431458436,1,3928761,False,,ראשון לציון,גיסין,,3928-761-18,3928/761,21824.336362016747,31.9710448155,34.7998298481,2024
2024-06-17,2024-06-17,"הסמדר 4, ראשון לציון",הסמדר 4,5038-2-66,דירה בבית קומות,4.0,שלישית,110.3,3070000,,,1995.0,,6.0,10432478364,1,50382,False,235% ב 23.1 שנים,ראשון לציון,הסמדר,10.17,5038-2-66,5038/2,27833.18223028105,31.9757195017,34.7806366662,2024
2024-06-17,2024-06-17,"שיבת ציון 7, ראשון לציון",שיבת ציון 7,3937-294-3,דירה בבית קומות,4.0,רביעית,100.0,1932000,1.0,,1980.0,2021.0,4.0,10435664148,1,3937294,False,,ראשון לציון,שיבת ציון,,3937-294-3,3937/294,19320.0,31.9615190682,34.8121017631,2024
2024-06-17,2024-06-17,,,6286-321-19,,4.0,רביעית,94.0,3270000,1.0,,,,,11181271031,2,6286321,False,,ראשון לציון,ההתיישבות,,6286-321-19,6286/321,34787.234042553195,31.9689374466,34.8253099641,2024
2024-06-17,2024-06-17,,,6286-321-18,,6.0,שלישית,135.0,4010000,1.0,,,,,11181271030,2,6286321,False,,ראשון לציון,ההתיישבות,,6286-321-18,6286/321,29703.703703703704,31.9689374466,34.8253099641,2024
2024-06-17,2024-06-17,"טוליפמן 1, ראשון לציון",טוליפמן 1,3942-165-72,משרד,,שביעית,71.0,1008000,,,2022.0,,7.0,10434163740,1,3942165,False,,ראשון לציון,טוליפמן,,3942-165-72,3942/165,14197.18309859155,31.9835847225,34.8115140392,2024
2024-06-16,2024-06-16,"שרירא שמואל 17, ראשון לציון",שרירא שמואל 17,6286-149-20,דירה בבית קומות,5.0,ראשונה,81.6,2270000,,,2021.0,,4.0,10437193620,1,6286149,True,-15% ב 1.8 שנים,ראשון לציון,שרירא שמואל,-8.33,6286-149-20,6286/149,27818.627450980395,31.9646119882,34.821742148,2024
2024-06-16,2024-06-16,"השומר 12, ראשון לציון",השומר 12,3930-572-17,דירה בבית קומות,5.0,שישית,120.1,2200000,,,1997.0,,9.0,10431724464,1,3930572,False,10% ב 7.8 שנים,ראשון לציון,השומר,1.28,3930-572-17,3930/572,18318.068276436305,31.9602801798,34.8146787079,2024
2024-06-16,2024-06-16,"קפלנסקי 14, ראשון לציון",קפלנסקי 14,3926-711-6,דירה בבית קומות,4.0,שניה,103.0,2400000,,,2021.0,,4.0,10432248456,1,3926711,False,71% ב 7.4 שנים,ראשון לציון,קפלנסקי,9.59,3926-711-6,3926/711,23300.97087378641,31.9577702251,34.7999204947,2024
2024-06-16,2024-06-16,"טוליפמן 1, ראשון לציון",טוליפמן 1,3942-165-68,,1.0,שביעית,72.0,1008738,1.0,,,,7.0,11181236161,1,3942165,False,,ראשון לציון,טוליפמן,,3942-165-68,3942/165,14010.25,31.9835847225,34.8115140392,2024
2024-06-16,2024-06-16,"המפוחית 2, ראשון לציון",המפוחית 2,5183-72-4,דירה בבית קומות,3.0,ראשונה,68.7,2300000,,,1998.0,,,10431617196,1,518372,False,41% ב 4.7 שנים,ראשון לציון,המפוחית,8.72,5183-72-4,5183/72,33478.89374090247,31.9649200279,34.7751625093,2024
2024-06-15,2024-06-15,"שפינוזה 14, ראשון לציון",שפינוזה 14,3928-435-8,דירה בבית קומות,3.0,שניה,81.5,2500000,,,1980.0,2022.0,5.0,10433343228,1,3928435,False,150% ב 10.4 שנים,ראשון לציון,שפינוזה,14.42,3928-435-8,3928/435,30674.84662576687,31.9689540284,34.8008106056,2024
2024-06-14,2024-06-14,"הפור 7, ראשון לציון",הפור 7,5030-115-1,קוטג' דו משפחתי,5.0,ראשונה,255.0,5370000,,,1984.0,,1.0,10431395352,1,5030115,False,,ראשון לציון,הפור,,5030-115-1,5030/115,21058.82352941177,31.9943005593,34.7450389071,2024
2024-06-13,2024-06-13,"יהודה 6, ראשון לציון",יהודה 6,3932-343-6,דירה בבית קומות,4.0,שניה,98.0,2652000,,,2023.0,,2.0,10432076592,1,3932343,False,,ראשון לציון,יהודה,,3932-343-6,3932/343,27061.22448979592,31.965130792,34.8087250196,2024
2024-06-13,2024-06-13,"הנרקיס 22, ראשון לציון",הנרקיס 22,5036-17-24,דירה בבית קומות,3.0,שישית,60.9,1800000,,,1990.0,,8.0,10431538236,1,503617,False,,ראשון לציון,הנרקיס,,5036-17-24,5036/17,29556.65024630542,31.9748322683,34.7830558706,2024
2024-06-13,2024-06-13,"האחים סמילצ'נסקי 15, ראשון לציון",האחים סמילצ'נסקי 15,3926-409-1,דירה בבית קומות,4.0,ראשונה,75.38,1870000,,,1970.0,,4.0,10431423156,1,3926409,False,160% ב 24.5 שנים,ראשון לציון,האחים סמילצ'נסקי,6.53,3926-409-1,3926/409,24807.641284160258,31.9602688246,34.7987536896,2024
2024-06-13,2024-06-13,"עין דור 4, ראשון לציון",עין דור 4,6286-317-40,דירה בבית קומות,5.0,שמינית,131.0,3870000,,,2013.0,,9.0,10431332352,1,6286317,False,,ראשון לציון,עין דור,,6286-317-40,6286/317,29541.98473282443,31.9678885498,34.8238167606,2024
2024-06-13,2024-06-13,"חיל הרגלים 21, ראשון לציון",חיל הרגלים 21,5031-5-44,דירה בבית קומות,4.0,שישית,,2573000,,,1970.0,2023.0,4.0,10432685004,1,50315,False,,ראשון לציון,חיל הרגלים,,5031-5-44,5031/5,,31.9968560568,34.7427253786,2024
2024-06-13,2024-06-13,"ביאליק 5, ראשון לציון",ביאליק 5,3934-193-7,דירה בבית קומות,3.0,שניה,60.88,2200000,,,1960.0,,4.0,10433610096,1,3934193,False,,ראשון לציון,ביאליק,,3934-193-7,3934/193,36136.66228646517,31.9646273888,34.8017681346,2024
2024-06-13,2024-06-13,"שמואל שרירא 32, ראשון לציון",שמואל שרירא 32,6286-152-10,דירה בבית קומות,5.0,ראשונה,123.0,2690000,,,1970.0,2024.0,5.0,10432082724,1,6286152,False,,ראשון לציון,שרירא שמואל,,6286-152-10,6286/152,21869.91869918699,31.9653575929,34.8216283497,2024
2024-06-08,2024-08-06,"מיכאל וחנה לוין 8, ראשון לציון",מיכאל וחנה לוין 8,6286-154-10,דירה בבית קומות,4.0,שלישית,89.1,1400000,,,1980.0,,6.0,10437047376,1,6286154,False,,ראשון לציון,לוין מיכאל וחנה,,6286-154-10,6286/154,15712.682379349048,31.9652342837,34.8234501401,2024
2024-06-08,2024-08-06,"וולפסון 9, ראשון לציון",וולפסון 9,3926-256-11,דירה בבית קומות,3.0,שלישית,62.77,2100000,,,1970.0,,5.0,10436599656,1,3926256,False,37% ב 4.1 שנים,ראשון לציון,וולפסון,9.02,3926-256-11,3926/256,33455.47235940736,31.9621149146,34.7990371646,2024
2024-06-08,2024-08-06,"הצופים 4, ראשון לציון",הצופים 4,3939-440-15,דירה בבית קומות,3.0,רביעית,78.69,2280000,,,2001.0,,10.0,10436730696,1,3939440,False,65% ב 9.5 שנים,ראשון לציון,הצופים,6.84,3939-440-15,3939/440,28974.456728936333,31.9739064971,34.81401327,2024
2024-06-08,2024-08-06,"הגדוד העברי 85, ראשון לציון",הגדוד העברי 85,3929-869-3,דירה בבית קומות,5.0,ראשונה,110.14,2650000,,,2012.0,,6.0,10436662152,1,3929869,False,70% ב 13 שנים,ראשון לציון,הגדוד העברי,5.38,3929-869-3,3929/869,24060.28690757218,31.9710026278,34.8098848622,2024
2024-06-08,2024-08-06,"זלמן שניאור 40, ראשון לציון",זלמן שניאור 40,7281-39-5,דירה בבית קומות,4.0,שניה,80.0,2200000,,,1975.0,,4.0,10436501208,1,728139,False,,ראשון לציון,שניאור זלמן,,7281-39-5,7281/39,27500.0,31.988299722,34.7876556262,2024
2024-06-08,2024-08-06,"ביאליק 2, ראשון לציון",ביאליק 2,3934-69-21,דירה בבית קומות,4.0,שלישית,111.57,2030000,,,1970.0,,8.0,10440705156,1,393469,False,57% ב 9.2 שנים,ראשון לציון,ביאליק,6.2,3934-69-21,3934/69,18194.85524782648,31.9642993689,34.802149376,2024
2024-06-06,2024-06-06,"סמילנסקי 15, ראשון לציון",סמילנסקי 15,3936-134-8,דירה בבית קומות,5.0,רביעית,123.79,2950000,,,1993.0,,6.0,10430998956,1,3936134,False,,ראשון לציון,סמילנסקי,,3936-134-8,3936/134,23830.680992002584,31.9577792905,34.8057268349,2024
2024-06-06,2024-06-06,"חזון איש 6, ראשון לציון",חזון איש 6,3929-306-9,דירה בבית קומות,4.0,רביעית,75.85,616666,,,1970.0,,4.0,10430842296,1,3929306,False,,ראשון לציון,חזון איש,,3929-306-9,3929/306,8130.072511535926,31.9675263925,34.8085231745,2024
2024-06-06,2024-06-06,"תרמ""ב 30, ראשון לציון","תרמ""ב 30",3928-273-29,דירה בבית קומות,4.0,שישית,80.51,1840000,,,1970.0,,11.0,10433332812,1,3928273,False,,ראשון לציון,"תרמ""ב",,3928-273-29,3928/273,22854.303813190905,31.9668334296,34.8000588648,2024
2024-06-06,2024-06-06,"רוטנברג 3, ראשון לציון",רוטנברג 3,3934-174-15,דירה בבית קומות,2.5,שלישית,53.86,1380000,,,1960.0,,3.0,10430596344,1,3934174,False,,ראשון לציון,רוטנברג,,3934-174-15,3934/174,25621.98291867805,31.9627917356,34.8015072719,2024
2024-06-05,2024-05-06,"נחמה 21, ראשון לציון",נחמה 21,3932-94-4,דירה בבית קומות,2.5,ראשונה,63.25,1560000,,,1940.0,,3.0,10427982936,1,393294,False,7% ב 2.5 שנים,ראשון לציון,נחמה,2.8,3932-94-4,3932/94,24664.03162055336,31.964896376,34.8101705423,2024
2024-06-05,2024-05-06,"בן אליעזר 34, ראשון לציון",בן אליעזר 34,3926-1049-10,דירה בבית קומות,4.5,שלישית,114.97,2500000,,,1992.0,,7.0,10430389788,1,39261049,False,,ראשון לציון,בן אליעזר,,3926-1049-10,3926/1049,21744.802992084893,31.9578481342,34.7944113083,2024
2024-06-05,2024-05-06,"התזמורת 8, ראשון לציון",התזמורת 8,5182-23-6,דירה בבית קומות,3.0,שניה,69.38,2000000,,,1997.0,,13.0,10427827116,1,518223,False,,ראשון לציון,התזמורת,,5182-23-6,5182/23,28826.75122513693,31.9664629967,34.7736453159,2024
2024-06-05,2024-05-06,"זדל 5, ראשון לציון",זדל 5,3935-149-2,דירה בבית קומות,3.0,שביעית,89.0,2650000,,,1998.0,,1.0,10429467384,1,3935149,False,,ראשון לציון,זדל,,3935-149-2,3935/149,29775.280898876405,31.9630841933,34.8052978005,2024
2024-06-05,2024-05-06,"שיבת ציון 7, ראשון לציון",שיבת ציון 7,3937-294-11,דירה בבית קומות,3.0,שלישית,65.58,2120000,,,1980.0,,4.0,10427753616,1,3937294,False,40% ב 4.5 שנים,ראשון לציון,שיבת ציון,8.89,3937-294-11,3937/294,32326.92894175053,31.9615190682,34.8121017631,2024
2024-06-04,2024-04-06,,,6286-321-8,,6.0,שניה,135.0,3910000,1.0,,,,,11181271044,2,6286321,False,,ראשון לציון,ההתיישבות,,6286-321-8,6286/321,28962.962962962964,31.9689374466,34.8253099641,2024
