DEALDATE,DEALDATETIME,FULLADRESS,DISPLAYADRESS,GUSH,DEALNATUREDESCRIPTION,ASSETROOMNUM,FLOORNO,DEALNATURE,DEALAMOUNT,NEWPROJECTTEXT,PROJECTNAME,BUILDINGYEAR,YEARBUILT,BUILDINGFLOORS,KEYVALUE,TYPE,POLYGON_ID,TREND_IS_NEGATIVE,TREND_FORMAT,city_name,street,presentage per year,GUSH - Copy,Gush_Helka,Price per sqm,lat,lon,Year
2010-12-31,2010-12-31,"יונה בן-אמיתי 13, בית שמש",יונה בן-אמיתי 13,34357-10-58,דירה בבית קומות,3.0,רביעית,77.3,749000,,,2010.0,,5.0,3330267780,1,3435710,False,,בית שמש,יונה בן אמיתי,,34357-10-58,34357/10,9689.521345407504,31.7055638357,34.9865884159,2010
2010-12-31,2010-12-31,"נחל הבשור 10, בית שמש",נחל הבשור 10,34270-33-9,דירה בבית קומות,4.0,שניה,103.35,1180000,,,1999.0,,4.0,3330120720,1,3427033,False,,בית שמש,נחל הבשור,,34270-33-9,34270/33,11417.513304305758,31.7095171089,34.9996160545,2010
2010-12-30,2010-12-30,"נחל שחם 1, בית שמש",נחל שחם 1,34274-61-5,דירה בבית קומות,4.0,שלישית,100.05,1495000,,,2008.0,,5.0,3330198930,1,3427461,False,,בית שמש,נחל שחם,,34274-61-5,34274/61,14942.528735632184,31.712494791,34.9900099058,2010
2010-12-30,2010-12-30,"יונה בן-אמיתי 9, בית שמש",יונה בן-אמיתי 9,34357-10-34,דירה בבית קומות,3.0,רביעית,77.3,749000,,,2013.0,,5.0,3330055890,1,3435710,False,,בית שמש,יונה בן אמיתי,,34357-10-34,34357/10,9689.521345407504,31.7055638357,34.9865884159,2010
2010-12-30,2010-12-30,"יונה בן-אמיתי 9, בית שמש",יונה בן-אמיתי 9,34357-10-32,דירה בבית קומות,3.0,שלישית,75.1,859000,,,2013.0,,5.0,3330056130,1,3435710,False,,בית שמש,יונה בן אמיתי,,34357-10-32,34357/10,11438.082556591213,31.7055638357,34.9865884159,2010
2010-12-30,2010-12-30,"רבי יוסי בן-קיסמא 9, בית שמש",רבי יוסי בן-קיסמא 9,5943-45-16,ללא תיכנון,,רביעית,63.9,3000000,,,2003.0,,4.0,3330448710,1,594345,False,,בית שמש,רבי יוסי בן קיסמא,,5943-45-16,5943/45,46948.35680751174,31.7357035791,34.9978739037,2010
2010-12-29,2010-12-29,"הסביון 2, בית שמש",הסביון 2,5220-81-7,דירה בבית קומות,4.0,שלישית,72.55,600000,,,1980.0,,3.0,3330007380,1,522081,False,71% ב 3.4 שנים,בית שמש,הסביון,20.88,5220-81-7,5220/81,8270.158511371468,31.7386233277,34.9814368521,2010
2010-12-28,2010-12-28,"נחל הקישון 19, בית שמש",נחל הקישון 19,34274-20-25,דירה בבית קומות,4.0,ראשונה,104.7,1432000,,,2000.0,,4.0,3330345240,1,3427420,False,123% ב 10.7 שנים,בית שמש,נחל הקישון,11.5,34274-20-25,34274/20,13677.17287488061,31.7151571289,34.9899367345,2010
2010-12-28,2010-12-28,"נחל אלכסנדר 6, בית שמש",נחל אלכסנדר 6,34269-6-15,דירה בבית קומות,6.0,"מרתף,קרקע,ראשונה",165.0,2411000,,,2003.0,,2.0,3305338590,1,342696,False,,בית שמש,נחל אלכסנדר,,34269-6-15,34269/6,14612.121212121212,31.7118169678,35.0008148272,2010
2010-12-27,2010-12-27,"רבי יהודה צדקה 2, בית שמש",רבי יהודה צדקה 2,5935-22-101,דירה בבית קומות,5.0,,115.0,1050000,,,2004.0,,7.0,3330297720,1,593522,False,,בית שמש,רבי צדקה יהודה,,5935-22-101,5935/22,9130.434782608696,31.74448978,34.9986599105,2010
2010-12-27,2010-12-27,"יחזקאל הנביא 5, בית שמש",יחזקאל הנביא 5,34356-22-54,דירה בבית קומות,4.0,חמישית,77.55,832000,,,2010.0,,6.0,3330044010,1,3435622,False,,בית שמש,יחזקאל הנביא,,34356-22-54,34356/22,10728.56221792392,31.7044165458,34.9804760878,2010
2010-12-23,2010-12-23,"רבי יהודה צדקה 1, בית שמש",רבי יהודה צדקה 1,5935-23-27,דירה בבית קומות,4.0,,100.0,920000,,,2008.0,,5.0,3330297960,1,593523,False,,בית שמש,רבי צדקה יהודה,,5935-23-27,5935/23,9200.0,31.7442108931,34.9994565754,2010
2010-12-22,2010-12-22,"מנחת יצחק 10, בית שמש",מנחת יצחק 10,5379-30-6,דירה בבית קומות,3.0,שניה,71.0,850000,,,1990.0,,3.0,3305234910,1,537930,False,107% ב 10.5 שנים,בית שמש,מנחת יצחק,10.19,5379-30-6,5379/30,11971.830985915492,31.7387605264,34.9937488813,2010
2010-12-20,2010-12-20,"הנורית 51, בית שמש",הנורית 51,5219-31-1,דירה בבית קומות,3.0,קרקע,67.0,840000,,,1970.0,,1.0,3330156090,1,521931,False,80% ב 6.4 שנים,בית שמש,הנורית,12.5,5219-31-1,5219/31,12537.31343283582,31.7396021352,34.9768400868,2010
2010-12-20,2010-12-20,"בן איש חי 34, בית שמש",בן איש חי 34,5935-19-66,קומבינציה,4.0,קומה ‎7‏,93.82,900000,,,2010.0,,8.0,3331702500,1,593519,False,,בית שמש,בן איש חי,,5935-19-66,5935/19,9592.83734811341,31.7470632432,35.0009993894,2010
2010-12-20,2010-12-20,"נהר הירדן 14, בית שמש",נהר הירדן 14,5151-20-70,דירה בבית קומות,3.0,,85.0,797000,,,2003.0,,6.0,3305296020,1,515120,False,,בית שמש,נהר הירדן,,5151-20-70,5151/20,9376.470588235294,31.7354716671,34.9918788666,2010
2010-12-20,2010-12-20,"המורה יעקב 1, בית שמש",המורה יעקב 1,5212-30-1,דירת גן,4.0,ראשונה,74.9,1750000,,,1950.0,,1.0,3305288580,1,521230,False,,בית שמש,המורה יעקב,,5212-30-1,5212/30,23364.485981308408,31.7482111534,34.9881204284,2010
2010-12-20,2010-12-20,"חבקוק הנביא 6, בית שמש",חבקוק הנביא 6,34355-93-18,דירה בבית קומות,5.0,שלישית,121.8,1170000,,,2011.0,,5.0,3305215830,1,3435593,False,,בית שמש,חבקוק הנביא,,34355-93-18,34355/93,9605.91133004926,31.7061438559,34.9837921598,2010
2010-12-19,2010-12-19,"הנורית 43, בית שמש",הנורית 43,5219-36-8,דירה בבית קומות,3.0,ראשונה,67.0,851000,,,1980.0,,1.0,3305289300,1,521936,False,,בית שמש,הנורית,,5219-36-8,5219/36,12701.492537313432,31.7394085687,34.9772404984,2010
2010-12-19,2010-12-19,"שפת אמת 7, בית שמש",שפת אמת 7,5381-17-8,דירה בבית קומות,4.0,,100.0,1040000,,,1992.0,,1.0,3305161590,1,538117,False,,בית שמש,שפת אמת,,5381-17-8,5381/17,10400.0,31.7409657371,34.9957625028,2010
2010-12-19,2010-12-19,"דובר שלום 2, בית שמש",דובר שלום 2,5151-20-24,דירה,3.0,שניה,75.0,797331,1.0,לבנה ברמה,2003.0,,6.0,11181250813,1,515120,False,,בית שמש,דובר שלום,,5151-20-24,5151/20,10631.08,31.7354716671,34.9918788666,2010
2010-12-16,2010-12-16,"יונה בן-אמיתי 11, בית שמש",יונה בן-אמיתי 11,34357-10-41,דירה בבית קומות,4.0,שניה,87.3,1070000,,,2011.0,,5.0,3305216850,1,3435710,False,,בית שמש,יונה בן אמיתי,,34357-10-41,34357/10,12256.586483390607,31.7055638357,34.9865884159,2010
2010-12-15,2010-12-15,"נחל אורייה 3, בית שמש",נחל אורייה 3,34276-11-26,דירה בבית קומות,6.0,שלישית +רביעית,153.7,1790000,,,1999.0,,4.0,3305257860,1,3427611,False,,בית שמש,נחל אוריה,,34276-11-26,34276/11,11646.063760572544,31.7163818548,34.9911865002,2010
2010-12-15,2010-12-15,"הרצל 6, בית שמש",הרצל 6,5209-59-1,דירה בבית קומות,4.0,ראשונה,110.0,950000,,,1970.0,,2.0,3330078660,1,520959,False,,בית שמש,הרצל,,5209-59-1,5209/59,8636.363636363636,31.7499337439,34.98772754,2010
2010-12-15,2010-12-15,"לב שמחה 10, בית שמש",לב שמחה 10,5380-25-11,דירה בבית קומות,3.0,שלישית,66.0,1070000,,,1995.0,,3.0,3305189640,1,538025,False,,בית שמש,לב שמחה,,5380-25-11,5380/25,16212.121212121212,31.7366643748,34.9958042187,2010
2010-12-15,2010-12-15,"צפת 1, בית שמש",צפת 1,34279-70-45,דירה בבית קומות,5.0,"קרקע, ראשונה",133.05,1640000,,,2010.0,,1.0,3330062310,1,3427970,False,,בית שמש,צפת,,34279-70-45,34279/70,12326.19316046599,31.7134972834,34.9856880922,2010
2010-12-14,2010-12-14,"חבקוק הנביא 6, בית שמש",חבקוק הנביא 6,34355-93-19,דירה בבית קומות,4.0,רביעית,94.45,975000,,,2011.0,,5.0,3305217090,1,3435593,False,,בית שמש,חבקוק הנביא,,34355-93-19,34355/93,10322.922181048174,31.7061438559,34.9837921598,2010
2010-12-13,2010-12-13,"בר-אילן 6, בית שמש",בר-אילן 6,5239-30-4,דירה בבית קומות,4.0,ראשונה,80.0,829000,,,1993.0,,6.0,3305185650,1,523930,False,,בית שמש,בר אילן,,5239-30-4,5239/30,10362.5,31.7420162876,34.9916869179,2010
2010-12-09,2010-09-12,"רבי יהודה צדקה 2, בית שמש",רבי יהודה צדקה 2,5935-22-102,דירה בבית קומות,3.0,,75.0,840000,,,2004.0,,7.0,3303924120,1,593522,False,,בית שמש,רבי צדקה יהודה,,5935-22-102,5935/22,11200.0,31.74448978,34.9986599105,2010
2010-12-08,2010-08-12,"מעפילי אגוז 6, בית שמש",מעפילי אגוז 6,5546-5-6,דירה בבית קומות,3.0,,75.0,1100000,,,1994.0,,2.0,3303775830,1,55465,False,,בית שמש,מעפילי אגוז,,5546-5-6,5546/5,14666.666666666666,31.7401445145,34.9907154685,2010
2010-12-08,2010-08-12,"נחל רביבים 12, בית שמש",נחל רביבים 12,34271-33-9,דירה בבית קומות,4.0,שניה,110.35,1300000,,,1996.0,,4.0,3303405330,1,3427133,False,,בית שמש,נחל רביבים,,34271-33-9,34271/33,11780.697779791572,31.7115408359,34.9945407266,2010
2010-12-08,2010-08-12,"נפתלי 41, בית שמש",נפתלי 41,5544-3-3,דירה בבית קומות,4.0,,98.0,1000000,,,1996.0,,2.0,3303471180,1,55443,False,,בית שמש,נפתלי,,5544-3-3,5544/3,10204.081632653062,31.7389916098,34.9825430552,2010
2010-12-07,2010-07-12,"הגפן 18, בית שמש",הגפן 18,5213-126-11,דירה בבית קומות,4.0,שניה,79.6,750000,,,1980.0,,4.0,3303355830,1,5213126,False,94% ב 9 שנים,בית שמש,הגפן,10.44,5213-126-11,5213/126,9422.11055276382,31.7464986176,34.9874071335,2010
2010-12-07,2010-07-12,"הגפן 18, בית שמש",הגפן 18,5213-126-9,דירה בבית קומות,4.0,ראשונה,79.6,800000,,,1980.0,,4.0,3303355590,1,5213126,False,,בית שמש,הגפן,,5213-126-9,5213/126,10050.251256281408,31.7464986176,34.9874071335,2010
2010-12-07,2010-07-12,"הגפן 43, בית שמש",הגפן 43,5238-2-2,דירה בבית קומות,4.0,קרקע,96.8,1150000,,,1970.0,,,3303068700,1,52382,False,,בית שמש,הגפן,,5238-2-2,5238/2,11880.165289256198,31.7461993941,34.9858532093,2010
2010-12-05,2010-05-12,"הרצל 36, בית שמש",הרצל 36,5208-119-11,דירה בבית קומות,3.0,שלישית,67.5,645000,,,1970.0,,3.0,3302444340,1,5208119,False,37% ב 10.5 שנים,בית שמש,הרצל,3.52,5208-119-11,5208/119,9555.555555555557,31.7493817897,34.994147761,2010
2010-12-05,2010-05-12,"קדושת אהרון 11, בית שמש",קדושת אהרון 11,5151-13-72,דירה בבית קומות,4.0,ראשונה,91.0,810000,1.0,קרית בעלזא,2010.0,,7.0,3302046840,1,515113,False,,בית שמש,קדושת אהרון,,5151-13-72,5151/13,8901.098901098901,31.7358300036,34.9890737065,2010
2010-11-30,2010-11-30,"אחיעזר 2, בית שמש",אחיעזר 2,5381-7-1,דירה בבית קומות,3.0,,79.0,990000,,,1993.0,,,3305226720,1,53817,False,,בית שמש,אחיעזר,,5381-7-1,5381/7,12531.645569620254,31.7412055911,34.9940386079,2010
2010-11-30,2010-11-30,"נהר הירדן 14, בית שמש",נהר הירדן 14,5151-20-71,דירה בבית קומות,4.0,,100.0,977000,,,2003.0,,6.0,3305043810,1,515120,False,,בית שמש,נהר הירדן,,5151-20-71,5151/20,9770.0,31.7354716671,34.9918788666,2010
2010-11-30,2010-11-30,"הרצל 38, בית שמש",הרצל 38,5208-120-18,דירה בבית קומות,4.0,שלישית,67.5,825000,,,1970.0,,3.0,3305146290,1,5208120,False,,בית שמש,הרצל,,5208-120-18,5208/120,12222.222222222224,31.7491772821,34.9946765607,2010
2010-11-30,2010-11-30,"הר גבנונים 21, בית שמש",הר גבנונים 21,5215-3-24,דירה בבית קומות,7.0,קרקע ראשונה ושניה,155.4,1800000,,,2000.0,,2.0,3305144790,1,52153,False,,בית שמש,הר גבנונים,,5215-3-24,5215/3,11583.011583011585,31.7461059871,34.9967118478,2010
2010-11-28,2010-11-28,"נחל צאלים 6, בית שמש",נחל צאלים 6,34278-41-4,חנות,,שלישית,452.9,1000000,,,2000.0,,3.0,3305306160,1,3427841,False,,בית שמש,נחל צאלים,,34278-41-4,34278/41,2207.99293442261,31.7128575836,34.9875845502,2010
2010-11-28,2010-11-28,"הנורית 49, בית שמש",הנורית 49,5219-33-1,דירה בבית קומות,3.0,קרקע,67.0,735000,,,1980.0,,1.0,3304922760,1,521933,False,70% ב 2.5 שנים,בית שמש,הנורית,28.0,5219-33-1,5219/33,10970.149253731342,31.7392038208,34.9767038276,2010
2010-11-28,2010-11-28,"ראובן 16, בית שמש",ראובן 16,5545-7-17,דירה בבית קומות,4.0,,115.0,1425000,,,2000.0,,3.0,3304866330,1,55457,False,,בית שמש,ראובן,,5545-7-17,5545/7,12391.304347826086,31.740037033,34.9864509069,2010
2010-11-25,2010-11-25,"הגפן 18, בית שמש",הגפן 18,5213-126-8,דירה בבית קומות,4.0,רביעית,79.6,565000,,,1980.0,,4.0,3304849500,1,5213126,False,,בית שמש,הגפן,,5213-126-8,5213/126,7097.989949748744,31.7464986176,34.9874071335,2010
2010-11-25,2010-11-25,"בן איש חי 30, בית שמש",בן איש חי 30,5935-19-11,דירה בבית קומות,3.0,קומה ‎4‏,67.08,770000,,,2008.0,,8.0,3330075210,1,593519,False,,בית שמש,בן איש חי,,5935-19-11,5935/19,11478.831246273106,31.7470632432,35.0009993894,2010
2010-11-23,2010-11-23,"יחזקאל הנביא 5, בית שמש",יחזקאל הנביא 5,34356-22-50,דירה בבית קומות,4.0,שלישית,101.65,900000,,,2012.0,,5.0,3304781190,1,3435622,False,,בית שמש,יחזקאל הנביא,,34356-22-50,34356/22,8853.910477127398,31.7044165458,34.9804760878,2010
2010-11-22,2010-11-22,"נחל מיכה 4, בית שמש",נחל מיכה 4,34276-8-14,דירה בבית קומות,4.0,שניה,87.3,1228000,,,1999.0,,3.0,3304887180,1,342768,False,,בית שמש,נחל מיכה,,34276-8-14,34276/8,14066.43757159221,31.7165161026,34.9928973381,2010
2010-11-21,2010-11-21,"המכתש 14, בית שמש",המכתש 14,5201-3-1,קוטג' דו משפחתי,6.0,ראשונה,180.0,1260000,,,1970.0,,1.0,3330305850,1,52013,False,67% ב 5.6 שנים,בית שמש,המכתש,11.96,5201-3-1,5201/3,7000.0,31.7530315373,34.9806631935,2010
2010-11-21,2010-11-21,"הנורית 41, בית שמש",הנורית 41,5219-38-2,דירה בבית קומות,3.0,קרקע,67.0,852000,,,1970.0,,2.0,3304787130,1,521938,False,133% ב 5.2 שנים,בית שמש,הנורית,25.58,5219-38-2,5219/38,12716.41791044776,31.7390704101,34.9771132041,2010
2010-11-21,2010-11-21,"הגולן 9, בית שמש",הגולן 9,5216-4-7,דירה בבית קומות,4.0,קרקע,81.2,1020000,,,1995.0,,2.0,3304741110,1,52164,False,,בית שמש,הגולן,,5216-4-7,5216/4,12561.576354679804,31.7440150556,34.9921805536,2010
2010-11-21,2010-11-21,"נחל נועם 5, בית שמש",נחל נועם 5,34271-28-9,דירה בבית קומות,5.5,שלישית,107.0,1035000,,,1999.0,,5.0,3304744080,1,3427128,False,,בית שמש,נחל נועם,,34271-28-9,34271/28,9672.897196261682,31.7112445241,34.9925130744,2010
2010-11-20,2010-11-20,"רפאל אלנקווה 9, בית שמש",רפאל אלנקווה 9,5213-112-5,דירה בבית קומות,4.0,שלישית,79.6,590000,,,1970.0,,4.0,3305304690,1,5213112,False,,בית שמש,אלנקוה רפאל,,5213-112-5,5213/112,7412.060301507538,31.7471945779,34.9852562777,2010
2010-11-19,2010-11-19,"המורה יעקב 3, בית שמש",המורה יעקב 3,5212-31-2,דירה בבית קומות,6.0,ראשונה,150.0,1300000,,,1975.0,,1.0,3304966350,1,521231,False,,בית שמש,המורה יעקב,,5212-31-2,5212/31,8666.666666666666,31.7480610513,34.9884200498,2010
2010-11-17,2010-11-17,"נחל ניצנים 10, בית שמש",נחל ניצנים 10,34278-36-50,דירה בבית קומות,3.0,,70.0,850000,,,2000.0,,2.0,3304806210,1,3427836,False,,בית שמש,נחל ניצנים,,34278-36-50,34278/36,12142.857142857143,31.7131317405,34.9885058935,2010
2010-11-17,2010-11-17,"יצחק רבין 2, בית שמש",יצחק רבין 2,5208-79-25,חנות,,,,60000,,,1970.0,,1.0,3304923540,1,520879,False,,בית שמש,רבין יצחק,,5208-79-25,5208/79,,31.7486008074,34.9943103971,2010
2010-11-17,2010-11-17,"מעפילי אגוז 12, בית שמש",מעפילי אגוז 12,5546-8-2,דירה בבית קומות,4.5,,100.0,950000,,,1990.0,,1.0,3304830210,1,55468,False,,בית שמש,מעפילי אגוז,,5546-8-2,5546/8,9500.0,31.7392791514,34.9912038764,2010
2010-11-16,2010-11-16,"נחל רפאים 29, בית שמש",נחל רפאים 29,34271-27-16,דירה בבית קומות,5.0,שלישית+ רביעית + חמישית,155.8,1820000,,,2007.0,,3.0,3304769370,1,3427127,False,,בית שמש,נחל רפאים,,34271-27-16,34271/27,11681.643132220795,31.7123172844,34.9962486588,2010
2010-11-16,2010-11-16,"נהר הירדן 14, בית שמש",נהר הירדן 14,5151-20-72,דירה בבית קומות,3.0,,85.0,756000,,,2003.0,,6.0,3305044500,1,515120,False,,בית שמש,נהר הירדן,,5151-20-72,5151/20,8894.117647058823,31.7354716671,34.9918788666,2010
2010-11-16,2010-11-16,"קרן היסוד 3, בית שמש",קרן היסוד 3,5208-162-2,דירה בבית קומות,3.0,קרקע,49.0,645000,,,1970.0,,2.0,3304648110,1,5208162,False,,בית שמש,קרן היסוד,,5208-162-2,5208/162,13163.265306122448,31.7495888748,34.9930391674,2010
2010-11-15,2010-11-15,"דובר שלום 2, בית שמש",דובר שלום 2,5151-20-22,דירה,4.0,רביעית,98.0,854146,1.0,לבנה ברמה,2003.0,,6.0,11181250811,1,515120,False,,בית שמש,דובר שלום,,5151-20-22,5151/20,8715.775510204081,31.7354716671,34.9918788666,2010
2010-11-15,2010-11-15,"החרש 5, בית שמש",החרש 5,5205-1-1,חנות,,,209.0,800000,,,1995.0,,,3305298510,1,52051,False,,בית שמש,החרש,,5205-1-1,5205/1,3827.751196172249,31.7573465236,34.9907910563,2010
2010-11-15,2010-11-15,"דובר שלום 2, בית שמש",דובר שלום 2,5151-20-21,דירה,3.0,רביעית,75.0,756960,1.0,לבנה ברמה,2003.0,,6.0,11181250810,1,515120,False,,בית שמש,דובר שלום,,5151-20-21,5151/20,10092.8,31.7354716671,34.9918788666,2010
2010-11-11,2010-11-11,"נחל שורק 21, בית שמש",נחל שורק 21,34274-19-13,דירה בבית קומות,3.0,ראשונה,84.8,1164000,,,2000.0,,3.0,3304829490,1,3427419,False,,בית שמש,נחל שורק,,34274-19-13,34274/19,13726.415094339623,31.7151605765,34.9909774715,2010
2010-11-10,2010-10-11,"השבעה 1, בית שמש",השבעה 1,5210-65-15,דירה בבית קומות,5.0,שניה,90.0,850000,,,1970.0,,3.0,3304546110,1,521065,False,,בית שמש,השבעה,,5210-65-15,5210/65,9444.444444444443,31.7497260331,34.9861726263,2010
2010-11-10,2010-10-11,"עמק הזיתים 16, בית שמש",עמק הזיתים 16,5212-95-2,דירה בבית קומות,5.0,ראשונה,125.0,935000,,,1980.0,,1.0,3304911660,1,521295,False,,בית שמש,עמק הזיתים,,5212-95-2,5212/95,7480.0,31.7456814535,34.9893319185,2010
2010-11-10,2010-10-11,"קדושת אהרון 11, בית שמש",קדושת אהרון 11,5151-13-109,דירה,4.0,ראשונה,89.0,790000,1.0,קרית בעלזא,2010.0,,7.0,11181250711,1,515113,False,,בית שמש,קדושת אהרון,,5151-13-109,5151/13,8876.404494382023,31.7358300036,34.9890737065,2010
2010-11-10,2010-10-11,"קדושת אהרון 11, בית שמש",קדושת אהרון 11,5151-13-108,דירה,4.0,,91.0,780000,1.0,קרית בעלזא,2010.0,,7.0,11181250710,1,515113,False,,בית שמש,קדושת אהרון,,5151-13-108,5151/13,8571.42857142857,31.7358300036,34.9890737065,2010
2010-11-06,2010-06-11,"נחל דולב 52, בית שמש",נחל דולב 52,34270-30-41,דירה בבית קומות,4.0,שניה,96.45,1100000,,,1998.0,,5.0,3302483970,1,3427030,False,,בית שמש,נחל דולב,,34270-30-41,34270/30,11404.872991187143,31.7101500901,34.9988279583,2010
2010-11-05,2010-05-11,"קדושת אהרון 11, בית שמש",קדושת אהרון 11,5151-13-71,דירה,3.0,שניה,79.0,675000,1.0,קרית בעלזא,2010.0,,7.0,11181250773,1,515113,False,,בית שמש,קדושת אהרון,,5151-13-71,5151/13,8544.303797468354,31.7358300036,34.9890737065,2010
2010-11-04,2010-04-11,"מאיר 1146, בית שמש",מאיר 1146,5211-152-7,דירה בבית קומות,4.0,רביעית,79.0,520000,,,1970.0,,4.0,3301634490,1,5211152,False,34% ב 7.1 שנים,בית שמש,נתיב מאיר,4.79,5211-152-7,5211/152,6582.278481012659,31.74933997,34.9816970928,2010
2010-11-04,2010-04-11,"הצבע 3, בית שמש",הצבע 3,5206-54-1,תעשיה,,ראשונה,448.19,1380000,,,1965.0,,3.0,3302026500,1,520654,False,,בית שמש,הצבע,,5206-54-1,5206/54,3079.051295209621,31.7547295434,34.9946818021,2010
2010-11-04,2010-04-11,"הל""ה 14, בית שמש","הל""ה 14",5207-18-7,דירה בבית קומות,3.0,,75.0,957000,,,2006.0,,,3301665900,1,520718,False,,בית שמש,"הל""ה",,5207-18-7,5207/18,12760.0,31.7499222316,34.9966747491,2010
2010-11-02,2010-02-11,"האשל 46, בית שמש",האשל 46,5202-13-1,דירה בבית קומות,5.0,ראשונה,126.0,1360000,,,2000.0,,,3300848910,1,520213,False,,בית שמש,האשל,,5202-13-1,5202/13,10793.650793650791,31.7530677098,34.9952293527,2010
2010-11-02,2010-02-11,"נחל עין גדי 25, בית שמש",נחל עין גדי 25,34277-7-30,דירה בבית קומות,5.0,שניה,112.55,1300000,,,1995.0,,2.0,3300918240,1,342777,False,,בית שמש,נחל עין גדי,,34277-7-30,34277/7,11550.422034651268,31.7156473317,34.9820971004,2010
2010-11-02,2010-02-11,"נחל דולב 49, בית שמש",נחל דולב 49,34272-8-11,דירה בבית קומות,3.0,ראשונה,85.04,880000,,,1999.0,,2.0,3300847440,1,342728,False,,בית שמש,נחל דולב,,34272-8-11,34272/8,10348.071495766697,31.7148117029,34.9990459689,2010
2010-11-01,2010-01-11,"קדושת אהרון 11, בית שמש",קדושת אהרון 11,5151-13-22,דירה בבית קומות,4.0,,88.0,770000,1.0,קרית בעלזא,2010.0,,7.0,3300520710,1,515113,False,,בית שמש,קדושת אהרון,,5151-13-22,5151/13,8750.0,31.7358300036,34.9890737065,2010
2010-11-01,2010-01-11,"קדושת אהרון 11, בית שמש",קדושת אהרון 11,5151-13-23,דירה,4.0,ראשונה,88.0,790000,1.0,קרית בעלזא,2010.0,,7.0,11181250727,1,515113,False,,בית שמש,קדושת אהרון,,5151-13-23,5151/13,8977.272727272728,31.7358300036,34.9890737065,2010
2010-10-31,2010-10-31,"נחל לכיש 30, בית שמש",נחל לכיש 30,34274-12-8,דירה בבית קומות,3.0,שלישית,68.7,700000,,,2000.0,,5.0,3304583700,1,3427412,False,,בית שמש,נחל לכיש,,34274-12-8,34274/12,10189.228529839884,31.7126928699,34.9922207417,2010
2010-10-31,2010-10-31,"בן-אליעזר 6, בית שמש",בן-אליעזר 6,5240-50-21,דירה בבית קומות,3.0,חמישית,64.8,640000,,,1980.0,,7.0,3304837860,1,524050,False,,בית שמש,בן אליעזר,,5240-50-21,5240/50,9876.543209876543,31.7419283083,34.9827345155,2010
2010-10-31,2010-10-31,"בן-אליעזר 14, בית שמש",בן-אליעזר 14,5240-55-14,דירה בבית קומות,3.0,שלישית,64.8,640000,,,1980.0,,7.0,3304436970,1,524055,False,,בית שמש,בן אליעזר,,5240-55-14,5240/55,9876.543209876543,31.7408680244,34.9824289701,2010
2010-10-29,2010-10-29,"רש""י 3, בית שמש","רש""י 3",5546-3-8,דירה בבית קומות,4.5,,110.0,1115000,,,1996.0,,2.0,3304489440,1,55463,False,,בית שמש,"רש""י",,5546-3-8,5546/3,10136.363636363636,31.7404020513,34.9901874688,2010
2010-10-29,2010-10-29,"הרטוב 4, בית שמש",הרטוב 4,5232-17-25,דירה בבית קומות,4.5,שניה,87.6,850000,,,1980.0,,3.0,3304488660,1,523217,False,,בית שמש,הרטוב,,5232-17-25,5232/17,9703.196347031964,31.7473173076,34.9945103686,2010
2010-10-28,2010-10-28,"קדושת אהרון 11, בית שמש",קדושת אהרון 11,5151-13-111,דירה,3.0,שניה,76.0,725000,1.0,קרית בעלזא,2010.0,,7.0,11181250714,1,515113,False,,בית שמש,קדושת אהרון,,5151-13-111,5151/13,9539.473684210529,31.7358300036,34.9890737065,2010
2010-10-27,2010-10-27,"נחל רביבים 10, בית שמש",נחל רביבים 10,34271-33-24,דירה בבית קומות,3.0,שלישית,81.4,915000,,,1998.0,,4.0,3304350780,1,3427133,False,,בית שמש,נחל רביבים,,34271-33-24,34271/33,11240.78624078624,31.7115408359,34.9945407266,2010
2010-10-27,2010-10-27,"חיד""א 6, בית שמש","חיד""א 6",5934-20-69,דירה בבית קומות,3.5,חמישית,79.75,870000,,,2008.0,,7.0,3304506720,1,593420,False,47% ב 1.5 שנים,בית שמש,"חיד""א",31.33,5934-20-69,5934/20,10909.09090909091,31.7491465451,34.9992394854,2010
2010-10-27,2010-10-27,"נחל רביבים 10, בית שמש",נחל רביבים 10,34271-33-21,דירה בבית קומות,3.0,שניה,81.3,887000,,,1998.0,,4.0,3304386180,1,3427133,False,27% ב 2 שנים,בית שמש,נחל רביבים,13.5,34271-33-21,34271/33,10910.20910209102,31.7115408359,34.9945407266,2010
2010-10-27,2010-10-27,"נחל שורק 31, בית שמש",נחל שורק 31,34278-37-21,דירה בבית קומות,4.0,ראשונה,106.47,1050000,,,2000.0,,4.0,3330084600,1,3427837,False,,בית שמש,נחל שורק,,34278-37-21,34278/37,9861.932938856016,31.7144694701,34.9887319219,2010
2010-10-26,2010-10-26,"נחל מאור 8, בית שמש",נחל מאור 8,34270-36-16,דירה בבית קומות,5.0,ראשונה,127.2,1250000,,,2000.0,,6.0,3304529280,1,3427036,False,14% ב 3 שנים,בית שמש,נחל מאור,4.67,34270-36-16,34270/36,9827.044025157233,31.7092364247,35.0006806368,2010
2010-10-24,2010-10-24,"הרצל 24, בית שמש",הרצל 24,5208-70-9,דירה בבית קומות,3.0,שלישית,44.5,560000,,,1960.0,,3.0,3304357950,1,520870,False,,בית שמש,הרצל,,5208-70-9,5208/70,12584.269662921348,31.7493031793,34.9912394055,2010
2010-10-21,2010-10-21,"נחל צאלים 14, בית שמש",נחל צאלים 14,34279-69-4,דירה בבית קומות,5.0,"שניה, שלישית, רביעית",169.2,1600000,,,2007.0,,1.0,3304521330,1,3427969,False,,בית שמש,נחל צאלים,,34279-69-4,34279/69,9456.264775413712,31.7136251926,34.9846132197,2010
2010-10-20,2010-10-20,"נחל מטע 5, בית שמש",נחל מטע 5,34272-9-14,דירה בבית קומות,3.5,ראשונה,87.31,900000,,,2000.0,,3.0,3304867800,1,342729,False,,בית שמש,נחל מטע,,34272-9-14,34272/9,10308.097583323788,31.7117341373,34.9988078353,2010
2010-10-19,2010-10-19,"הבנאי 6, בית שמש",הבנאי 6,5206-29-2,חנות,,,220.0,1400000,,,1970.0,,1.0,3304249800,1,520629,False,,בית שמש,הבנאי,,5206-29-2,5206/29,6363.636363636364,31.7559638136,34.9933593992,2010
2010-10-18,2010-10-18,"נהר הירדן 14, בית שמש",נהר הירדן 14,5151-20-74,דירה בבית קומות,3.0,,85.0,860000,,,2003.0,,6.0,3304335960,1,515120,False,,בית שמש,נהר הירדן,,5151-20-74,5151/20,10117.64705882353,31.7354716671,34.9918788666,2010
2010-10-17,2010-10-17,"נחל שמשון 15, בית שמש",נחל שמשון 15,34269-8-13,דירה בבית קומות,4.0,ראשונה,117.55,1110000,,,1998.0,,3.0,3304220880,1,342698,False,,בית שמש,נחל שמשון,,34269-8-13,34269/8,9442.79030199915,31.7133245846,35.0007352269,2010
2010-10-17,2010-10-17,"דובר שלום 2, בית שמש",דובר שלום 2,5151-20-20,דירה,3.0,,85.0,860000,1.0,לבנה ברמה,2003.0,,6.0,11181250809,1,515120,False,,בית שמש,דובר שלום,,5151-20-20,5151/20,10117.64705882353,31.7354716671,34.9918788666,2010
2010-10-14,2010-10-14,"אלברט מנדלר 2, בית שמש",אלברט מנדלר 2,5239-18-10,דירה בבית קומות,4.0,ראשונה,78.2,800000,,,1990.0,,3.0,3304193910,1,523918,False,13% ב 1 שנים,בית שמש,מנדלר אלברט,13.0,5239-18-10,5239/18,10230.179028132992,31.7420142968,34.9888146183,2010
2010-10-13,2010-10-13,"צפת 3, בית שמש",צפת 3,34279-70-42,דירה בבית קומות,5.0,"קרקע, ראשונה",134.9,1650000,,,2006.0,,2.0,3304199370,1,3427970,False,,בית שמש,צפת,,34279-70-42,34279/70,12231.282431430687,31.7134972834,34.9856880922,2010
2010-10-13,2010-10-13,"קדושת אהרון 11, בית שמש",קדושת אהרון 11,5151-13-110,דירה,3.0,שניה,76.0,691900,1.0,קרית בעלזא,2010.0,,7.0,11181250713,1,515113,False,,בית שמש,קדושת אהרון,,5151-13-110,5151/13,9103.947368421052,31.7358300036,34.9890737065,2010
2010-10-13,2010-10-13,"נחל שורק 17, בית שמש",נחל שורק 17,34274-19-44,דירה בבית קומות,5.0,שניה,113.05,1205000,,,2000.0,,3.0,3304194390,1,3427419,False,,בית שמש,נחל שורק,,34274-19-44,34274/19,10659.000442282177,31.7151605765,34.9909774715,2010
2010-10-13,2010-10-13,"נהר הירקון 12, בית שמש",נהר הירקון 12,34270-26-22,דירה בבית קומות,4.0,ראשונה,90.3,1245000,,,1999.0,,3.0,3304246830,1,3427026,False,,בית שמש,נהר הירקון,,34270-26-22,34270/26,13787.375415282391,31.7081818025,34.9981156748,2010
2010-10-11,2010-11-10,"באר שבע 1, בית שמש",באר שבע 1,34278-106-12,דירה בבית קומות,5.0,שניה,112.0,1523000,,,2009.0,,1.0,3304749540,1,34278106,False,,בית שמש,באר שבע,,34278-106-12,34278/106,13598.214285714286,31.7131166148,34.9866630264,2010
2010-10-08,2010-08-10,"נחל דולב 11, בית שמש",נחל דולב 11,34272-6-1,דירה בבית קומות,4.0,ראשונה,92.36,1080000,,,1999.0,,2.0,3303355380,1,342726,False,,בית שמש,נחל דולב,,34272-6-1,34272/6,11693.373754872238,31.7153525319,34.997757033,2010
2010-10-06,2010-06-10,"התבור 12, בית שמש",התבור 12,5232-21-15,דירה בבית קומות,4.0,,104.0,1100000,,,1995.0,,2.0,3302585100,1,523221,False,,בית שמש,התבור,,5232-21-15,5232/21,10576.923076923076,31.7451553221,34.9940798543,2010
2010-10-06,2010-06-10,"קדושת אהרון 11, בית שמש",קדושת אהרון 11,5151-13-87,דירה,4.0,ראשונה,88.0,1025000,1.0,קרית בעלזא,2010.0,,7.0,11181250789,1,515113,False,,בית שמש,קדושת אהרון,,5151-13-87,5151/13,11647.727272727272,31.7358300036,34.9890737065,2010
2010-10-06,2010-06-10,"יקותיאל אדם 3, בית שמש",יקותיאל אדם 3,5239-16-4,דירה בבית קומות,5.5,ראשונה שניה,107.1,1000000,,,1990.0,,3.0,3302446080,1,523916,False,,בית שמש,אדם יקותיאל,,5239-16-4,5239/16,9337.068160597571,31.742381686,34.9895975941,2010
2010-10-05,2010-05-10,"נחל שחם 1, בית שמש",נחל שחם 1,34274-61-7,דירה בבית קומות,4.0,רביעית,90.3,1010000,,,2008.0,,5.0,3302079510,1,3427461,False,,בית שמש,נחל שחם,,34274-61-7,34274/61,11184.939091915836,31.712494791,34.9900099058,2010
2010-10-05,2010-05-10,"קדושת אהרון 11, בית שמש",קדושת אהרון 11,5151-13-69,דירה,3.0,שניה,79.0,675000,1.0,קרית בעלזא,2010.0,,7.0,11181250771,1,515113,False,,בית שמש,קדושת אהרון,,5151-13-69,5151/13,8544.303797468354,31.7358300036,34.9890737065,2010
2010-10-05,2010-05-10,"קדושת אהרון 11, בית שמש",קדושת אהרון 11,5151-13-70,דירה,3.0,ראשונה,79.0,700000,1.0,קרית בעלזא,2010.0,,7.0,11181250772,1,515113,False,,בית שמש,קדושת אהרון,,5151-13-70,5151/13,8860.759493670887,31.7358300036,34.9890737065,2010
2010-10-05,2010-05-10,"נפתלי 21, בית שמש",נפתלי 21,5544-13-1,דירה בבית קומות,5.0,,150.0,1461000,,,2004.0,,,3301984680,1,554413,False,,בית שמש,נפתלי,,5544-13-1,5544/13,9740.0,31.7379802429,34.9833507579,2010
2010-10-03,2010-03-10,"רש""י 1, בית שמש","רש""י 1",5546-1-13,דירה בבית קומות,4.0,,97.0,790000,,,1996.0,,3.0,3301267680,1,55461,False,,בית שמש,"רש""י",,5546-1-13,5546/1,8144.329896907217,31.740691263,34.9905438796,2010
2010-10-02,2010-02-10,"קדושת אהרון 11, בית שמש",קדושת אהרון 11,5151-13-47,דירה,3.0,חמישית,79.0,705000,1.0,קרית בעלזא,2010.0,,7.0,11181250751,1,515113,False,,בית שמש,קדושת אהרון,,5151-13-47,5151/13,8924.050632911392,31.7358300036,34.9890737065,2010
2010-10-02,2010-02-10,"קדושת אהרון 11, בית שמש",קדושת אהרון 11,5151-13-45,דירה,3.0,חמישית,76.0,620000,1.0,קרית בעלזא,2010.0,,7.0,11181250749,1,515113,False,,בית שמש,קדושת אהרון,,5151-13-45,5151/13,8157.894736842105,31.7358300036,34.9890737065,2010
2010-10-02,2010-02-10,"נחל לכיש 3, בית שמש",נחל לכיש 3,34274-17-5,דירה בבית קומות,4.0,שניה,94.7,1100000,,,2002.0,,7.0,3300699900,1,3427417,False,,בית שמש,נחל לכיש,,34274-17-5,34274/17,11615.628299894404,31.714421942,34.9925932314,2010
2010-10-02,2010-02-10,"קדושת אהרון 11, בית שמש",קדושת אהרון 11,5151-13-46,דירה,3.0,חמישית,76.0,625000,1.0,קרית בעלזא,2010.0,,7.0,11181250750,1,515113,False,,בית שמש,קדושת אהרון,,5151-13-46,5151/13,8223.684210526315,31.7358300036,34.9890737065,2010
2010-10-02,2010-02-10,"נחל עין גדי 41, בית שמש",נחל עין גדי 41,34279-34-5,דירה בבית קומות,6.0,"קרקע, ראשונה, שניה, שלישית",233.15,1940000,,,2009.0,,,3300712530,1,3427934,False,,בית שמש,נחל עין גדי,,34279-34-5,34279/34,8320.823504181857,31.7146842387,34.9835896451,2010
2010-10-01,2010-01-10,"רמב""ם 64, בית שמש","רמב""ם 64",5208-17-5,דירה בבית קומות,4.0,,95.0,965000,,,1994.0,,2.0,3300239820,1,520817,False,,בית שמש,"רמב""ם",,5208-17-5,5208/17,10157.894736842103,31.7502542534,34.9956212266,2010
2010-09-25,2010-09-25,"אור שמח 14, בית שמש",אור שמח 14,5380-3-4,דירה בבית קומות,4.0,ראשונה,103.5,900000,,,2000.0,,3.0,3304940100,1,53803,False,80% ב 8.7 שנים,בית שמש,אור שמח,9.2,5380-3-4,5380/3,8695.652173913044,31.7385967871,34.9951556858,2010
2010-09-20,2010-09-20,"נחל מיכה 3, בית שמש",נחל מיכה 3,34276-15-4,דירה בבית קומות,4.0,ראשונה,92.5,1480000,,,2000.0,,5.0,3304108260,1,3427615,False,,בית שמש,נחל מיכה,,34276-15-4,34276/15,16000.0,31.7165155203,34.9922355268,2010
2010-09-20,2010-09-20,"נהר הירקון 18, בית שמש",נהר הירקון 18,34270-26-8,דירה בבית קומות,6.0,רביעית וחמישית,137.2,1630000,,,1996.0,,4.0,3304145370,1,3427026,False,42% ב 1.7 שנים,בית שמש,נהר הירקון,24.71,34270-26-8,34270/26,11880.466472303207,31.7081818025,34.9981156748,2010
2010-09-20,2010-09-20,"יגאל ידין 3, בית שמש",יגאל ידין 3,5240-45-8,דירה בבית קומות,5.0,שניה,113.1,1050000,,,1991.0,,3.0,3304036230,1,524045,False,,בית שמש,ידין יגאל,,5240-45-8,5240/45,9283.819628647216,31.7428388002,34.9848467347,2010
2010-09-19,2010-09-19,"הרב מבריסק 24, בית שמש",הרב מבריסק 24,5379-25-1,דירה בבית קומות,5.0,קרקע,114.0,1260000,,,1990.0,,3.0,3304096590,1,537925,False,,בית שמש,הרב מבריסק,,5379-25-1,5379/25,11052.631578947368,31.7380590873,34.9925718041,2010
2010-09-19,2010-09-19,"נחל שורק 10, בית שמש",נחל שורק 10,34273-41-8,דירה בבית קומות,4.0,שלישית,80.8,1010000,,,1998.0,,4.0,3303961200,1,3427341,False,,בית שמש,נחל שורק,,34273-41-8,34273/41,12500.0,31.7148445994,34.9945502981,2010
2010-09-16,2010-09-16,"נחל רביבים 15, בית שמש",נחל רביבים 15,34271-32-19,דירה בבית קומות,4.5,ראשונה,102.05,1260000,,,1998.0,,4.0,3303933750,1,3427132,False,40% ב 1.7 שנים,בית שמש,נחל רביבים,23.53,34271-32-19,34271/32,12346.8887800098,31.7104669905,34.9937038591,2010
2010-09-16,2010-09-16,"קדושת אהרון 11, בית שמש",קדושת אהרון 11,5151-13-194,דירה בבית קומות,3.0,שלישית,75.0,660000,1.0,קרית בעלזא,2010.0,,7.0,3304086210,1,515113,False,,בית שמש,קדושת אהרון,,5151-13-194,5151/13,8800.0,31.7358300036,34.9890737065,2010
2010-09-15,2010-09-15,"עמק הזיתים 9, בית שמש",עמק הזיתים 9,5212-108-2,דירה בבית קומות,3.0,ראשונה,70.0,800000,,,1960.0,,1.0,3303910980,1,5212108,False,,בית שמש,עמק הזיתים,,5212-108-2,5212/108,11428.57142857143,31.7466834841,34.9904244335,2010
2010-09-14,2010-09-14,"נחל שורק 40, בית שמש",נחל שורק 40,34278-27-3,דירה בבית קומות,4.0,שניה,112.5,1350000,,,2001.0,,6.0,3303860490,1,3427827,False,,בית שמש,נחל שורק,,34278-27-3,34278/27,12000.0,31.7151208002,34.9881608692,2010
2010-09-14,2010-09-14,"חזון איש 22, בית שמש",חזון איש 22,5379-24-2,דירה בבית קומות,3.0,קרקע,71.0,1170000,,,1991.0,,3.0,3304142640,1,537924,False,170% ב 11.6 שנים,בית שמש,חזון איש,14.66,5379-24-2,5379/24,16478.87323943662,31.7382149203,34.9929877965,2010
2010-09-14,2010-09-14,"נחל ערוגות 7, בית שמש",נחל ערוגות 7,34278-29-14,דירה בבית קומות,5.0,שלישית,115.8,1310000,,,2002.0,,5.0,3303833040,1,3427829,False,,בית שמש,נחל ערוגות,,34278-29-14,34278/29,11312.607944732295,31.7168012384,34.9876134311,2010
2010-09-14,2010-09-14,"קדושת אהרון 11, בית שמש",קדושת אהרון 11,5151-13-104,דירה,4.0,ראשונה,89.0,810000,1.0,קרית בעלזא,2010.0,,7.0,11181250708,1,515113,False,,בית שמש,קדושת אהרון,,5151-13-104,5151/13,9101.123595505618,31.7358300036,34.9890737065,2010
2010-09-14,2010-09-14,"קדושת אהרון 11, בית שמש",קדושת אהרון 11,5151-13-196,דירה בבית קומות,3.0,שניה,70.0,690000,1.0,קרית בעלזא,2010.0,,7.0,3304346640,1,515113,False,,בית שמש,קדושת אהרון,,5151-13-196,5151/13,9857.142857142857,31.7358300036,34.9890737065,2010
2010-09-14,2010-09-14,"קדושת אהרון 11, בית שמש",קדושת אהרון 11,5151-13-103,דירה,3.0,שניה,79.0,730000,1.0,קרית בעלזא,2010.0,,7.0,11181250707,1,515113,False,,בית שמש,קדושת אהרון,,5151-13-103,5151/13,9240.506329113923,31.7358300036,34.9890737065,2010
2010-09-14,2010-09-14,"קדושת אהרון 11, בית שמש",קדושת אהרון 11,5151-13-105,דירה,4.0,,89.0,1210000,1.0,קרית בעלזא,2010.0,,7.0,11181250709,1,515113,False,,בית שמש,קדושת אהרון,,5151-13-105,5151/13,13595.505617977527,31.7358300036,34.9890737065,2010
2010-09-12,2010-12-09,"יחזקאל הנביא 5, בית שמש",יחזקאל הנביא 5,34356-22-52,דירה בבית קומות,4.0,רביעית,89.15,900000,,,2010.0,,6.0,3305088600,1,3435622,False,,בית שמש,יחזקאל הנביא,,34356-22-52,34356/22,10095.344924284913,31.7044165458,34.9804760878,2010
2010-09-11,2010-11-09,"נחל מאור 10, בית שמש",נחל מאור 10,34270-35-19,דירה בבית קומות,4.0,שלישית,94.2,1100000,,,2001.0,,5.0,3304592850,1,3427035,False,,בית שמש,נחל מאור,,34270-35-19,34270/35,11677.28237791932,31.7089013974,35.0001126462,2010
2010-09-06,2010-06-09,"המעפילים 10, בית שמש",המעפילים 10,5210-87-17,דירה בבית קומות,3.0,קומה ‎4‏,54.1,540000,,,1970.0,,7.0,3302653950,1,521087,False,,בית שמש,המעפילים,,5210-87-17,5210/87,9981.5157116451,31.7507116921,34.9855608055,2010
2010-09-05,2010-05-09,"לב שמחה 6, בית שמש",לב שמחה 6,5380-27-7,דירה בבית קומות,4.0,שניה,78.8,895000,,,1990.0,,3.0,3301941180,1,538027,False,,בית שמש,לב שמחה,,5380-27-7,5380/27,11357.86802030457,31.7368924101,34.9951395678,2010
2010-09-03,2010-03-09,"נחל עין גדי 42, בית שמש",נחל עין גדי 42,34279-69-40,דירה בבית קומות,5.0,קרקע,131.35,1350000,,,2008.0,,3.0,3301263240,1,3427969,False,,בית שמש,נחל עין גדי,,34279-69-40,34279/69,10277.883517320137,31.7136251926,34.9846132197,2010
2010-09-03,2010-03-09,"בן-עזאי 15, בית שמש",בן-עזאי 15,5943-28-56,דירה בבית קומות,3.0,שלישית,71.6,696000,,,1980.0,,4.0,3301195920,1,594328,False,,בית שמש,בן עזאי,,5943-28-56,5943/28,9720.670391061452,31.7370923334,34.9986335269,2010
2010-08-31,2010-08-31,"נחל שחם 1, בית שמש",נחל שחם 1,34274-61-9,דירה בבית קומות,4.0,חמישית,85.5,1095000,,,2008.0,,5.0,3303710760,1,3427461,False,25% ב 1.1 שנים,בית שמש,נחל שחם,22.73,34274-61-9,34274/61,12807.017543859649,31.712494791,34.9900099058,2010
2010-08-31,2010-08-31,"עליית הנוער 6, בית שמש",עליית הנוער 6,5232-9-8,דירה בבית קומות,4.0,קרקע עליונה,109.51,1200000,,,1995.0,,3.0,3303975870,1,52329,False,,בית שמש,עלית הנוער,,5232-9-8,5232/9,10957.903387818464,31.7450861477,34.9919023096,2010
2010-08-30,2010-08-30,"נחל מטע 5, בית שמש",נחל מטע 5,34272-9-15,דירה בבית קומות,4.0,ראשונה,87.31,980000,,,2000.0,,3.0,3303889200,1,342729,False,,בית שמש,נחל מטע,,34272-9-15,34272/9,11224.37292406368,31.7117341373,34.9988078353,2010
2010-08-29,2010-08-29,"ביאליק 11, בית שמש",ביאליק 11,5210-8-5,דירה בבית קומות,2.5,ראשונה,40.7,500000,,,1968.0,,2.0,3303669420,1,52108,False,50% ב 2 שנים,בית שמש,ביאליק,25.0,5210-8-5,5210/8,12285.012285012284,31.7519479673,34.9839873696,2010
2010-08-23,2010-08-23,"הגליל 6, בית שמש",הגליל 6,5232-3-13,דירה בבית קומות,4.0,שלישית,86.0,787000,,,1995.0,,3.0,3303689730,1,52323,False,,בית שמש,הגליל,,5232-3-13,5232/3,9151.162790697674,31.7470632424,34.9921683282,2010
2010-08-23,2010-08-23,"קדושת אהרון 11, בית שמש",קדושת אהרון 11,5151-13-99,דירה בבית קומות,3.0,,75.0,665000,,,2010.0,,7.0,3303777090,1,515113,False,,בית שמש,קדושת אהרון,,5151-13-99,5151/13,8866.666666666666,31.7358300036,34.9890737065,2010
2010-08-19,2010-08-19,"צפת 3, בית שמש",צפת 3,34279-70-41,דירה בבית קומות,5.0,"קרקע, ראשונה",133.05,3075000,,,2006.0,,2.0,3303632520,1,3427970,False,,בית שמש,צפת,,34279-70-41,34279/70,23111.612175873728,31.7134972834,34.9856880922,2010
2010-08-19,2010-08-19,"נחל הקישון 30, בית שמש",נחל הקישון 30,34278-25-67,דירת גן,5.0,קרקע וראשונה,116.7,1100000,,,1999.0,,,3303996600,1,3427825,False,,בית שמש,נחל הקישון,,34278-25-67,34278/25,9425.878320479862,31.716115659,34.989513876,2010
2010-08-15,2010-08-15,"יצחק רבין 22, בית שמש",יצחק רבין 22,5232-15-14,דירה בבית קומות,4.0,קרקע,85.7,1090000,,,1995.0,,3.0,3303674100,1,523215,False,,בית שמש,רבין יצחק,,5232-15-14,5232/15,12718.786464410734,31.744417244,34.9933906462,2010
2010-08-12,2010-12-08,"קלמן מגן 5, בית שמש",קלמן מגן 5,5239-23-5,דירה בבית קומות,3.0,קרקע,67.0,735000,,,1992.0,,1.0,3305026980,1,523923,False,17% ב 2 שנים,בית שמש,מגן קלמן,8.5,5239-23-5,5239/23,10970.149253731342,31.7424384274,34.9906345255,2010
2010-08-11,2010-11-08,"רפאל אלנקווה 1, בית שמש",רפאל אלנקווה 1,5213-123-8,דירה בבית קומות,3.0,רביעית,67.6,505000,,,1970.0,,4.0,3304520850,1,5213123,False,,בית שמש,אלנקוה רפאל,,5213-123-8,5213/123,7470.414201183433,31.7464910907,34.9863250945,2010
2010-08-11,2010-11-08,"החרש 17, בית שמש",החרש 17,5205-13-2,מלאכה,,,198.0,2359000,,,1990.0,,1.0,3330146490,1,520513,False,,בית שמש,החרש,,5205-13-2,5205/13,11914.141414141412,31.7556516045,34.9920492186,2010
2010-08-11,2010-11-08,"רפאל אלנקווה 15, בית שמש",רפאל אלנקווה 15,5213-115-2,דירה בבית קומות,4.0,ראשונה,79.6,660000,,,1970.0,,4.0,3304520370,1,5213115,False,,בית שמש,אלנקוה רפאל,,5213-115-2,5213/115,8291.457286432162,31.7473712189,34.9867690591,2010
2010-08-08,2010-08-08,"בר-אילן 2, בית שמש",בר-אילן 2,5239-33-20,דירה בבית קומות,3.0,שלישית,63.2,710000,,,1990.0,,4.0,3303286500,1,523933,False,,בית שמש,בר אילן,,5239-33-20,5239/33,11234.177215189871,31.7422980459,34.992764191,2010
2010-08-07,2010-07-08,"מצפה הרש""פ 1, בית שמש","מצפה הרש""פ 1",5942-21-12,דירה בבית קומות,4.0,שניה,92.5,1100000,,,2002.0,,3.0,3303064770,1,594221,False,93% ב 6.7 שנים,בית שמש,"מצפה הרש""פ",13.88,5942-21-12,5942/21,11891.891891891892,31.7300897245,34.9925087401,2010
2010-08-07,2010-07-08,"נחל רפאים 24, בית שמש",נחל רפאים 24,34270-25-2,דירה בבית קומות,4.0,ראשונה,90.7,1265000,,,1999.0,,4.0,3302883600,1,3427025,False,,בית שמש,נחל רפאים,,34270-25-2,34270/25,13947.0782800441,31.7100349159,34.9975930927,2010
2010-08-06,2010-06-08,"קרן היסוד 11, בית שמש",קרן היסוד 11,5208-158-1,דירה בבית קומות,3.0,ראשונה,54.0,550000,,,1960.0,,6.0,3302453250,1,5208158,False,27% ב 0.7 שנים,בית שמש,קרן היסוד,38.57,5208-158-1,5208/158,10185.185185185184,31.7499960719,34.9915614452,2010
2010-08-04,2010-04-08,"יצחק רבין 20, בית שמש",יצחק רבין 20,5232-15-8,דירה בבית קומות,3.5,שניה,80.12,680000,,,1980.0,,3.0,3301499640,1,523215,False,,בית שמש,רבין יצחק,,5232-15-8,5232/15,8487.269096355467,31.744417244,34.9933906462,2010
2010-08-04,2010-04-08,"הל""ה 6, בית שמש","הל""ה 6",5207-10-3,דירה בבית קומות,6.0,,237.0,400000,,,2007.0,,,3302119380,1,520710,False,,בית שמש,"הל""ה",,5207-10-3,5207/10,1687.7637130801688,31.7507547162,34.9963660129,2010
2010-08-03,2010-03-08,"נחל מיכה 18, בית שמש",נחל מיכה 18,34276-7-29,דירה בבית קומות,3.0,שלישית,65.1,810000,,,1999.0,,2.0,3301135050,1,342767,False,,בית שמש,נחל מיכה,,34276-7-29,34276/7,12442.396313364055,31.717452199,34.9933601346,2010
2010-08-03,2010-03-08,"רמב""ם 36, בית שמש","רמב""ם 36",5208-3-5,דירה בבית קומות,5.0,רביעית,112.0,790000,,,1950.0,,2.0,3301332030,1,52083,False,,בית שמש,"רמב""ם",,5208-3-5,5208/3,7053.571428571428,31.7520492955,34.9922891158,2010
2010-08-03,2010-03-08,"נחל דולב 19, בית שמש",נחל דולב 19,34272-23-1,חנות,,רביעית,,800000,,,2008.0,,2.0,3301561200,1,3427223,False,,בית שמש,נחל דולב,,34272-23-1,34272/23,,31.7137000279,34.9984114761,2010
2010-08-02,2010-02-08,"בן איש חי 35, בית שמש",בן איש חי 35,5935-18-5,דירה בבית קומות,3.0,שלישית,70.0,730000,,,2008.0,,6.0,3300952620,1,593518,False,,בית שמש,בן איש חי,,5935-18-5,5935/18,10428.57142857143,31.7469787939,35.0000903465,2010
2010-07-29,2010-07-29,"נחל רביבים 9, בית שמש",נחל רביבים 9,34271-34-15,דירה בבית קומות,3.0,ראשונה,83.25,840000,,,1999.0,,4.0,3303718710,1,3427134,True,-3% ב 1.7 שנים,בית שמש,נחל רביבים,-1.76,34271-34-15,34271/34,10090.09009009009,31.7110651136,34.994666671,2010
2010-07-28,2010-07-28,"נהר הירדן 50, בית שמש",נהר הירדן 50,5942-19-26,דירה בבית קומות,3.0,שלישית,75.05,890000,,,1999.0,,4.0,3303261030,1,594219,False,112% ב 11.7 שנים,בית שמש,נהר הירדן,9.57,5942-19-26,5942/19,11858.760826115924,31.7270786944,34.9938131191,2010
2010-07-28,2010-07-28,"שפת אמת 23, בית שמש",שפת אמת 23,5381-23-3,דירה בבית קומות,3.0,ראשונה,81.0,880000,,,1980.0,,2.0,3303270420,1,538123,False,,בית שמש,שפת אמת,,5381-23-3,5381/23,10864.197530864198,31.7393133907,34.9964537456,2010
2010-07-27,2010-07-27,"נחל עין גדי 50, בית שמש",נחל עין גדי 50,34279-70-34,דירה בבית קומות,5.0,"קרקע, ראשונה",134.9,1625000,,,2006.0,,1.0,3303277140,1,3427970,False,,בית שמש,נחל עין גדי,,34279-70-34,34279/70,12045.959970348404,31.7134972834,34.9856880922,2010
2010-07-27,2010-07-27,"הל""ה 20, בית שמש","הל""ה 20",5207-23-5,דירה בבית קומות,4.0,,100.0,970000,,,1960.0,2008.0,1.0,3303139050,1,520723,False,,בית שמש,"הל""ה",,5207-23-5,5207/23,9700.0,31.7492483841,34.9966733983,2010
2010-07-25,2010-07-25,"נחל אלכסנדר 4, בית שמש",נחל אלכסנדר 4,34269-6-30,דירה בבית קומות,6.0,"מרתף,קרקע,ראשונה",165.0,2200000,,,2000.0,,2.0,3303406560,1,342696,False,,בית שמש,נחל אלכסנדר,,34269-6-30,34269/6,13333.333333333334,31.7118169678,35.0008148272,2010
2010-07-25,2010-07-25,"מנחת יצחק 12, בית שמש",מנחת יצחק 12,5379-31-7,דירה בבית קומות,3.0,שלישית,71.0,930000,,,1970.0,,3.0,3303584280,1,537931,False,113% ב 9.5 שנים,בית שמש,מנחת יצחק,11.89,5379-31-7,5379/31,13098.591549295774,31.7385380775,34.9937403397,2010
2010-07-22,2010-07-22,"ראובן 55, בית שמש",ראובן 55,5544-58-1,דירה בבית קומות,9.0,,200.0,2400000,,,1990.0,,1.0,3303098160,1,554458,False,,בית שמש,ראובן,,5544-58-1,5544/58,12000.0,31.7391553931,34.9859871994,2010
2010-07-22,2010-07-22,"רמב""ם 32, בית שמש","רמב""ם 32",5208-1-1,דירה בבית קומות,4.0,ראשונה,120.0,950000,,,1974.0,,1.0,3303091230,1,52081,False,69% ב 8.3 שנים,בית שמש,"רמב""ם",8.31,5208-1-1,5208/1,7916.666666666667,31.7523207072,34.9918141938,2010
2010-07-22,2010-07-22,"ראובן 83, בית שמש",ראובן 83,5544-44-1,דירה בבית קומות,7.0,,198.0,2400000,,,1993.0,,1.0,3303157080,1,554444,False,,בית שמש,ראובן,,5544-44-1,5544/44,12121.212121212122,31.7383298855,34.98365377,2010
2010-07-22,2010-07-22,"קדושת אהרון 11, בית שמש",קדושת אהרון 11,5151-13-98,דירה בבית קומות,3.0,,75.0,752000,,,2010.0,,7.0,3303802560,1,515113,False,,בית שמש,קדושת אהרון,,5151-13-98,5151/13,10026.666666666666,31.7358300036,34.9890737065,2010
2010-07-21,2010-07-21,"נחל נחשון 7, בית שמש",נחל נחשון 7,34274-22-55,דירה בבית קומות,1.0,קרקע,109.95,1475000,,,2000.0,,4.0,3303151830,1,3427422,False,,בית שמש,נחל נחשון,,34274-22-55,34274/22,13415.18872214643,31.7137832999,34.9935094477,2010
2010-07-20,2010-07-20,"הרצל 40, בית שמש",הרצל 40,5208-130-4,דירה בבית קומות,3.0,שניה,67.5,700000,,,1960.0,,3.0,3304175310,1,5208130,False,,בית שמש,הרצל,,5208-130-4,5208/130,10370.37037037037,31.7489759926,34.9952414722,2010
2010-07-18,2010-07-18,"נחל דולב 86, בית שמש",נחל דולב 86,34269-14-27,דירה בבית קומות,6.0,קרקע + ראשונה,97.8,1550000,,,2000.0,,5.0,3302991060,1,3426914,False,66% ב 5 שנים,בית שמש,נחל דולב,13.2,34269-14-27,34269/14,15848.670756646216,31.7152810951,34.9995894858,2010
2010-07-15,2010-07-15,"התבור 4, בית שמש",התבור 4,5232-20-32,דירה בבית קומות,4.0,ראשונה,86.55,1015000,,,1996.0,,7.0,3302985600,1,523220,False,,בית שמש,התבור,,5232-20-32,5232/20,11727.32524552282,31.7462601208,34.993851299,2010
2010-07-11,2010-11-07,"נחל צאלים 6, בית שמש",נחל צאלים 6,34278-41-5,משרד,,ראשונה,378.0,4700000,,,2000.0,,3.0,3304637400,1,3427841,False,,בית שמש,נחל צאלים,,34278-41-5,34278/41,12433.862433862434,31.7128575836,34.9875845502,2010
2010-07-11,2010-11-07,"בן ציון אבא שאול 2, בית שמש",בן ציון אבא שאול 2,5935-18-73,דירה בבית קומות,3.0,,75.0,900000,,,2008.0,,6.0,3304523820,1,593518,False,,בית שמש,בן ציון אבא שאול,,5935-18-73,5935/18,12000.0,31.7469787939,35.0000903465,2010
2010-07-11,2010-11-07,"הרקפת 8, בית שמש",הרקפת 8,5220-86-1,דירה בבית קומות,8.0,ראשונה,160.0,1970000,,,2000.0,,,3304529520,1,522086,False,,בית שמש,הרקפת,,5220-86-1,5220/86,12312.5,31.7382342097,34.9811856584,2010
2010-07-10,2010-10-07,"נחל עין גדי 43, בית שמש",נחל עין גדי 43,34279-33-6,דירה בבית קומות,6.0,"קרקע, ראשונה, שניה, שלישית",233.15,2500000,,,2007.0,,2.0,3305263560,1,3427933,False,63% ב 3.5 שנים,בית שמש,נחל עין גדי,18.0,34279-33-6,34279/33,10722.71070126528,31.714472506,34.9843306485,2010
2010-07-09,2010-09-07,"נחל אלכסנדר 2, בית שמש",נחל אלכסנדר 2,34269-6-60,דירה בבית קומות,6.0,"מרתף,קרקע,ראשונה",169.4,2552000,,,2005.0,,3.0,3303860730,1,342696,False,76% ב 6.3 שנים,בית שמש,נחל אלכסנדר,12.06,34269-6-60,34269/6,15064.935064935064,31.7118169678,35.0008148272,2010
2010-07-07,2010-07-07,"נחל רפאים 11, בית שמש",נחל רפאים 11,34270-35-23,דירה בבית קומות,5.0,שניה,104.0,1327000,,,2004.0,,7.0,3303239040,1,3427035,False,,בית שמש,נחל רפאים,,34270-35-23,34270/35,12759.615384615385,31.7089013974,35.0001126462,2010
2010-07-06,2010-06-07,"נחל דולב 84, בית שמש",נחל דולב 84,34269-14-40,דירה בבית קומות,3.0,שלישית,64.8,740000,,,1998.0,,1.0,3302594790,1,3426914,False,,בית שמש,נחל דולב,,34269-14-40,34269/14,11419.753086419754,31.7152810951,34.9995894858,2010
2010-07-06,2010-06-07,"נחל עין גדי 22, בית שמש",נחל עין גדי 22,34277-8-29,דירה בבית קומות,7.0,שניה,112.55,1420000,,,1998.0,,2.0,3303162540,1,342778,False,,בית שמש,נחל עין גדי,,34277-8-29,34277/8,12616.614837849846,31.7161099274,34.9826349253,2010
2010-07-04,2010-04-07,"בן-אליעזר 6, בית שמש",בן-אליעזר 6,5240-50-3,דירה בבית קומות,3.0,קרקע,64.8,574000,,,1980.0,,7.0,3301837470,1,524050,False,,בית שמש,בן אליעזר,,5240-50-3,5240/50,8858.024691358025,31.7419283083,34.9827345155,2010
2010-07-03,2010-03-07,"הוותיקים 12, בית שמש",הוותיקים 12,5208-10-1,דירה בבית קומות,1.5,ראשונה,26.3,595000,,,1960.0,,2.0,3301600350,1,520810,False,71% ב 11.5 שנים,בית שמש,הותיקים,6.17,5208-10-1,5208/10,22623.57414448669,31.7513348765,34.9939345999,2010
2010-06-30,2010-06-30,"נחל הקישון 32, בית שמש",נחל הקישון 32,34278-25-32,דירה בבית קומות,2.5,חמישית,76.5,945000,,,1998.0,,4.0,3302798490,1,3427825,False,,בית שמש,נחל הקישון,,34278-25-32,34278/25,12352.941176470587,31.716115659,34.989513876,2010
2010-06-30,2010-06-30,"הוותיקים 12, בית שמש",הוותיקים 12,5208-10-5,קוטג' דו משפחתי,6.0,,170.0,1475000,,,1960.0,,2.0,3302777700,1,520810,False,,בית שמש,הותיקים,,5208-10-5,5208/10,8676.470588235294,31.7513348765,34.9939345999,2010
2010-06-30,2010-06-30,"עקביא בן מהללאל 5, בית שמש",עקביא בן מהללאל 5,5943-28-16,דירה בבית קומות,3.0,ראשונה,90.5,700000,,,1990.0,,2.0,3303465480,1,594328,False,,בית שמש,עקביא בן מהללאל,,5943-28-16,5943/28,7734.806629834254,31.7370923334,34.9986335269,2010
2010-06-29,2010-06-29,"נחל רפאים 30, בית שמש",נחל רפאים 30,34270-14-6,דירה בבית קומות,7.0,קרקע+ראשונה+שניה,167.85,2033000,,,1998.0,,2.0,3302870520,1,3427014,False,,בית שמש,נחל רפאים,,34270-14-6,34270/14,12112.004766160262,31.7104731822,34.9972344694,2010
2010-06-28,2010-06-28,"קדושת אהרון 11, בית שמש",קדושת אהרון 11,5151-13-95,דירה,3.0,ראשונה,76.0,665000,1.0,קרית בעלזא,2010.0,,7.0,11181250797,1,515113,False,,בית שמש,קדושת אהרון,,5151-13-95,5151/13,8750.0,31.7358300036,34.9890737065,2010
2010-06-28,2010-06-28,"קדושת אהרון 11, בית שמש",קדושת אהרון 11,5151-13-96,דירה,4.0,ראשונה,89.0,810000,1.0,קרית בעלזא,2010.0,,7.0,11181250798,1,515113,False,,בית שמש,קדושת אהרון,,5151-13-96,5151/13,9101.123595505618,31.7358300036,34.9890737065,2010
2010-06-28,2010-06-28,"נחל ניצנים 10, בית שמש",נחל ניצנים 10,34278-36-51,דירה בבית קומות,4.0,ראשונה,83.0,1049000,,,2000.0,,2.0,3302805450,1,3427836,False,,בית שמש,נחל ניצנים,,34278-36-51,34278/36,12638.55421686747,31.7131317405,34.9885058935,2010
2010-06-28,2010-06-28,"רמב""ם 66, בית שמש","רמב""ם 66",5208-18-1,דירה בבית קומות,5.0,חמישית,120.0,1110000,,,2006.0,,,3303085800,1,520818,False,,בית שמש,"רמב""ם",,5208-18-1,5208/18,9250.0,31.7500288677,34.9957749253,2010
2010-06-28,2010-06-28,"צפת 3, בית שמש",צפת 3,34279-70-44,דירה בבית קומות,5.0,"שניה, שלישית, רביעית",153.25,1570000,,,2006.0,,2.0,3302930940,1,3427970,False,,בית שמש,צפת,,34279-70-44,34279/70,10244.698205546492,31.7134972834,34.9856880922,2010
2010-06-27,2010-06-27,"הל""ה 14, בית שמש","הל""ה 14",5207-18-4,דירה בבית קומות,4.0,ראשונה,100.0,831000,,,2007.0,,,3302920260,1,520718,False,,בית שמש,"הל""ה",,5207-18-4,5207/18,8310.0,31.7499222316,34.9966747491,2010
2010-06-24,2010-06-24,"קדושת אהרון 11, בית שמש",קדושת אהרון 11,5151-13-94,דירה,3.0,שניה,76.0,699000,1.0,קרית בעלזא,2010.0,,7.0,11181250796,1,515113,False,,בית שמש,קדושת אהרון,,5151-13-94,5151/13,9197.368421052632,31.7358300036,34.9890737065,2010
2010-06-24,2010-06-24,"אמרי אמת 9, בית שמש",אמרי אמת 9,5379-18-17,דירה בבית קומות,4.0,קרקע,84.0,880000,,,1992.0,,3.0,3302910090,1,537918,False,7% ב 0.9 שנים,בית שמש,אמרי אמת,7.78,5379-18-17,5379/18,10476.190476190475,31.7408650462,34.9936231064,2010
2010-06-24,2010-06-24,"רבי פנחס בן-יאיר 12, בית שמש",רבי פנחס בן-יאיר 12,5151-9-31,דירה בבית קומות,3.0,,75.0,620000,,,2010.0,,6.0,3302779200,1,51519,False,,בית שמש,רבי פנחס בן יאיר,,5151-9-31,5151/9,8266.666666666666,31.735187882,34.9931404813,2010
2010-06-24,2010-06-24,"קדושת אהרון 11, בית שמש",קדושת אהרון 11,5151-13-93,דירה בבית קומות,3.0,חמישית,79.0,620000,1.0,קרית בעלזא,2010.0,,7.0,3302769570,1,515113,False,,בית שמש,קדושת אהרון,,5151-13-93,5151/13,7848.101265822785,31.7358300036,34.9890737065,2010
2010-06-23,2010-06-23,"נחל מיכה 15, בית שמש",נחל מיכה 15,34276-13-18,דירה בבית קומות,4.0,שניה,94.2,1095000,,,2001.0,,4.0,3302604960,1,3427613,False,,בית שמש,נחל מיכה,,34276-13-18,34276/13,11624.20382165605,31.7180830158,34.9933578246,2010
2010-06-23,2010-06-23,"נחל תמנע 8, בית שמש",נחל תמנע 8,34272-11-19,דירה בבית קומות,5.0,קרקע,138.69,1770000,,,1997.0,,4.0,3302614110,1,3427211,False,,בית שמש,נחל תמנע,,34272-11-19,34272/11,12762.275578628596,31.7149544947,34.998394124,2010
2010-06-23,2010-06-23,"הגולן 12, בית שמש",הגולן 12,5232-10-16,דירה בבית קומות,4.0,ראשונה,95.8,885000,,,1995.0,,2.0,3303896670,1,523210,False,10% ב 3.8 שנים,בית שמש,הגולן,2.63,5232-10-16,5232/10,9237.995824634656,31.744608948,34.9923306772,2010
2010-06-23,2010-06-23,"דובר שלום 2, בית שמש",דובר שלום 2,5151-20-77,דירה בבית קומות,3.0,,85.0,726000,,,2003.0,,6.0,3302721570,1,515120,False,,בית שמש,דובר שלום,,5151-20-77,5151/20,8541.176470588236,31.7354716671,34.9918788666,2010
2010-06-22,2010-06-22,"דובר שלום 2, בית שמש",דובר שלום 2,5151-20-17,דירה,3.0,שניה,78.0,726681,1.0,לבנה ברמה,2003.0,,6.0,11181250806,1,515120,False,,בית שמש,דובר שלום,,5151-20-17,5151/20,9316.423076923076,31.7354716671,34.9918788666,2010
2010-06-22,2010-06-22,"נחל מאור 18, בית שמש",נחל מאור 18,34270-37-22,דירה בבית קומות,4.0,ראשונה,89.3,1010000,,,1997.0,,5.0,3302993550,1,3427037,False,,בית שמש,נחל מאור,,34270-37-22,34270/37,11310.190369540876,31.708073567,35.0002783256,2010
2010-06-21,2010-06-21,"עליית הנוער 6, בית שמש",עליית הנוער 6,5232-9-3,דירה בבית קומות,4.0,ראשונה,109.01,910000,,,1995.0,,3.0,3302670780,1,52329,False,,בית שמש,עלית הנוער,,5232-9-3,5232/9,8347.857994679387,31.7450861477,34.9919023096,2010
2010-06-20,2010-06-20,"זיכרון יעקב 1, בית שמש",זיכרון יעקב 1,5381-4-6,דירה בבית קומות,4.0,ראשונה,70.0,860000,,,1993.0,,1.0,3302609940,1,53814,False,,בית שמש,זכרון יעקב,,5381-4-6,5381/4,12285.714285714286,31.7416717079,34.9943343048,2010
2010-06-20,2010-06-20,"נהר הירדן 14, בית שמש",נהר הירדן 14,5151-20-78,דירה בבית קומות,3.0,,85.0,726000,,,2003.0,,6.0,3302718840,1,515120,False,,בית שמש,נהר הירדן,,5151-20-78,5151/20,8541.176470588236,31.7354716671,34.9918788666,2010
2010-06-20,2010-06-20,"שפת אמת 23, בית שמש",שפת אמת 23,5381-23-4,דירה בבית קומות,5.0,,107.0,1050000,,,1980.0,,2.0,3302615820,1,538123,False,,בית שמש,שפת אמת,,5381-23-4,5381/23,9813.084112149532,31.7393133907,34.9964537456,2010
2010-06-20,2010-06-20,"הגליל 6, בית שמש",הגליל 6,5232-3-3,דירה בבית קומות,4.0,ראשונה,82.0,900000,,,1995.0,,3.0,3302595030,1,52323,False,,בית שמש,הגליל,,5232-3-3,5232/3,10975.60975609756,31.7470632424,34.9921683282,2010
2010-06-19,2010-06-19,"דובר שלום 2, בית שמש",דובר שלום 2,5151-20-16,דירה,3.0,רביעית,78.0,726681,1.0,לבנה ברמה,2003.0,,6.0,11181250805,1,515120,False,,בית שמש,דובר שלום,,5151-20-16,5151/20,9316.423076923076,31.7354716671,34.9918788666,2010
2010-06-17,2010-06-17,"רשב""ג 3, בית שמש","רשב""ג 3",5942-11-30,דירה בבית קומות,6.0,ראשונה,125.6,1080000,,,1997.0,,3.0,3302538390,1,594211,False,,בית שמש,"רשב""ג",,5942-11-30,5942/11,8598.726114649682,31.7289199158,34.9911143037,2010
2010-06-17,2010-06-17,"האשל 2, בית שמש",האשל 2,5204-9-6,דירה בבית קומות,5.0,ראשונה,154.0,1400000,,,1995.0,,1.0,3302557650,1,52049,False,,בית שמש,האשל,,5204-9-6,5204/9,9090.90909090909,31.7547562297,34.9888360003,2010
2010-06-17,2010-06-17,"הארזים 88, בית שמש",הארזים 88,5217-127-1,דירה בבית קומות,7.0,,150.0,1950000,,,1980.0,,1.0,3302621040,1,5217127,False,,בית שמש,הארזים,,5217-127-1,5217/127,13000.0,31.7436045885,34.9754338842,2010
2010-06-16,2010-06-16,"קדושת אהרון 11, בית שמש",קדושת אהרון 11,5151-13-89,דירה,3.0,חמישית,76.0,650000,1.0,קרית בעלזא,2010.0,,7.0,11181250791,1,515113,False,,בית שמש,קדושת אהרון,,5151-13-89,5151/13,8552.631578947368,31.7358300036,34.9890737065,2010
2010-06-16,2010-06-16,"קדושת אהרון 11, בית שמש",קדושת אהרון 11,5151-13-90,דירה,3.0,רביעית,76.0,655000,1.0,קרית בעלזא,2010.0,,7.0,11181250793,1,515113,False,,בית שמש,קדושת אהרון,,5151-13-90,5151/13,8618.421052631578,31.7358300036,34.9890737065,2010
2010-06-16,2010-06-16,"נהר הירדן 14, בית שמש",נהר הירדן 14,5151-20-79,דירה בבית קומות,4.0,,100.0,797000,,,2003.0,,6.0,3302897490,1,515120,False,,בית שמש,נהר הירדן,,5151-20-79,5151/20,7970.0,31.7354716671,34.9918788666,2010
2010-06-16,2010-06-16,"קדושת אהרון 11, בית שמש",קדושת אהרון 11,5151-13-88,דירה,3.0,שביעית,76.0,623000,1.0,קרית בעלזא,2010.0,,7.0,11181250790,1,515113,False,,בית שמש,קדושת אהרון,,5151-13-88,5151/13,8197.368421052632,31.7358300036,34.9890737065,2010
2010-06-16,2010-06-16,"המעפילים 12, בית שמש",המעפילים 12,5210-35-6,דירה בבית קומות,5.0,ראשונה,120.0,740000,,,1960.0,,2.0,3303497910,1,521035,False,,בית שמש,המעפילים,,5210-35-6,5210/35,6166.666666666667,31.7506296772,34.9851466366,2010
2010-06-16,2010-06-16,"קדושת אהרון 11, בית שמש",קדושת אהרון 11,5151-13-91,דירה,3.0,רביעית,79.0,670000,1.0,קרית בעלזא,2010.0,,7.0,11181250794,1,515113,False,,בית שמש,קדושת אהרון,,5151-13-91,5151/13,8481.012658227848,31.7358300036,34.9890737065,2010
2010-06-16,2010-06-16,"קדושת אהרון 11, בית שמש",קדושת אהרון 11,5151-13-92,דירה,4.0,,88.0,1010000,1.0,קרית בעלזא,2010.0,,7.0,11181250795,1,515113,False,,בית שמש,קדושת אהרון,,5151-13-92,5151/13,11477.272727272728,31.7358300036,34.9890737065,2010
2010-06-15,2010-06-15,"נחל דולב 19, בית שמש",נחל דולב 19,34272-23-8,מחסנים,,,,300000,,,2008.0,,2.0,3303215700,1,3427223,False,,בית שמש,נחל דולב,,34272-23-8,34272/23,,31.7137000279,34.9984114761,2010
2010-06-15,2010-06-15,"דובר שלום 2, בית שמש",דובר שלום 2,5151-20-15,דירה,4.0,,93.0,797331,1.0,לבנה ברמה,2003.0,,6.0,11181250804,1,515120,False,,בית שמש,דובר שלום,,5151-20-15,5151/20,8573.451612903225,31.7354716671,34.9918788666,2010
2010-06-14,2010-06-14,"סיני 27, בית שמש",סיני 27,5207-112-22,דירה בבית קומות,3.0,שלישית,70.0,800000,,,2007.0,,,3302923740,1,5207112,False,,בית שמש,סיני,,5207-112-22,5207/112,11428.57142857143,31.7508053655,34.9976071155,2010
2010-06-14,2010-06-14,"ההדס 18, בית שמש",ההדס 18,5217-138-1,דירה בבית קומות,5.0,,125.0,1130000,,,1980.0,,,3303068460,1,5217138,False,,בית שמש,ההדס,,5217-138-1,5217/138,9040.0,31.7428091946,34.9749223666,2010
2010-06-14,2010-06-14,"הרצל 24, בית שמש",הרצל 24,5208-70-12,דירה בבית קומות,3.0,רביעית,44.5,450000,,,1960.0,,3.0,3302843820,1,520870,False,,בית שמש,הרצל,,5208-70-12,5208/70,10112.359550561798,31.7493031793,34.9912394055,2010
2010-06-13,2010-06-13,"הסיגלית 1, בית שמש",הסיגלית 1,5220-73-40,דירה בבית קומות,4.0,שלישית,73.2,660000,,,1980.0,,3.0,3302440830,1,522073,False,,בית שמש,הסיגלית,,5220-73-40,5220/73,9016.39344262295,31.7406439238,34.9816541771,2010
2010-06-12,2010-12-06,"נחל הקישון 16, בית שמש",נחל הקישון 16,34278-25-6,דירה בבית קומות,3.5,רביעית,76.5,1080000,,,1998.0,,4.0,3304991340,1,3427825,False,81% ב 4.3 שנים,בית שמש,נחל הקישון,18.84,34278-25-6,34278/25,14117.64705882353,31.716115659,34.989513876,2010
2010-06-10,2010-10-06,"באר שבע 4, בית שמש",באר שבע 4,34278-106-13,דירה בבית קומות,5.0,"מרתף, קרקע, ראשונה",167.07,1649000,,,2010.0,,2.0,3304200030,1,34278106,False,,בית שמש,באר שבע,,34278-106-13,34278/106,9870.114323337524,31.7131166148,34.9866630264,2010
2010-06-10,2010-10-06,"בר-אילן 19, בית שמש",בר-אילן 19,5239-41-12,דירה בבית קומות,4.0,שלישית+רביעית,95.9,850000,,,1991.0,,4.0,3304163430,1,523941,False,,בית שמש,בר אילן,,5239-41-12,5239/41,8863.399374348279,31.7417355426,34.9876928998,2010
2010-06-09,2010-09-06,"הרצל 31, בית שמש",הרצל 31,5208-82-8,דירה בבית קומות,3.0,חמישית,44.75,250000,,,1960.0,,4.0,3303772620,1,520882,True,-1% ב 10.9 שנים,בית שמש,הרצל,-0.09,5208-82-8,5208/82,5586.592178770949,31.7487854647,34.9915660917,2010
2010-06-09,2010-09-06,"יוסי בנאי 2, בית שמש",יוסי בנאי 2,5201-113-15,דירה בבית קומות,6.0,,170.0,1880000,,,2007.0,,,3303780540,1,5201113,False,,בית שמש,בנאי יוסי,,5201-113-15,5201/113,11058.823529411764,31.752567541,34.9801109753,2010
2010-06-07,2010-07-06,"רבי יהודה צדקה 1, בית שמש",רבי יהודה צדקה 1,5935-23-2,דירה,5.0,,105.0,662842,1.0,מחסיה א',2008.0,,5.0,11181258587,1,593523,False,,בית שמש,רבי צדקה יהודה,,5935-23-2,5935/23,6312.780952380952,31.7442108931,34.9994565754,2010
2010-06-07,2010-07-06,"נחל הקישון 11, בית שמש",נחל הקישון 11,34276-18-32,דירה בבית קומות,4.0,ראשונה,78.0,1026000,,,2000.0,,5.0,3304038480,1,3427618,False,,בית שמש,נחל הקישון,,34276-18-32,34276/18,13153.846153846154,31.7176322999,34.9905807229,2010
2010-06-06,2010-06-06,"קדושת אהרון 11, בית שמש",קדושת אהרון 11,5151-13-86,דירה,3.0,רביעית,76.0,623000,1.0,קרית בעלזא,2010.0,,7.0,11181250788,1,515113,False,,בית שמש,קדושת אהרון,,5151-13-86,5151/13,8197.368421052632,31.7358300036,34.9890737065,2010
2010-06-06,2010-06-06,"הל""ה 14, בית שמש","הל""ה 14",5207-18-5,דירה בבית קומות,3.0,,75.0,953000,,,2000.0,,,3302428770,1,520718,False,,בית שמש,"הל""ה",,5207-18-5,5207/18,12706.666666666666,31.7499222316,34.9966747491,2010
2010-06-05,2010-05-06,"רש""י 11, בית שמש","רש""י 11",5545-5-3,דירה בבית קומות,4.0,,90.0,945000,,,1993.0,,4.0,3302117640,1,55455,False,,בית שמש,"רש""י",,5545-5-3,5545/5,10500.0,31.7409102268,34.9884805093,2010
2010-06-04,2010-04-06,"עליית הנוער 5, בית שמש",עליית הנוער 5,5232-5-39,דירה בבית קומות,4.0,שניה,86.0,840000,,,1980.0,,3.0,3301436250,1,52325,False,,בית שמש,עלית הנוער,,5232-5-39,5232/5,9767.441860465116,31.745742622,34.9924289646,2010
2010-06-04,2010-04-06,"נחל קטלב 12, בית שמש",נחל קטלב 12,34276-12-23,דירה בבית קומות,4.0,שלישית,98.9,957000,,,1998.0,,4.0,3302125320,1,3427612,False,,בית שמש,נחל קטלב,,34276-12-23,34276/12,9676.440849342767,31.7169949828,34.9958493442,2010
2010-05-31,2010-05-31,"נחל מאור 18, בית שמש",נחל מאור 18,34270-37-26,דירה בבית קומות,3.0,שניה,72.45,825000,,,1997.0,,5.0,3302266830,1,3427037,False,,בית שמש,נחל מאור,,34270-37-26,34270/37,11387.163561076604,31.708073567,35.0002783256,2010
2010-05-31,2010-05-31,"נחל עין גדי 22, בית שמש",נחל עין גדי 22,34277-8-9,דירה בבית קומות,6.0,שניה,112.55,1500000,,,1998.0,,2.0,3302692560,1,342778,False,,בית שמש,נחל עין גדי,,34277-8-9,34277/8,13327.410039982233,31.7161099274,34.9826349253,2010
2010-05-31,2010-05-31,"מנוח 5, בית שמש",מנוח 5,5211-80-1,דירה בבית קומות,8.0,ראשונה,220.0,1665000,,,1980.0,,1.0,3302302260,1,521180,False,,בית שמש,מנוח,,5211-80-1,5211/80,7568.181818181818,31.7473085446,34.9796177351,2010
2010-05-31,2010-05-31,"דובר שלום 2, בית שמש",דובר שלום 2,5151-20-14,דירה,5.0,,130.0,1009288,1.0,לבנה ברמה,2003.0,,6.0,11181250803,1,515120,False,,בית שמש,דובר שלום,,5151-20-14,5151/20,7763.753846153846,31.7354716671,34.9918788666,2010
2010-05-27,2010-05-27,"בן איש חי 35, בית שמש",בן איש חי 35,5935-18-74,דירה בבית קומות,4.0,,85.0,905000,,,2008.0,,6.0,3302690850,1,593518,False,,בית שמש,בן איש חי,,5935-18-74,5935/18,10647.058823529413,31.7469787939,35.0000903465,2010
2010-05-27,2010-05-27,"רבי נחוניה 6, בית שמש",רבי נחוניה 6,5152-16-38,דירה בבית קומות,2.0,שלישית,55.0,700000,,,2001.0,,3.0,3302589330,1,515216,False,94% ב 8.5 שנים,בית שמש,תכלת מרדכי,11.06,5152-16-38,5152/16,12727.272727272728,31.7334488021,34.9896877636,2010
2010-05-26,2010-05-26,"קדושת אהרון 11, בית שמש",קדושת אהרון 11,5151-13-84,דירה,4.0,,91.0,970000,1.0,קרית בעלזא,2010.0,,7.0,11181250786,1,515113,False,,בית שמש,קדושת אהרון,,5151-13-84,5151/13,10659.34065934066,31.7358300036,34.9890737065,2010
2010-05-26,2010-05-26,"באר שבע 4, בית שמש",באר שבע 4,34278-106-18,דירה בבית קומות,5.0,"שניה, שלישית",124.32,1290000,,,2010.0,,2.0,3302228490,1,34278106,False,,בית שמש,באר שבע,,34278-106-18,34278/106,10376.447876447875,31.7131166148,34.9866630264,2010
2010-05-26,2010-05-26,"קדושת אהרון 11, בית שמש",קדושת אהרון 11,5151-13-83,דירה,4.0,ראשונה,88.0,811250,1.0,קרית בעלזא,2010.0,,7.0,11181250785,1,515113,False,,בית שמש,קדושת אהרון,,5151-13-83,5151/13,9218.75,31.7358300036,34.9890737065,2010
2010-05-26,2010-05-26,"קדושת אהרון 11, בית שמש",קדושת אהרון 11,5151-13-82,דירה,3.0,רביעית,76.0,655000,1.0,קרית בעלזא,2010.0,,7.0,11181250784,1,515113,False,,בית שמש,קדושת אהרון,,5151-13-82,5151/13,8618.421052631578,31.7358300036,34.9890737065,2010
2010-05-26,2010-05-26,"קדושת אהרון 11, בית שמש",קדושת אהרון 11,5151-13-81,דירה,3.0,שניה,76.0,646000,1.0,קרית בעלזא,2010.0,,7.0,11181250783,1,515113,False,,בית שמש,קדושת אהרון,,5151-13-81,5151/13,8500.0,31.7358300036,34.9890737065,2010
2010-05-26,2010-05-26,"קדושת אהרון 11, בית שמש",קדושת אהרון 11,5151-13-80,דירה,3.0,רביעית,76.0,600000,1.0,קרית בעלזא,2010.0,,7.0,11181250782,1,515113,False,,בית שמש,קדושת אהרון,,5151-13-80,5151/13,7894.736842105263,31.7358300036,34.9890737065,2010
2010-05-25,2010-05-25,"נחל עין גדי 33, בית שמש",נחל עין גדי 33,34277-5-18,דירה בבית קומות,3.0,ראשונה,71.15,825000,,,1998.0,,3.0,3302152290,1,342775,False,,בית שמש,נחל עין גדי,,34277-5-18,34277/5,11595.221363316936,31.715406885,34.9815776704,2010
2010-05-23,2010-05-23,"קדושת אהרון 11, בית שמש",קדושת אהרון 11,5151-13-75,דירה,3.0,שלישית,76.0,655000,1.0,קרית בעלזא,2010.0,,7.0,11181250776,1,515113,False,,בית שמש,קדושת אהרון,,5151-13-75,5151/13,8618.421052631578,31.7358300036,34.9890737065,2010
2010-05-23,2010-05-23,"קדושת אהרון 11, בית שמש",קדושת אהרון 11,5151-13-79,דירה,4.0,ראשונה,91.0,840000,1.0,קרית בעלזא,2010.0,,7.0,11181250780,1,515113,False,,בית שמש,קדושת אהרון,,5151-13-79,5151/13,9230.76923076923,31.7358300036,34.9890737065,2010
2010-05-23,2010-05-23,"קדושת אהרון 11, בית שמש",קדושת אהרון 11,5151-13-77,דירה,3.0,ראשונה,76.0,680000,1.0,קרית בעלזא,2010.0,,7.0,11181250778,1,515113,False,,בית שמש,קדושת אהרון,,5151-13-77,5151/13,8947.368421052632,31.7358300036,34.9890737065,2010
2010-05-23,2010-05-23,"קדושת אהרון 11, בית שמש",קדושת אהרון 11,5151-13-76,דירה,3.0,שניה,76.0,660000,1.0,קרית בעלזא,2010.0,,7.0,11181250777,1,515113,False,,בית שמש,קדושת אהרון,,5151-13-76,5151/13,8684.21052631579,31.7358300036,34.9890737065,2010
2010-05-23,2010-05-23,"קדושת אהרון 11, בית שמש",קדושת אהרון 11,5151-13-78,דירה,3.0,שניה,76.0,685000,1.0,קרית בעלזא,2010.0,,7.0,11181250779,1,515113,False,,בית שמש,קדושת אהרון,,5151-13-78,5151/13,9013.157894736842,31.7358300036,34.9890737065,2010
2010-05-23,2010-05-23,"נחל תמר 1, בית שמש",נחל תמר 1,34271-21-3,דירה בבית קומות,6.0,מרתף קרקע ראשונה,187.32,2216000,,,1996.0,,,3302461410,1,3427121,False,,בית שמש,נחל תמר,,34271-21-3,34271/21,11830.023489216315,31.7095969833,34.9945974669,2010
2010-05-20,2010-05-20,"נחל עין גדי 41, בית שמש",נחל עין גדי 41,34279-34-9,דירה בבית קומות,6.0,"מרתף, קרקע, ראשונה, שניה",320.7,2900000,,,2007.0,,2.0,3302143140,1,3427934,False,,בית שמש,נחל עין גדי,,34279-34-9,34279/34,9042.71905207359,31.7146842387,34.9835896451,2010
2010-05-20,2010-05-20,"נהר הירדן 14, בית שמש",נהר הירדן 14,5151-20-81,דירה בבית קומות,3.0,ראשונה,85.0,696000,,,2003.0,,6.0,3302895540,1,515120,False,,בית שמש,נהר הירדן,,5151-20-81,5151/20,8188.235294117647,31.7354716671,34.9918788666,2010
2010-05-20,2010-05-20,"קדושת אהרון 11, בית שמש",קדושת אהרון 11,5151-13-74,דירה,3.0,שלישית,76.0,655000,1.0,קרית בעלזא,2010.0,,7.0,11181250775,1,515113,False,,בית שמש,קדושת אהרון,,5151-13-74,5151/13,8618.421052631578,31.7358300036,34.9890737065,2010
2010-05-19,2010-05-19,"דובר שלום 2, בית שמש",דובר שלום 2,5151-20-13,דירה,4.0,,96.0,822563,1.0,לבנה ברמה,2003.0,,6.0,11181250802,1,515120,False,,בית שמש,דובר שלום,,5151-20-13,5151/20,8568.364583333334,31.7354716671,34.9918788666,2010
2010-05-19,2010-05-19,"דובר שלום 2, בית שמש",דובר שלום 2,5151-20-12,דירה,3.0,,86.0,798921,1.0,לבנה ברמה,2003.0,,6.0,11181250801,1,515120,False,,בית שמש,דובר שלום,,5151-20-12,5151/20,9289.779069767445,31.7354716671,34.9918788666,2010
2010-05-19,2010-05-19,"דובר שלום 2, בית שמש",דובר שלום 2,5151-20-9,דירה,3.0,שניה,75.0,706496,1.0,לבנה ברמה,2003.0,,6.0,11181250820,1,515120,False,,בית שמש,דובר שלום,,5151-20-9,5151/20,9419.946666666669,31.7354716671,34.9918788666,2010
2010-05-19,2010-05-19,"דובר שלום 2, בית שמש",דובר שלום 2,5151-20-8,דירה,3.0,ראשונה,75.0,696403,1.0,לבנה ברמה,2003.0,,6.0,11181250819,1,515120,False,,בית שמש,דובר שלום,,5151-20-8,5151/20,9285.373333333331,31.7354716671,34.9918788666,2010
2010-05-19,2010-05-19,"דובר שלום 2, בית שמש",דובר שלום 2,5151-20-11,דירה,3.0,ראשונה,78.0,716617,1.0,לבנה ברמה,2003.0,,6.0,11181250800,1,515120,False,,בית שמש,דובר שלום,,5151-20-11,5151/20,9187.397435897436,31.7354716671,34.9918788666,2010
2010-05-17,2010-05-17,"נחל הקישון 13, בית שמש",נחל הקישון 13,34276-19-22,דירה בבית קומות,5.0,ראשונה,150.93,1700000,,,2002.0,,4.0,3302097330,1,3427619,False,,בית שמש,נחל הקישון,,34276-19-22,34276/19,11263.499635592658,31.7163392127,34.9903359819,2010
2010-05-17,2010-05-17,"נחל רפאים 5, בית שמש",נחל רפאים 5,34270-19-2,דירה בבית קומות,5.0,מרתף+קרקע+ראשונה,171.2,2100000,,,2000.0,,2.0,3302078250,1,3427019,False,,בית שמש,נחל רפאים,,34270-19-2,34270/19,12266.355140186915,31.7100268467,35.0010451229,2010
2010-05-16,2010-05-16,"נחל דולב 50, בית שמש",נחל דולב 50,34270-30-15,דירה בבית קומות,3.0,שלישית,76.7,888000,,,1998.0,,4.0,3302685630,1,3427030,False,,בית שמש,נחל דולב,,34270-30-15,34270/30,11577.574967405477,31.7101500901,34.9988279583,2010
2010-05-13,2010-05-13,"קדושת אהרון 11, בית שמש",קדושת אהרון 11,5151-13-73,דירה,4.0,ראשונה,88.0,699000,1.0,קרית בעלזא,2010.0,,7.0,11181250774,1,515113,False,,בית שמש,קדושת אהרון,,5151-13-73,5151/13,7943.181818181818,31.7358300036,34.9890737065,2010
2010-05-13,2010-05-13,"קדושת אהרון 6, בית שמש",קדושת אהרון 6,5151-16-52,דירה בבית קומות,4.0,,100.0,699000,,,2009.0,,6.0,3302117880,1,515116,False,,בית שמש,קדושת אהרון,,5151-16-52,5151/16,6990.0,31.7362403255,34.9902486881,2010
2010-05-12,2010-12-05,"קריית ארבע 5, בית שמש",קריית ארבע 5,34279-63-12,דירה בבית קומות,5.0,"שניה, שלישית",119.53,1557000,,,2008.0,,1.0,3305263800,1,3427963,False,36% ב 2.9 שנים,בית שמש,קריית ארבע,12.41,34279-63-12,34279/63,13026.018572743244,31.7138627375,34.9818282437,2010
2010-05-08,2010-08-05,"קהילת יעקב 3, בית שמש",קהילת יעקב 3,5380-20-12,דירה בבית קומות,6.0,שניה שלישית,131.7,1530000,,,1994.0,,2.0,3303443700,1,538020,False,,בית שמש,קהילת יעקב,,5380-20-12,5380/20,11617.31207289294,31.7385119324,34.9968612863,2010
2010-05-05,2010-05-05,"קדושת אהרון 11, בית שמש",קדושת אהרון 11,5151-13-67,דירה,3.0,רביעית,79.0,656000,1.0,קרית בעלזא,2010.0,,7.0,11181250769,1,515113,False,,בית שמש,קדושת אהרון,,5151-13-67,5151/13,8303.79746835443,31.7358300036,34.9890737065,2010
2010-05-05,2010-05-05,"רבי פנחס בן-יאיר 12, בית שמש",רבי פנחס בן-יאיר 12,5151-9-32,דירה בבית קומות,3.0,,75.0,670000,,,2010.0,,6.0,3301978500,1,51519,False,,בית שמש,רבי פנחס בן יאיר,,5151-9-32,5151/9,8933.333333333334,31.735187882,34.9931404813,2010
2010-05-05,2010-05-05,"קדושת אהרון 11, בית שמש",קדושת אהרון 11,5151-13-68,דירה,3.0,ראשונה,79.0,670000,1.0,קרית בעלזא,2010.0,,7.0,11181250770,1,515113,False,,בית שמש,קדושת אהרון,,5151-13-68,5151/13,8481.012658227848,31.7358300036,34.9890737065,2010
2010-05-05,2010-05-05,"צפת 3, בית שמש",צפת 3,34279-70-36,דירה בבית קומות,5.0,"שניה, שלישית, רביעית",153.25,1570000,,,2006.0,,2.0,3301928040,1,3427970,False,,בית שמש,צפת,,34279-70-36,34279/70,10244.698205546492,31.7134972834,34.9856880922,2010
2010-05-05,2010-05-05,"עליית הנוער 6, בית שמש",עליית הנוער 6,5232-9-2,דירה בבית קומות,4.0,קרקע עליונה,93.11,990000,,,1995.0,,3.0,3301893360,1,52329,False,,בית שמש,עלית הנוער,,5232-9-2,5232/9,10632.58511438084,31.7450861477,34.9919023096,2010
2010-05-01,2010-01-05,"הוותיקים 13, בית שמש",הוותיקים 13,5208-29-3,דירה בבית קומות,3.0,שניה,93.0,650000,,,1990.0,,1.0,3300956610,1,520829,False,,בית שמש,הותיקים,,5208-29-3,5208/29,6989.247311827957,31.7510524987,34.9937399689,2010
2010-05-01,2010-01-05,"נחל לכיש 40, בית שמש",נחל לכיש 40,34274-13-49,דירה בבית קומות,3.0,שלישית,68.7,745000,,,2000.0,,5.0,3300130440,1,3427413,False,,בית שמש,נחל לכיש,,34274-13-49,34274/13,10844.25036390102,31.7129454798,34.9937534389,2010
2010-04-29,2010-04-29,"נחל ניצנים 8, בית שמש",נחל ניצנים 8,34278-39-12,משרד,,קרקע,145.7,3673000,,,2002.0,,4.0,3302502270,1,3427839,False,,בית שמש,נחל ניצנים,,34278-39-12,34278/39,25209.33424845573,31.7140804463,34.9878679264,2010
2010-04-28,2010-04-28,"קדושת אהרון 11, בית שמש",קדושת אהרון 11,5151-13-66,דירה בבית קומות,3.0,שניה,79.0,675000,1.0,קרית בעלזא,2010.0,,7.0,3301885230,1,515113,False,,בית שמש,קדושת אהרון,,5151-13-66,5151/13,8544.303797468354,31.7358300036,34.9890737065,2010
2010-04-28,2010-04-28,"תפארת משה 2, בית שמש",תפארת משה 2,5208-103-1,דירה בבית קומות,4.0,,100.0,617000,,,2011.0,,,3302034480,1,5208103,False,,בית שמש,תפארת משה,,5208-103-1,5208/103,6170.0,31.7496953703,34.9939354179,2010
2010-04-27,2010-04-27,"קדושת אהרון 11, בית שמש",קדושת אהרון 11,5151-13-65,דירה,3.0,שלישית,76.0,693300,1.0,קרית בעלזא,2010.0,,7.0,11181250768,1,515113,False,,בית שמש,קדושת אהרון,,5151-13-65,5151/13,9122.368421052632,31.7358300036,34.9890737065,2010
2010-04-27,2010-04-27,"נחל עין גדי 25, בית שמש",נחל עין גדי 25,34277-7-24,דירה בבית קומות,4.0,קרקע,84.1,1100000,,,1995.0,,2.0,3301962660,1,342777,False,,בית שמש,נחל עין גדי,,34277-7-24,34277/7,13079.667063020215,31.7156473317,34.9820971004,2010
2010-04-27,2010-04-27,"תפארת משה 2, בית שמש",תפארת משה 2,5208-103-2,דירה בבית קומות,4.0,ראשונה,100.0,564000,,,2011.0,,,3302051280,1,5208103,False,,בית שמש,תפארת משה,,5208-103-2,5208/103,5640.0,31.7496953703,34.9939354179,2010
2010-04-27,2010-04-27,"חיד""א 1, בית שמש","חיד""א 1",5934-21-120,דירה בבית קומות,3.0,רביעית,75.0,543000,,,2009.0,,5.0,3302034240,1,593421,False,,בית שמש,"חיד""א",,5934-21-120,5934/21,7240.0,31.749617221,34.9998631122,2010
2010-04-27,2010-04-27,"חיד""א 1, בית שמש","חיד""א 1",5934-21-16,דירה,3.0,שניה,89.0,617422,1.0,נוף צורים,2009.0,,5.0,11181258485,1,593421,False,,בית שמש,"חיד""א",,5934-21-16,5934/21,6937.3258426966295,31.749617221,34.9998631122,2010
2010-04-26,2010-04-26,"חיד""א 1, בית שמש","חיד""א 1",5934-21-121,דירה בבית קומות,4.0,,75.0,617000,,,2009.0,,5.0,3302017590,1,593421,False,,בית שמש,"חיד""א",,5934-21-121,5934/21,8226.666666666666,31.749617221,34.9998631122,2010
2010-04-26,2010-04-26,"חיד""א 1, בית שמש","חיד""א 1",5934-21-12,דירה,3.0,רביעית,75.0,543391,1.0,נוף צורים,2009.0,,5.0,3302017830,1,593421,False,,בית שמש,"חיד""א",,5934-21-12,5934/21,7245.213333333333,31.749617221,34.9998631122,2010
2010-04-26,2010-04-26,"קדושת אהרון 11, בית שמש",קדושת אהרון 11,5151-13-61,דירה בבית קומות,3.0,,75.0,738000,,,2010.0,,7.0,3301765470,1,515113,False,,בית שמש,קדושת אהרון,,5151-13-61,5151/13,9840.0,31.7358300036,34.9890737065,2010
2010-04-26,2010-04-26,"חיד""א 1, בית שמש","חיד""א 1",5934-21-13,דירה,3.0,שלישית,70.0,564429,1.0,נוף צורים,2009.0,,5.0,3302051040,1,593421,False,,בית שמש,"חיד""א",,5934-21-13,5934/21,8063.271428571428,31.749617221,34.9998631122,2010
2010-04-26,2010-04-26,"הל""ה 18, בית שמש","הל""ה 18",5207-22-5,דירה בבית קומות,3.0,,75.0,725000,,,2006.0,,1.0,3301901310,1,520722,False,,בית שמש,"הל""ה",,5207-22-5,5207/22,9666.666666666666,31.7494835155,34.9966965306,2010
2010-04-26,2010-04-26,"חיד""א 1, בית שמש","חיד""א 1",5934-21-14,דירה,4.0,ראשונה,97.0,708876,1.0,נוף צורים,2009.0,,5.0,11181258483,1,593421,False,,בית שמש,"חיד""א",,5934-21-14,5934/21,7308.0,31.749617221,34.9998631122,2010
2010-04-26,2010-04-26,"חיד""א 1, בית שמש","חיד""א 1",5934-21-15,דירה,4.0,,105.0,726003,1.0,נוף צורים,2009.0,,5.0,11181258484,1,593421,False,,בית שמש,"חיד""א",,5934-21-15,5934/21,6914.314285714286,31.749617221,34.9998631122,2010
2010-04-26,2010-04-26,"קדושת אהרון 11, בית שמש",קדושת אהרון 11,5151-13-63,דירה,3.0,שניה,76.0,677000,1.0,קרית בעלזא,2010.0,,7.0,11181250766,1,515113,False,,בית שמש,קדושת אהרון,,5151-13-63,5151/13,8907.894736842105,31.7358300036,34.9890737065,2010
2010-04-26,2010-04-26,"קדושת אהרון 11, בית שמש",קדושת אהרון 11,5151-13-64,דירה,3.0,שניה,76.0,685000,1.0,קרית בעלזא,2010.0,,7.0,11181250767,1,515113,False,,בית שמש,קדושת אהרון,,5151-13-64,5151/13,9013.157894736842,31.7358300036,34.9890737065,2010
2010-04-26,2010-04-26,"קדושת אהרון 11, בית שמש",קדושת אהרון 11,5151-13-62,דירה,3.0,שלישית,76.0,655000,1.0,קרית בעלזא,2010.0,,7.0,11181250765,1,515113,False,,בית שמש,קדושת אהרון,,5151-13-62,5151/13,8618.421052631578,31.7358300036,34.9890737065,2010
2010-04-26,2010-04-26,"תפארת משה 2, בית שמש",תפארת משה 2,5208-103-9,דירה בבית קומות,4.0,רביעית,110.0,708000,,,2011.0,,,3302030490,1,5208103,False,,בית שמש,תפארת משה,,5208-103-9,5208/103,6436.363636363636,31.7496953703,34.9939354179,2010
2010-04-25,2010-04-25,"חיד""א 1, בית שמש","חיד""א 1",5934-21-9,דירה,3.0,שלישית,81.0,564429,1.0,נוף צורים,2009.0,,5.0,11181258513,1,593421,False,,בית שמש,"חיד""א",,5934-21-9,5934/21,6968.259259259259,31.749617221,34.9998631122,2010
2010-04-25,2010-04-25,"נחל עין גדי 41, בית שמש",נחל עין גדי 41,34279-34-3,דירה בבית קומות,6.0,"קרקע, ראשונה, שניה, שלישית",233.15,1940000,,,2011.0,,,3301739430,1,3427934,False,,בית שמש,נחל עין גדי,,34279-34-3,34279/34,8320.823504181857,31.7146842387,34.9835896451,2010
2010-04-25,2010-04-25,"דוד רזיאל 4, בית שמש",דוד רזיאל 4,5240-28-10,דירה בבית קומות,4.0,שניה,76.1,700000,,,1980.0,,4.0,3301783980,1,524028,False,41% ב 4.1 שנים,בית שמש,רזיאל דוד,10.0,5240-28-10,5240/28,9198.423127463864,31.7425764243,34.9824252115,2010
2010-04-25,2010-04-25,"חיד""א 1, בית שמש","חיד""א 1",5934-21-11,דירה,4.0,ראשונה,97.0,708876,1.0,נוף צורים,2009.0,,5.0,11181258482,1,593421,False,,בית שמש,"חיד""א",,5934-21-11,5934/21,7308.0,31.749617221,34.9998631122,2010
2010-04-25,2010-04-25,"חיד""א 1, בית שמש","חיד""א 1",5934-21-10,דירה,3.0,שניה,89.0,617422,1.0,נוף צורים,2009.0,,5.0,11181258481,1,593421,False,,בית שמש,"חיד""א",,5934-21-10,5934/21,6937.3258426966295,31.749617221,34.9998631122,2010
2010-04-25,2010-04-25,"חיד""א 1, בית שמש","חיד""א 1",5934-21-8,דירה,3.0,רביעית,79.0,543391,1.0,נוף צורים,2009.0,,5.0,11181258512,1,593421,False,,בית שמש,"חיד""א",,5934-21-8,5934/21,6878.367088607595,31.749617221,34.9998631122,2010
2010-04-22,2010-04-22,"קדושת אהרון 11, בית שמש",קדושת אהרון 11,5151-13-60,דירה,3.0,שניה,76.0,746000,1.0,קרית בעלזא,2010.0,,7.0,3542869350,1,515113,False,,בית שמש,קדושת אהרון,,5151-13-60,5151/13,9815.78947368421,31.7358300036,34.9890737065,2010
2010-04-21,2010-04-21,"קדושת אהרון 11, בית שמש",קדושת אהרון 11,5151-13-200,דירה בבית קומות,3.0,,60.0,670000,,,2010.0,,7.0,3302122350,1,515113,False,,בית שמש,קדושת אהרון,,5151-13-200,5151/13,11166.666666666666,31.7358300036,34.9890737065,2010
2010-04-20,2010-04-20,"רבי יוסי בן-קיסמא 10, בית שמש",רבי יוסי בן-קיסמא 10,5943-27-57,דירה בבית קומות,3.0,שניה,89.8,630000,,,1997.0,,2.0,3363541410,1,594327,False,,בית שמש,רבי יוסי בן קיסמא,,5943-27-57,5943/27,7015.590200445435,31.7363850041,34.9982646098,2010
2010-04-18,2010-04-18,"סיני 48, בית שמש",סיני 48,5207-100-1,דירה בבית קומות,1.0,ראשונה,14000.0,20964000,,,2010.0,,,3302024790,1,5207100,False,,בית שמש,סיני,,5207-100-1,5207/100,1497.428571428571,31.7520264264,34.9975775214,2010
2010-04-18,2010-04-18,"חבקוק הנביא 50, בית שמש",חבקוק הנביא 50,34355-29-1,מגורים,,,335.0,583000,,,,,,3302732670,1,3435529,False,,בית שמש,חבקוק הנביא,,34355-29-1,34355/29,1740.2985074626863,31.7099411489,34.9803544473,2010
2010-04-15,2010-04-15,"נחל יעלה 20, בית שמש",נחל יעלה 20,34273-28-1,דירה בבית קומות,7.0,,220.0,4250000,,,2006.0,,,3302805930,1,3427328,False,,בית שמש,נחל יעלה,,34273-28-1,34273/28,19318.18181818182,31.7171064234,34.9989534022,2010
2010-04-14,2010-04-14,"נחל נחשון 1, בית שמש",נחל נחשון 1,34274-22-14,דירה בבית קומות,4.0,שלישית,94.85,1120000,,,1998.0,,5.0,3301662930,1,3427422,False,52% ב 7 שנים,בית שמש,נחל נחשון,7.43,34274-22-14,34274/22,11808.118081180812,31.7137832999,34.9935094477,2010
2010-04-13,2010-04-13,"נחל הבשור 7, בית שמש",נחל הבשור 7,34270-34-17,דירה בבית קומות,4.0,שניה,98.2,852000,,,1999.0,,5.0,3301600560,1,3427034,False,,בית שמש,נחל הבשור,,34270-34-17,34270/34,8676.171079429734,31.7098616416,35.0000874007,2010
2010-04-11,2010-11-04,"נהר הירדן 51, בית שמש",נהר הירדן 51,5941-8-18,דירה בבית קומות,3.0,שניה,67.1,820000,,,1996.0,,2.0,3304592610,1,59418,False,,בית שמש,נהר הירדן,,5941-8-18,5941/8,12220.566318926976,31.7259769256,34.9961005525,2010
2010-04-08,2010-08-04,"באר שבע 4, בית שמש",באר שבע 4,34278-106-17,דירה בבית קומות,5.0,"שניה, שלישית",128.52,1390000,,,2010.0,,2.0,3303453840,1,34278106,False,,בית שמש,באר שבע,,34278-106-17,34278/106,10815.43728602552,31.7131166148,34.9866630264,2010
2010-04-08,2010-08-04,"פולה בן-גוריון 1, בית שמש",פולה בן-גוריון 1,5240-2-1,דירה בבית קומות,3.0,קרקע,64.0,1015000,,,1980.0,,1.0,3303397440,1,52402,False,25% ב 2 שנים,בית שמש,בן גוריון פולה,12.5,5240-2-1,5240/2,15859.375,31.7436017469,34.9808327782,2010
2010-04-07,2010-07-04,"חזון איש 18, בית שמש",חזון איש 18,5379-23-2,דירה בבית קומות,3.0,קרקע,71.0,830000,,,1988.0,,3.0,3303109350,1,537923,False,,בית שמש,חזון איש,,5379-23-2,5379/23,11690.140845070422,31.7387666156,34.9927573612,2010
2010-04-07,2010-07-04,"נהר הירדן 14, בית שמש",נהר הירדן 14,5151-20-75,דירה בבית קומות,3.0,,85.0,731000,,,2003.0,,6.0,3302896020,1,515120,False,,בית שמש,נהר הירדן,,5151-20-75,5151/20,8600.0,31.7354716671,34.9918788666,2010
2010-04-07,2010-07-04,"נחל שחם 7, בית שמש",נחל שחם 7,34274-63-7,דירה בבית קומות,4.0,רביעית,90.3,1050000,,,2008.0,,5.0,3303024690,1,3427463,False,,בית שמש,נחל שחם,,34274-63-7,34274/63,11627.906976744189,31.7129231495,34.9896387187,2010
2010-04-07,2010-07-04,"נחל רביבים 18, בית שמש",נחל רביבים 18,34271-29-41,דירה בבית קומות,4.0,שלישית,90.0,980000,,,1999.0,,6.0,3302858640,1,3427129,False,89% ב 11.5 שנים,בית שמש,נחל רביבים,7.74,34271-29-41,34271/29,10888.888888888889,31.7107609474,34.9926206848,2010
2010-04-06,2010-06-04,"דן לנר 6, בית שמש",דן לנר 6,5239-31-4,דירה בבית קומות,6.0,ראשונה+ שניה,109.1,850000,,,1990.0,,3.0,3302824230,1,523931,False,58% ב 2 שנים,בית שמש,לנר דן,29.0,5239-31-4,5239/31,7791.017415215399,31.7423930815,34.9920150037,2010
2010-04-05,2010-05-04,"נחל דולב 41, בית שמש",נחל דולב 41,34272-13-14,דירה בבית קומות,4.0,שניה,82.67,1200000,,,1998.0,,5.0,3301849800,1,3427213,False,,בית שמש,נחל דולב,,34272-13-14,34272/13,14515.54372807548,31.7115234437,34.9990559648,2010
2010-04-05,2010-05-04,"נחל שורק 19, בית שמש",נחל שורק 19,34274-19-29,דירה בבית קומות,6.0,שלישית+רביעית,131.6,1950000,,,1999.0,,3.0,3301908990,1,3427419,False,203% ב 9.2 שנים,בית שמש,נחל שורק,22.07,34274-19-29,34274/19,14817.629179331308,31.7151605765,34.9909774715,2010
2010-04-03,2010-03-04,"קדושת אהרון 11, בית שמש",קדושת אהרון 11,5151-13-54,דירה,3.0,רביעית,79.0,648500,1.0,קרית בעלזא,2010.0,,7.0,11181250759,1,515113,False,,בית שמש,קדושת אהרון,,5151-13-54,5151/13,8208.860759493671,31.7358300036,34.9890737065,2010
2010-04-02,2010-02-04,"הסביון 2, בית שמש",הסביון 2,5220-81-2,דירה בבית קומות,4.0,קרקע,72.55,835000,,,1980.0,,3.0,3300957330,1,522081,False,,בית שמש,הסביון,,5220-81-2,5220/81,11509.303928325293,31.7386233277,34.9814368521,2010
2010-04-02,2010-02-04,"רבי יוסי בן-קיסמא 13, בית שמש",רבי יוסי בן-קיסמא 13,5943-45-47,דירה בבית קומות,3.5,שניה,75.0,815000,,,2000.0,,4.0,3300728100,1,594345,False,,בית שמש,רבי יוסי בן קיסמא,,5943-45-47,5943/45,10866.666666666666,31.7357035791,34.9978739037,2010
2010-04-01,2010-01-04,"דן לנר 3, בית שמש",דן לנר 3,5239-28-18,דירה בבית קומות,4.0,ראשונה,80.6,860000,,,1991.0,,2.0,3300089610,1,523928,False,,בית שמש,לנר דן,,5239-28-18,5239/28,10669.97518610422,31.7422527403,34.9913025816,2010
2010-04-01,2010-01-04,"יוסי בנאי 11, בית שמש",יוסי בנאי 11,5201-113-11,דירה בבית קומות,6.0,מרתף + קרקע + ראשונה,166.0,1640000,,,2007.0,,4.0,3300378900,1,5201113,False,19% ב 2.4 שנים,בית שמש,בנאי יוסי,7.92,5201-113-11,5201/113,9879.518072289156,31.752567541,34.9801109753,2010
2010-03-28,2010-03-28,"נחל שמשון 13, בית שמש",נחל שמשון 13,34269-8-3,דירה בבית קומות,5.0,ראשונה,117.55,1275000,,,1998.0,,3.0,3302145870,1,342698,False,,בית שמש,נחל שמשון,,34269-8-3,34269/8,10846.448319863888,31.7133245846,35.0007352269,2010
2010-03-25,2010-03-25,"נחל דולב 35, בית שמש",נחל דולב 35,34272-13-77,דירה בבית קומות,3.0,רביעית,67.19,820000,,,1998.0,,5.0,3301627320,1,3427213,False,,בית שמש,נחל דולב,,34272-13-77,34272/13,12204.197053132908,31.7115234437,34.9990559648,2010
2010-03-25,2010-03-25,"צפת 5, בית שמש",צפת 5,34279-70-38,דירה בבית קומות,5.0,"קרקע, ראשונה",134.9,1560000,,,2006.0,,1.0,3301873800,1,3427970,False,,בית שמש,צפת,,34279-70-38,34279/70,11564.12157153447,31.7134972834,34.9856880922,2010
2010-03-22,2010-03-22,"קדושת אהרון 11, בית שמש",קדושת אהרון 11,5151-13-59,דירה,3.0,רביעית,76.0,635000,1.0,קרית בעלזא,2010.0,,7.0,11181250763,1,515113,False,,בית שמש,קדושת אהרון,,5151-13-59,5151/13,8355.263157894737,31.7358300036,34.9890737065,2010
2010-03-22,2010-03-22,"נחל מיכה 3, בית שמש",נחל מיכה 3,34276-15-5,דירה בבית קומות,3.0,שניה,81.36,1010000,,,2000.0,,5.0,3301466970,1,3427615,False,,בית שמש,נחל מיכה,,34276-15-5,34276/15,12413.962635201571,31.7165155203,34.9922355268,2010
2010-03-22,2010-03-22,"קדושת אהרון 11, בית שמש",קדושת אהרון 11,5151-13-58,דירה בבית קומות,3.0,חמישית,76.0,620000,1.0,קרית בעלזא,2010.0,,7.0,3301424370,1,515113,False,,בית שמש,קדושת אהרון,,5151-13-58,5151/13,8157.894736842105,31.7358300036,34.9890737065,2010
2010-03-22,2010-03-22,"נחל דולב 52, בית שמש",נחל דולב 52,34270-30-57,דירה בבית קומות,4.0,רביעית,91.8,1018000,,,1998.0,,5.0,3301360740,1,3427030,False,,בית שמש,נחל דולב,,34270-30-57,34270/30,11089.324618736384,31.7101500901,34.9988279583,2010
2010-03-22,2010-03-22,"התבור 2, בית שמש",התבור 2,5232-25-11,דירה בבית קומות,4.0,קרקע+ראשונה,92.35,1100000,,,1995.0,,3.0,3301424850,1,523225,False,41% ב 1.5 שנים,בית שמש,התבור,27.33,5232-25-11,5232/25,11911.207363291824,31.7471058585,34.9944540838,2010
2010-03-22,2010-03-22,"רבי יהודה צדקה 1, בית שמש",רבי יהודה צדקה 1,5935-23-1,דירה בבית קומות,3.0,,85.0,720000,,,2008.0,,5.0,3301672140,1,593523,False,,בית שמש,רבי צדקה יהודה,,5935-23-1,5935/23,8470.588235294117,31.7442108931,34.9994565754,2010
2010-03-18,2010-03-18,"נחל רפאים 5, בית שמש",נחל רפאים 5,34270-19-3,דירה בבית קומות,6.0,מרתף+קרקע+ראשונה,165.1,2023000,,,2000.0,,2.0,3301347900,1,3427019,False,,בית שמש,נחל רפאים,,34270-19-3,34270/19,12253.179890975169,31.7100268467,35.0010451229,2010
2010-03-18,2010-03-18,"נחל רפאים 23, בית שמש",נחל רפאים 23,34271-20-7,דירה בבית קומות,6.0,"קרקע , ראשונה",119.3,1769000,,,1993.0,,2.0,3301564470,1,3427120,False,,בית שמש,נחל רפאים,,34271-20-7,34271/20,14828.164291701592,31.7105610184,34.996685222,2010
2010-03-18,2010-03-18,"נחל עין גדי 22, בית שמש",נחל עין גדי 22,34277-8-13,דירה בבית קומות,4.0,קרקע,84.1,1000000,,,1998.0,,2.0,3301294440,1,342778,False,,בית שמש,נחל עין גדי,,34277-8-13,34277/8,11890.606420927468,31.7161099274,34.9826349253,2010
2010-03-18,2010-03-18,"קדושת אהרון 11, בית שמש",קדושת אהרון 11,5151-13-57,דירה,3.0,שניה,76.0,691900,1.0,קרית בעלזא,2010.0,,7.0,11181250762,1,515113,False,,בית שמש,קדושת אהרון,,5151-13-57,5151/13,9103.947368421052,31.7358300036,34.9890737065,2010
2010-03-18,2010-03-18,"קדושת אהרון 11, בית שמש",קדושת אהרון 11,5151-13-56,דירה,3.0,חמישית,76.0,638300,1.0,קרית בעלזא,2010.0,,7.0,11181250761,1,515113,False,,בית שמש,קדושת אהרון,,5151-13-56,5151/13,8398.684210526315,31.7358300036,34.9890737065,2010
2010-03-18,2010-03-18,"קדושת אהרון 11, בית שמש",קדושת אהרון 11,5151-13-55,דירה,3.0,רביעית,79.0,625000,1.0,קרית בעלזא,2010.0,,7.0,11181250760,1,515113,False,,בית שמש,קדושת אהרון,,5151-13-55,5151/13,7911.392405063291,31.7358300036,34.9890737065,2010
2010-03-18,2010-03-18,"קדושת אהרון 11, בית שמש",קדושת אהרון 11,5151-13-202,דירה בבית קומות,3.0,,75.0,653000,,,2010.0,,7.0,3301414680,1,515113,False,,בית שמש,קדושת אהרון,,5151-13-202,5151/13,8706.666666666666,31.7358300036,34.9890737065,2010
2010-03-17,2010-03-17,"נחל מאור 15, בית שמש",נחל מאור 15,34270-38-39,דירה בבית קומות,4.0,קרקע,100.5,1280000,,,2000.0,,5.0,3301348440,1,3427038,False,,בית שמש,נחל מאור,,34270-38-39,34270/38,12736.3184079602,31.7083371524,35.0010312771,2010
2010-03-17,2010-03-17,"הגפן 21, בית שמש",הגפן 21,5238-25-1,דירה בבית קומות,3.0,קרקע,88.1,800000,,,1970.0,,,3301805250,1,523825,False,,בית שמש,הגפן,,5238-25-1,5238/25,9080.590238365494,31.7462276941,34.9876183727,2010
2010-03-17,2010-03-17,"נחל צאלים 14, בית שמש",נחל צאלים 14,34279-69-1,דירה בבית קומות,4.0,"קרקע, ראשונה",128.65,1450000,,,2007.0,,1.0,3301501320,1,3427969,False,22% ב 3 שנים,בית שמש,נחל צאלים,7.33,34279-69-1,34279/69,11270.89001165954,31.7136251926,34.9846132197,2010
2010-03-16,2010-03-16,"נהר הירדן 9, בית שמש",נהר הירדן 9,5151-19-9,דירה בבית קומות,4.0,שניה,98.0,1065000,,,2003.0,,3.0,3301358490,1,515119,False,,בית שמש,נהר הירדן,,5151-19-9,5151/19,10867.34693877551,31.7352906383,34.9925999329,2010
2010-03-16,2010-03-16,"רבי יהודה צדקה 1, בית שמש",רבי יהודה צדקה 1,5935-23-28,דירה בבית קומות,3.0,רביעית,65.0,950000,,,2008.0,,5.0,3301777290,1,593523,False,,בית שמש,רבי צדקה יהודה,,5935-23-28,5935/23,14615.384615384615,31.7442108931,34.9994565754,2010
2010-03-16,2010-03-16,"נחל גילה 4, בית שמש",נחל גילה 4,34271-29-12,דירה בבית קומות,4.0,שניה,90.0,1036000,,,1999.0,,8.0,3301395150,1,3427129,False,,בית שמש,נחל גילה,,34271-29-12,34271/29,11511.111111111111,31.7107609474,34.9926206848,2010
2010-03-16,2010-03-16,"נחל רביבים 17, בית שמש",נחל רביבים 17,34271-32-35,דירה בבית קומות,4.0,שלישית,82.4,800000,,,1999.0,,3.0,3301317240,1,3427132,False,,בית שמש,נחל רביבים,,34271-32-35,34271/32,9708.73786407767,31.7104669905,34.9937038591,2010
2010-03-14,2010-03-14,"האיריס 19, בית שמש",האיריס 19,5220-23-2,דירה בבית קומות,7.0,,175.0,1800000,,,1970.0,,1.0,3301487700,1,522023,False,,בית שמש,האיריס,,5220-23-2,5220/23,10285.714285714286,31.7393564083,34.979287627,2010
2010-03-13,2010-03-13,"הל""ה 18, בית שמש","הל""ה 18",5207-22-1,דירה בבית קומות,3.0,ראשונה,75.0,703000,,,2006.0,,1.0,3301762950,1,520722,False,,בית שמש,"הל""ה",,5207-22-1,5207/22,9373.333333333334,31.7494835155,34.9966965306,2010
2010-03-11,2010-11-03,"המשלט 17, בית שמש",המשלט 17,5208-45-1,דירה בבית קומות,3.0,,75.0,925000,,,2000.0,,,3304797060,1,520845,False,,בית שמש,המשלט,,5208-45-1,5208/45,12333.333333333334,31.750173918,34.9948409413,2010
2010-03-10,2010-10-03,"יצחק רבין 22, בית שמש",יצחק רבין 22,5232-15-13,דירה בבית קומות,4.0,קרקע,85.7,1120000,,,1995.0,,3.0,3304004790,1,523215,False,,בית שמש,רבין יצחק,,5232-15-13,5232/15,13068.84480746791,31.744417244,34.9933906462,2010
2010-03-08,2010-08-03,"גד 13, בית שמש",גד 13,5546-82-1,דירה בבית קומות,5.0,"קומה ‎0‏, קומה ‎1‏",121.8,1400000,,,2007.0,,3.0,3303359340,1,554682,False,,בית שמש,גד,,5546-82-1,5546/82,11494.25287356322,31.7372397714,34.9918681047,2010
2010-03-07,2010-07-03,"דובר שלום 2, בית שמש",דובר שלום 2,5151-20-18,דירה,3.0,שלישית,75.0,726681,1.0,לבנה ברמה,2003.0,,6.0,11181250807,1,515120,False,,בית שמש,דובר שלום,,5151-20-18,5151/20,9689.08,31.7354716671,34.9918788666,2010
2010-03-07,2010-07-03,"דובר שלום 2, בית שמש",דובר שלום 2,5151-20-19,דירה,3.0,שלישית,78.0,731728,1.0,לבנה ברמה,2003.0,,6.0,11181250808,1,515120,False,,בית שמש,דובר שלום,,5151-20-19,5151/20,9381.128205128203,31.7354716671,34.9918788666,2010
2010-03-06,2010-06-03,"נחל שורק 19, בית שמש",נחל שורק 19,34274-19-25,דירה בבית קומות,4.0,ראשונה,87.3,1630000,,,1999.0,,3.0,3302373780,1,3427419,False,208% ב 8.5 שנים,בית שמש,נחל שורק,24.47,34274-19-25,34274/19,18671.248568155785,31.7151605765,34.9909774715,2010
2010-03-05,2010-05-03,"נחל עין גדי 33, בית שמש",נחל עין גדי 33,34277-5-12,דירה בבית קומות,5.0,ראשונה + שניה,104.25,1020000,,,1998.0,,3.0,3302534940,1,342775,False,,בית שמש,נחל עין גדי,,34277-5-12,34277/5,9784.172661870503,31.715406885,34.9815776704,2010
2010-03-03,2010-03-03,"נחל מאור 8, בית שמש",נחל מאור 8,34270-36-2,חנות,,קרקע,,169000,,,2000.0,,6.0,3301491450,1,3427036,False,,בית שמש,נחל מאור,,34270-36-2,34270/36,,31.7092364247,35.0006806368,2010
2010-03-03,2010-03-03,"קדושת אהרון 11, בית שמש",קדושת אהרון 11,5151-13-52,דירה,3.0,שלישית,79.0,665000,1.0,קרית בעלזא,2010.0,,7.0,11181250757,1,515113,False,,בית שמש,קדושת אהרון,,5151-13-52,5151/13,8417.721518987342,31.7358300036,34.9890737065,2010
2010-03-03,2010-03-03,"קדושת אהרון 11, בית שמש",קדושת אהרון 11,5151-13-53,דירה,3.0,חמישית,76.0,700000,1.0,קרית בעלזא,2010.0,,7.0,11181250758,1,515113,False,,בית שמש,קדושת אהרון,,5151-13-53,5151/13,9210.526315789471,31.7358300036,34.9890737065,2010
2010-03-02,2010-02-03,"רבי פנחס בן-יאיר 12, בית שמש",רבי פנחס בן-יאיר 12,5151-9-33,דירה בבית קומות,5.0,,150.0,1333000,,,2010.0,,6.0,3301078590,1,51519,False,,בית שמש,רבי פנחס בן יאיר,,5151-9-33,5151/9,8886.666666666666,31.735187882,34.9931404813,2010
2010-03-02,2010-02-03,"הרקפת 22, בית שמש",הרקפת 22,5220-100-1,דירה בבית קומות,6.0,ראשונה,200.0,1535000,,,1985.0,,,3300773940,1,5220100,False,,בית שמש,הרקפת,,5220-100-1,5220/100,7675.0,31.7375456405,34.9792342207,2010
2010-03-02,2010-02-03,"אור שמח 26, בית שמש",אור שמח 26,5381-11-2,דירה בבית קומות,4.0,קרקע,84.6,980000,,,1992.0,,4.0,3300589290,1,538111,False,,בית שמש,אור שמח,,5381-11-2,5381/11,11583.924349881798,31.7398544477,34.9952049989,2010
2010-03-01,2010-01-03,"המעפילים 3, בית שמש",המעפילים 3,5210-57-9,דירה בבית קומות,3.0,שניה,46.8,460000,,,1960.0,,3.0,3300091500,1,521057,False,42% ב 6.7 שנים,בית שמש,המעפילים,6.27,5210-57-9,5210/57,9829.05982905983,31.7514749007,34.9867939617,2010
2010-03-01,2010-01-03,"ביאליק 7, בית שמש",ביאליק 7,5210-16-6,דירה בבית קומות,3.0,רביעית,45.4,430000,,,1960.0,,3.0,3300091290,1,521016,False,118% ב 1.5 שנים,בית שמש,ביאליק,78.67,5210-16-6,5210/16,9471.36563876652,31.7519707364,34.9846590266,2010
2010-02-25,2010-02-25,"נחל עין גדי 41, בית שמש",נחל עין גדי 41,34279-34-6,דירה בבית קומות,6.0,"קרקע, ראשונה, שניה, שלישית",233.15,1940000,,,2009.0,,,3301031580,1,3427934,False,,בית שמש,נחל עין גדי,,34279-34-6,34279/34,8320.823504181857,31.7146842387,34.9835896451,2010
2010-02-24,2010-02-24,"נחל מיכה 3, בית שמש",נחל מיכה 3,34276-15-3,דירה בבית קומות,5.0,ראשונה,94.8,1410000,,,2000.0,,5.0,3301005330,1,3427615,False,,בית שמש,נחל מיכה,,34276-15-3,34276/15,14873.417721518988,31.7165155203,34.9922355268,2010
2010-02-24,2010-02-24,"בן איש חי 1, בית שמש",בן איש חי 1,5935-21-64,מחסנים,,ראשונה,,57000,,,2006.0,,7.0,3301355760,1,593521,False,,בית שמש,בן איש חי,,5935-21-64,5935/21,,31.7457665154,34.9993696842,2010
2010-02-24,2010-02-24,"נחל לכיש 22, בית שמש",נחל לכיש 22,34274-11-3,דירה בבית קומות,4.0,ראשונה,111.4,1200000,,,2001.0,,4.0,3301038780,1,3427411,False,,בית שמש,נחל לכיש,,34274-11-3,34274/11,10771.992818671451,31.7130513395,34.9909714669,2010
2010-02-24,2010-02-24,"בני דן 1, בית שמש",בני דן 1,5201-55-2,דירה בבית קומות,3.0,ראשונה,34.8,900000,,,1960.0,,2.0,3300928170,1,520155,False,,בית שמש,בני דן,,5201-55-2,5201/55,25862.068965517243,31.7506120598,34.982428212,2010
2010-02-23,2010-02-23,"נחל לכיש 24, בית שמש",נחל לכיש 24,34274-11-20,דירה בבית קומות,3.0,שלישית,68.7,620000,,,2001.0,,5.0,3301023150,1,3427411,False,,בית שמש,נחל לכיש,,34274-11-20,34274/11,9024.745269286754,31.7130513395,34.9909714669,2010
2010-02-23,2010-02-23,"האורן 6, בית שמש",האורן 6,5217-105-1,דירה בבית קומות,6.0,,240.0,1350000,,,1990.0,,,3300877380,1,5217105,False,,בית שמש,האורן,,5217-105-1,5217/105,5625.0,31.7434496091,34.9771516899,2010
2010-02-22,2010-02-22,"הארזים 72, בית שמש",הארזים 72,5217-111-2,דירה בבית קומות,6.0,ראשונה,380.0,1600000,,,1980.0,,1.0,3301043220,1,5217111,False,,בית שמש,הארזים,,5217-111-2,5217/111,4210.526315789473,31.7445609957,34.9745512077,2010
2010-02-22,2010-02-22,"מיטל 6, בית שמש",מיטל 6,5216-4-14,דירה בבית קומות,5.0,קרקע,108.0,1100000,,,1995.0,,2.0,3301027830,1,52164,False,,בית שמש,מיטל,,5216-4-14,5216/4,10185.185185185184,31.7440150556,34.9921805536,2010
2010-02-21,2010-02-21,"דוד רזיאל 16, בית שמש",דוד רזיאל 16,5240-30-5,דירה בבית קומות,4.0,שניה,77.9,732000,,,1990.0,,3.0,3300841710,1,524030,False,26% ב 8.7 שנים,בית שמש,רזיאל דוד,2.99,5240-30-5,5240/30,9396.662387676508,31.7423513093,34.9838624923,2010
2010-02-21,2010-02-21,"הר המוריה 4, בית שמש",הר המוריה 4,5215-4-16,דירה בבית קומות,6.0,קרקע+ראשונה,145.4,1335000,,,1990.0,,1.0,3301359750,1,52154,False,,בית שמש,הר המוריה,,5215-4-16,5215/4,9181.568088033013,31.7457649962,34.9972464498,2010
2010-02-18,2010-02-18,"נחל שורק 10, בית שמש",נחל שורק 10,34273-41-20,דירה בבית קומות,4.0,רביעית,80.8,980000,,,1998.0,,4.0,3300841200,1,3427341,False,,בית שמש,נחל שורק,,34273-41-20,34273/41,12128.712871287127,31.7148445994,34.9945502981,2010
2010-02-18,2010-02-18,"נחל אכזיב 8, בית שמש",נחל אכזיב 8,34271-24-11,דירה בבית קומות,6.0,שניה+שלישית+רביעית+חמישית,261.85,2581000,,,2006.0,,1.0,3301092690,1,3427124,False,,בית שמש,נחל אכזיב,,34271-24-11,34271/24,9856.788237540575,31.712108223,34.9953626178,2010
2010-02-17,2010-02-17,"קדושת אהרון 11, בית שמש",קדושת אהרון 11,5151-13-50,דירה,3.0,חמישית,76.0,700000,1.0,קרית בעלזא,2010.0,,7.0,11181250755,1,515113,False,,בית שמש,קדושת אהרון,,5151-13-50,5151/13,9210.526315789471,31.7358300036,34.9890737065,2010
2010-02-17,2010-02-17,"קדושת אהרון 11, בית שמש",קדושת אהרון 11,5151-13-51,דירה,4.0,ראשונה,91.0,1140000,1.0,קרית בעלזא,2010.0,,7.0,11181250756,1,515113,False,,בית שמש,קדושת אהרון,,5151-13-51,5151/13,12527.472527472528,31.7358300036,34.9890737065,2010
2010-02-17,2010-02-17,"קדושת אהרון 11, בית שמש",קדושת אהרון 11,5151-13-48,דירה,3.0,שלישית,76.0,650000,1.0,קרית בעלזא,2010.0,,7.0,11181250752,1,515113,False,,בית שמש,קדושת אהרון,,5151-13-48,5151/13,8552.631578947368,31.7358300036,34.9890737065,2010
2010-02-17,2010-02-17,"בית ישראל 5, בית שמש",בית ישראל 5,5379-12-4,דירה בבית קומות,4.0,ראשונה,96.0,902000,,,1980.0,,3.0,3300979380,1,537912,False,,בית שמש,בית ישראל,,5379-12-4,5379/12,9395.833333333334,31.7415805208,34.9933734147,2010
2010-02-17,2010-02-17,"הגליל 7, בית שמש",הגליל 7,5232-12-4,דירה בבית קומות,3.0,ראשונה,100.73,740000,,,1997.0,,3.0,3300972660,1,523212,False,,בית שמש,הגליל,,5232-12-4,5232/12,7346.371488136602,31.7467372812,34.9929786524,2010
2010-02-17,2010-02-17,"קדושת אהרון 11, בית שמש",קדושת אהרון 11,5151-13-49,דירה,3.0,שלישית,79.0,660000,1.0,קרית בעלזא,2010.0,,7.0,11181250753,1,515113,False,,בית שמש,קדושת אהרון,,5151-13-49,5151/13,8354.430379746835,31.7358300036,34.9890737065,2010
2010-02-16,2010-02-16,"נהר הירדן 9, בית שמש",נהר הירדן 9,5151-19-2,דירה בבית קומות,4.0,,98.0,920000,,,2003.0,,3.0,3300796680,1,515119,False,,בית שמש,נהר הירדן,,5151-19-2,5151/19,9387.755102040815,31.7352906383,34.9925999329,2010
2010-02-15,2010-02-15,"ראובן 14, בית שמש",ראובן 14,5545-8-15,דירה בבית קומות,4.0,,116.0,1020000,,,1999.0,,,3301231050,1,55458,False,,בית שמש,ראובן,,5545-8-15,5545/8,8793.103448275862,31.7402149031,34.9871515029,2010
2010-02-15,2010-02-15,"הרב מבריסק 14, בית שמש",הרב מבריסק 14,5379-3-1,דירה בבית קומות,5.0,קרקע,117.0,1000000,,,1970.0,,3.0,3301093680,1,53793,False,,בית שמש,הרב מבריסק,,5379-3-1,5379/3,8547.008547008547,31.7393793541,34.9919575132,2010
2010-02-15,2010-02-15,"נחל שמשון 7, בית שמש",נחל שמשון 7,34269-11-5,דירה בבית קומות,6.0,קרקע+ראשונה+שניה,155.5,2200000,,,2002.0,,,3300892230,1,3426911,False,,בית שמש,נחל שמשון,,34269-11-5,34269/11,14147.90996784566,31.7140237084,35.0005392127,2010
2010-02-15,2010-02-15,"ז'בוטינסקי 14, בית שמש",ז'בוטינסקי 14,5202-48-2,דירה בבית קומות,5.0,ראשונה,126.0,1410000,,,1970.0,,1.0,3300957090,1,520248,False,,בית שמש,ז'בוטינסקי,,5202-48-2,5202/48,11190.47619047619,31.7528035003,34.9937036916,2010
2010-02-12,2010-12-02,"נחל נחשון 7, בית שמש",נחל נחשון 7,34274-22-67,דירה בבית קומות,4.0,שלישית,97.95,1080000,,,2000.0,,4.0,3304926750,1,3427422,False,,בית שמש,נחל נחשון,,34274-22-67,34274/22,11026.033690658498,31.7137832999,34.9935094477,2010
2010-02-11,2010-11-02,"חזון איש 28, בית שמש",חזון איש 28,5380-33-6,דירה בבית קומות,4.0,ראשונה,87.8,957000,,,1995.0,,4.0,3304633950,1,538033,False,94% ב 8.7 שנים,בית שמש,חזון איש,10.8,5380-33-6,5380/33,10899.772209567198,31.7378122893,34.9933526369,2010
2010-02-11,2010-11-02,"נחל שורק 31, בית שמש",נחל שורק 31,34278-37-18,דירה בבית קומות,5.0,שלישית,126.86,1190000,,,2000.0,,4.0,3304455990,1,3427837,False,,בית שמש,נחל שורק,,34278-37-18,34278/37,9380.419359924326,31.7144694701,34.9887319219,2010
2010-02-11,2010-11-02,"נחל קטלב 13, בית שמש",נחל קטלב 13,34276-6-30,דירה בבית קומות,5.0,ראשונה,111.35,1165000,,,2000.0,,2.0,3304742820,1,342766,False,,בית שמש,נחל קטלב,,34276-6-30,34276/6,10462.505612932197,31.7167179592,34.9954110689,2010
2010-02-11,2010-11-02,"רבי יהודה צדקה 1, בית שמש",רבי יהודה צדקה 1,5935-23-3,דירה בבית קומות,5.0,חמישית,125.0,995000,,,2008.0,,5.0,3304727250,1,593523,False,,בית שמש,רבי צדקה יהודה,,5935-23-3,5935/23,7960.0,31.7442108931,34.9994565754,2010
2010-02-09,2010-09-02,"קדושת אהרון 11, בית שמש",קדושת אהרון 11,5151-13-101,דירה,3.0,שניה,79.0,695000,1.0,קרית בעלזא,2010.0,,7.0,11181250706,1,515113,False,,בית שמש,קדושת אהרון,,5151-13-101,5151/13,8797.468354430379,31.7358300036,34.9890737065,2010
2010-02-09,2010-09-02,"קדושת אהרון 11, בית שמש",קדושת אהרון 11,5151-13-100,דירה,4.0,ראשונה,89.0,670000,1.0,קרית בעלזא,2010.0,,7.0,11181250705,1,515113,False,,בית שמש,קדושת אהרון,,5151-13-100,5151/13,7528.08988764045,31.7358300036,34.9890737065,2010
2010-02-08,2010-08-02,"רמב""ם 32, בית שמש","רמב""ם 32",5208-1-4,דירה בבית קומות,4.0,ראשונה,106.0,1160000,,,1974.0,,1.0,3303281820,1,52081,False,,בית שמש,"רמב""ם",,5208-1-4,5208/1,10943.396226415094,31.7523207072,34.9918141938,2010
2010-02-07,2010-07-02,"נחל קטלב 5, בית שמש",נחל קטלב 5,34273-36-19,דירה בבית קומות,4.0,ראשונה+שניה,105.3,1200000,,,1998.0,,2.0,3302757690,1,3427336,False,68% ב 5.2 שנים,בית שמש,נחל קטלב,13.08,34273-36-19,34273/36,11396.011396011396,31.7159475254,34.9968510813,2010
2010-02-06,2010-06-02,"בית ישראל 11, בית שמש",בית ישראל 11,5381-1-20,דירה בבית קומות,4.0,,100.0,1025000,,,1980.0,,3.0,3302428020,1,53811,False,,בית שמש,בית ישראל,,5381-1-20,5381/1,10250.0,31.7420540273,34.994119145,2010
2010-02-06,2010-06-02,"נהר הירדן 122, בית שמש",נהר הירדן 122,34270-24-15,דירה בבית קומות,1.0,שניה,203.0,3321000,,,2001.0,,6.0,3302401740,1,3427024,False,,בית שמש,נהר הירדן,,34270-24-15,34270/24,16359.605911330047,31.7084876326,35.0014811135,2010
2010-02-05,2010-05-02,"הל""ה 14, בית שמש","הל""ה 14",5207-18-6,דירה בבית קומות,4.0,,85.0,915000,,,2011.0,,,3302112180,1,520718,False,,בית שמש,"הל""ה",,5207-18-6,5207/18,10764.70588235294,31.7499222316,34.9966747491,2010
2010-02-05,2010-05-02,"נחל עין גדי 50, בית שמש",נחל עין גדי 50,34279-70-33,דירה בבית קומות,5.0,"קרקע, ראשונה",133.05,1575000,,,2006.0,,1.0,3301873560,1,3427970,False,,בית שמש,נחל עין גדי,,34279-70-33,34279/70,11837.655016910934,31.7134972834,34.9856880922,2010
2010-02-03,2010-03-02,"נחל עין גדי 42, בית שמש",נחל עין גדי 42,34279-69-41,דירה בבית קומות,5.0,קרקע,129.65,1372000,,,2008.0,,3.0,3301260750,1,3427969,False,,בית שמש,נחל עין גדי,,34279-69-41,34279/69,10582.337061318936,31.7136251926,34.9846132197,2010
2010-02-03,2010-03-02,"הארזים 112, בית שמש",הארזים 112,5217-168-1,דירה בבית קומות,6.0,,280.0,1080000,,,1970.0,,,3301499100,1,5217168,False,,בית שמש,הארזים,,5217-168-1,5217/168,3857.142857142857,31.7425598888,34.9771617746,2010
2010-02-02,2010-02-02,"קדושת אהרון 11, בית שמש",קדושת אהרון 11,5151-13-44,דירה,4.0,ראשונה,88.0,780000,1.0,קרית בעלזא,2010.0,,7.0,11181250748,1,515113,False,,בית שמש,קדושת אהרון,,5151-13-44,5151/13,8863.636363636364,31.7358300036,34.9890737065,2010
2010-02-02,2010-02-02,"קדושת אהרון 11, בית שמש",קדושת אהרון 11,5151-13-203,דירה בבית קומות,3.0,,75.0,810000,,,2010.0,,7.0,3300643740,1,515113,False,,בית שמש,קדושת אהרון,,5151-13-203,5151/13,10800.0,31.7358300036,34.9890737065,2010
2010-02-02,2010-02-02,"קדושת אהרון 11, בית שמש",קדושת אהרון 11,5151-13-43,דירה,3.0,חמישית,79.0,705000,1.0,קרית בעלזא,2010.0,,7.0,11181250747,1,515113,False,,בית שמש,קדושת אהרון,,5151-13-43,5151/13,8924.050632911392,31.7358300036,34.9890737065,2010
2010-01-31,2010-01-31,"רמב""ם 23, בית שמש","רמב""ם 23",5204-82-3,דירה בבית קומות,3.0,ראשונה,47.3,485000,,,1960.0,,6.0,3300549660,1,520482,False,21% ב 1.5 שנים,בית שמש,"רמב""ם",14.0,5204-82-3,5204/82,10253.69978858351,31.75293712,34.9911423298,2010
2010-01-28,2010-01-28,"נפתלי 41, בית שמש",נפתלי 41,5544-3-4,דירה בבית קומות,4.5,שלישית,113.0,984000,,,1996.0,,2.0,3301146150,1,55443,False,,בית שמש,נפתלי,,5544-3-4,5544/3,8707.964601769912,31.7389916098,34.9825430552,2010
2010-01-27,2010-01-27,"קדושת אהרון 11, בית שמש",קדושת אהרון 11,5151-13-39,דירה,3.0,שלישית,76.0,655000,1.0,קרית בעלזא,2010.0,,7.0,11181250743,1,515113,False,,בית שמש,קדושת אהרון,,5151-13-39,5151/13,8618.421052631578,31.7358300036,34.9890737065,2010
