DEALDATE,DEALDATETIME,FULLADRESS,DISPLAYADRESS,GUSH,DEALNATUREDESCRIPTION,ASSETROOMNUM,FLOORNO,DEALNATURE,DEALAMOUNT,NEWPROJECTTEXT,PROJECTNAME,BUILDINGYEAR,YEARBUILT,BUILDINGFLOORS,KEYVALUE,TYPE,POLYGON_ID,TREND_IS_NEGATIVE,TREND_FORMAT,city_name,street,presentage per year,GUSH - Copy,Gush_Helka,Price per sqm,lat,lon,Year
2012-12-31,2012-12-31,"שלמה המלך 56, הרצלייה",שלמה המלך 56,6667-313-4,קוטג' חד משפחתי,5.0,ראשונה+שניה,165.15,5500000,,,1964.0,,1.0,8364171308,1,6667313,False,121% ב 14.5 שנים,הרצלייה,שלמה המלך,8.34,6667-313-4,6667/313,33303.05782621859,32.1746393536,34.8099294074,2012
2012-12-30,2012-12-30,"שמואל הנגיד 15, הרצלייה",שמואל הנגיד 15,6527-387-73,דירה בבית קומות,4.0,שניה,104.0,1635000,,,1979.0,,7.0,8362499722,1,6527387,False,116% ב 13 שנים,הרצלייה,שמואל הנגיד,8.92,6527-387-73,6527/387,15721.153846153846,32.1660916541,34.8341140782,2012
2012-12-30,2012-12-30,"יורדי ים 1, הרצלייה",יורדי ים 1,6516-21-52,דירת נופש,2.0,שניה,36.0,1150000,,,1997.0,,3.0,8363755650,1,651621,False,,הרצלייה,יורדי ים,,6516-21-52,6516/21,31944.444444444445,32.1614412605,34.7954728611,2012
2012-12-30,2012-12-30,"היסמין 14, הרצלייה",היסמין 14,6669-393-1,קוטג' חד משפחתי,5.0,שלישית,201.0,5200000,,,1979.0,,1.0,8364137120,1,6669393,False,,הרצלייה,היסמין,,6669-393-1,6669/393,25870.646766169157,32.1816801075,34.8130687137,2012
2012-12-27,2012-12-27,"יהודה הנשיא 93, הרצלייה",יהודה הנשיא 93,6544-33-4,קוטג' דו משפחתי,6.0,"מרתף,קרקע,ראשונה,שני",249.5,3875000,,,1984.0,,2.0,8362681614,1,654433,False,,הרצלייה,יהודה הנשיא,,6544-33-4,6544/33,15531.062124248498,32.1517567539,34.8486373461,2012
2012-12-27,2012-12-27,"אריה לייב יפה 8, הרצלייה",אריה לייב יפה 8,6530-218-2,דירה בבית קומות,4.0,ראשונה,104.0,2090000,,,1973.0,,3.0,8362056536,1,6530218,False,9% ב 0.2 שנים,הרצלייה,יפה אריה לייב,45.0,6530-218-2,6530/218,20096.153846153848,32.1709902819,34.8430471494,2012
2012-12-27,2012-12-27,"המגינים 56, הרצלייה",המגינים 56,6667-489-2,קוטג' דו משפחתי,6.0,שניה,240.0,6900000,,,1970.0,,2.0,8362841602,1,6667489,False,,הרצלייה,המגינים,,6667-489-2,6667/489,28750.0,32.1735346971,34.8090923585,2012
2012-12-27,2012-12-27,"מאיר בן-שלום 2, הרצלייה",מאיר בן-שלום 2,6538-588-4,קוטג' דו משפחתי,7.0,מרתף+קרקע+ראשונה+גג,216.4,3330000,,,1980.0,,,8362498612,1,6538588,False,,הרצלייה,בן שלום מאיר,,6538-588-4,6538/588,15388.170055452863,32.1629654049,34.8478125431,2012
2012-12-26,2012-12-26,"אריה לייב יפה 57, הרצלייה",אריה לייב יפה 57,6536-641-4,קוטג' דו משפחתי,5.0,מרתף+קרקע+ראשונה,218.84,3150000,,,2000.0,,,8362886890,1,6536641,False,,הרצלייה,יפה אריה לייב,,6536-641-4,6536/641,14394.077865106929,32.1714496997,34.8507575521,2012
2012-12-26,2012-12-26,"נתן אלתרמן 19, הרצלייה",נתן אלתרמן 19,6526-291-8,דירה בבית קומות,4.0,שניה,100.2,1800000,,,2002.0,,6.0,8363367298,1,6526291,False,29% ב 5.3 שנים,הרצלייה,אלתרמן נתן,5.47,6526-291-8,6526/291,17964.071856287424,32.1741042103,34.8380769688,2012
2012-12-25,2012-12-25,"אמה טאובר 5, הרצלייה",אמה טאובר 5,6536-904-49,דירה בבית קומות,5.0,"שביעית, שמינית",135.9,2624000,,,2009.0,,9.0,8363404520,1,6536904,False,5% ב 1.2 שנים,הרצלייה,טאובר אמה,4.17,6536-904-49,6536/904,19308.314937454008,32.1758335533,34.8499758382,2012
2012-12-25,2012-12-25,"אלוף יגאל אלון 4, הרצלייה",אלוף יגאל אלון 4,6531-151-14,דירה בבית קומות,4.0,רביעית,73.4,1655000,,,1973.0,,4.0,8362505346,1,6531151,False,157% ב 8.1 שנים,הרצלייה,אלוף אלון יגאל,19.38,6531-151-14,6531/151,22547.68392370572,32.1686078702,34.8448531216,2012
2012-12-24,2012-12-24,"סוקולוב 6, הרצלייה",סוקולוב 6,6533-299-46,דירה בבית קומות,4.0,שמינית,72.5,1595000,,,2007.0,,17.0,8362513264,1,6533299,False,43% ב 4.9 שנים,הרצלייה,סוקולוב,8.78,6533-299-46,6533/299,22000.0,32.1664623369,34.8395329221,2012
2012-12-24,2012-12-24,"אל על 4, הרצלייה",אל על 4,6521-5-17,דירה בבית קומות,2.0,שניה,47.0,1190000,,,1970.0,,11.0,8362697006,1,65215,False,87% ב 5.5 שנים,הרצלייה,אל על,15.82,6521-5-17,6521/5,25319.14893617021,32.1666328275,34.8149019352,2012
2012-12-24,2012-12-24,"יבנאלי 7, הרצלייה",יבנאלי 7,6531-174-8,דירה בבית קומות,4.0,רביעית,84.92,2000000,,,2012.0,,5.0,8362601028,1,6531174,False,,הרצלייה,יבניאלי,,6531-174-8,6531/174,23551.577955723034,32.165799843,34.8443496216,2012
2012-12-23,2012-12-23,"שבטי ישראל 37, הרצלייה",שבטי ישראל 37,7291-43-2,קוטג' דו משפחתי,3.0,ראשונה,39.5,2159000,,,1950.0,,1.0,8362505938,1,729143,False,,הרצלייה,שבטי ישראל,,7291-43-2,7291/43,54658.22784810127,32.1541953678,34.8338913935,2012
2012-12-23,2012-12-23,"אחד העם 13, הרצלייה",אחד העם 13,6532-174-4,דירה בבית קומות,3.0,שניה,63.0,1335000,,,1970.0,,3.0,8304181728,1,6532174,False,90% ב 7.9 שנים,הרצלייה,אחד העם,11.39,6532-174-4,6532/174,21190.47619047619,32.1676690454,34.8462270552,2012
2012-12-20,2012-12-20,"הנדיב 10, הרצלייה",הנדיב 10,6530-48-4,דירה בבית קומות,4.0,שניה,87.5,1635000,,,1970.0,,4.0,8304184836,1,653048,False,,הרצלייה,הנדיב,,6530-48-4,6530/48,18685.714285714286,32.1689142851,34.8402679989,2012
2012-12-19,2012-12-19,"ויצמן 3, הרצלייה",ויצמן 3,6535-141-11,דירה בבית קומות,3.0,שלישית,73.0,1300000,,,1980.0,,5.0,8303911850,1,6535141,False,,הרצלייה,ויצמן,,6535-141-11,6535/141,17808.219178082192,32.1629771518,34.8344069918,2012
2012-12-18,2012-12-18,"שמעון זאב לוין 12, הרצלייה",שמעון זאב לוין 12,6535-98-14,דירה בבית קומות,4.0,שלישית,73.6,1370000,,,1973.0,,7.0,8362479520,1,653598,False,,הרצלייה,לוין שמעון זאב,,6535-98-14,6535/98,18614.13043478261,32.1635308012,34.8362122842,2012
2012-12-18,2012-12-18,"אריה לייב יפה 40, הרצלייה",אריה לייב יפה 40,6536-564-0,קומבינציה,,,1332.0,4736000,,,1980.0,,3.0,8957709768,1,6536564,False,,הרצלייה,יפה אריה לייב,,6536-564-0,6536/564,3555.555555555556,32.1705986276,34.8479729937,2012
2012-12-18,2012-12-18,"לח""י 7, הרצלייה","לח""י 7",6668-1151-2,קוטג' דו משפחתי,6.0,שלישית,415.0,14322000,,,2012.0,,2.0,8362623746,1,66681151,False,,הרצלייה,"לח""י",,6668-1151-2,6668/1151,34510.843373493975,32.1743140765,34.8044081522,2012
2012-12-18,2012-12-18,"דוד רזיאל 37, הרצלייה",דוד רזיאל 37,6541-133-4,דירה בבית קומות,6.0,שניה וגג,112.04,2249000,,,1985.0,,2.0,8303955214,1,6541133,False,,הרצלייה,רזיאל דוד,,6541-133-4,6541/133,20073.188147090324,32.1573098099,34.8493498137,2012
2012-12-18,2012-12-18,"סוקולוב 78, הרצלייה",סוקולוב 78,6537-207-43,דירה בבית קומות,4.0,שמינית,85.0,1500000,,,1970.0,,19.0,8303933828,1,6537207,False,110% ב 7.7 שנים,הרצלייה,סוקולוב,14.29,6537-207-43,6537/207,17647.058823529413,32.1668987349,34.8497162102,2012
2012-12-17,2012-12-17,"דן שומרון 9, הרצלייה",דן שומרון 9,6536-968-24,דירה בבית קומות,4.0,קומה ‎3‏,106.31,2269000,,,2012.0,,6.0,8303885062,1,6536968,False,,הרצלייה,שומרון דן,,6536-968-24,6536/968,21343.24146364406,32.176449328,34.8439402149,2012
2012-12-17,2012-12-17,"השרון 7, הרצלייה",השרון 7,6533-296-10,דירה בבית קומות,4.0,רביעית+גג,90.5,1647000,,,2000.0,,5.0,8363207902,1,6533296,False,,הרצלייה,השרון,,6533-296-10,6533/296,18198.89502762431,32.1657735279,34.8394202164,2012
2012-12-17,2012-12-17,"היתד 1, הרצלייה",היתד 1,6519-17-2,קוטג' דו משפחתי,6.0,ראשונה,370.0,4030000,,,1980.0,,1.0,8362294076,1,651917,False,,הרצלייה,היתד,,6519-17-2,6519/17,10891.891891891892,32.1737502619,34.8163548709,2012
2012-12-17,2012-12-17,"אמה טאובר 4, הרצלייה",אמה טאובר 4,6536-906-39,דירה בבית קומות,4.0,שלישית,96.0,2100000,,,2002.0,,7.0,8362160876,1,6536906,False,108% ב 11 שנים,הרצלייה,טאובר אמה,9.82,6536-906-39,6536/906,21875.0,32.1754439708,34.8493858698,2012
2012-12-17,2012-12-17,"השושנים 7, הרצלייה",השושנים 7,6529-243-2,דירה בבית קומות,5.0,ראשונה,112.2,2150000,,,1982.0,,4.0,8303860642,1,6529243,False,,הרצלייה,השושנים,,6529-243-2,6529/243,19162.210338680925,32.1679410609,34.8391511803,2012
2012-12-17,2012-12-17,"רבי עקיבא 45, הרצלייה",רבי עקיבא 45,6543-51-2,קוטג' דו משפחתי,6.0,מרתף+קרקע+ראשונה,199.22,4000000,,,2008.0,,2.0,8303993620,1,654351,False,25% ב 4.3 שנים,הרצלייה,רבי עקיבא,5.81,6543-51-2,6543/51,20078.305391025,32.1539400271,34.8477920905,2012
2012-12-16,2012-12-16,"ביל""ו 46, הרצלייה","ביל""ו 46",6546-692-1,דירה בבית קומות,4.0,ראשונה,115.5,1950000,,,1979.0,,4.0,8303863084,1,6546692,False,,הרצלייה,"ביל""ו",,6546-692-1,6546/692,16883.116883116883,32.1549891411,34.8447793472,2012
2012-12-16,2012-12-16,"שמחה הולצברג 8, הרצלייה",שמחה הולצברג 8,6545-60-1,קוטג' דו משפחתי,5.0,,245.0,5150000,,,2002.0,,,8303838664,1,654560,False,,הרצלייה,הולצברג שמחה,,6545-60-1,6545/60,21020.408163265307,32.1527408328,34.8470451996,2012
2012-12-16,2012-12-16,"שלונסקי 32, הרצלייה",שלונסקי 32,6518-134-4,קוטג' חד משפחתי,5.0,שלישית,364.0,6600000,,,2010.0,,1.0,8363542012,1,6518134,False,,הרצלייה,שלונסקי,,6518-134-4,6518/134,18131.86813186813,32.1684522429,34.8107647584,2012
2012-12-13,2012-12-13,"ויצמן 1, הרצלייה",ויצמן 1,6535-48-13,דירה בבית קומות,2.0,שלישית,47.0,950000,,,1960.0,,4.0,8362496688,1,653548,False,7% ב 2 שנים,הרצלייה,ויצמן,3.5,6535-48-13,6535/48,20212.76595744681,32.1626993966,34.8345018171,2012
2012-12-13,2012-12-13,"הדר 73, הרצלייה",הדר 73,6536-430-9,דירה בבית קומות,2.0,שניה,35.5,960000,,,1960.0,,2.0,8363214044,1,6536430,False,140% ב 1.1 שנים,הרצלייה,הדר,127.27,6536-430-9,6536/430,27042.25352112676,32.1748531151,34.8483687467,2012
2012-12-13,2012-12-13,"הניצנים 2, הרצלייה",הניצנים 2,6529-95-11,דירה בבית קומות,2.0,שלישית,46.2,1130000,,,1970.0,,7.0,8362617012,1,652995,False,,הרצלייה,הניצנים,,6529-95-11,6529/95,24458.874458874456,32.167335999,34.8395007227,2012
2012-12-13,2012-12-13,"לח""י 38, הרצלייה","לח""י 38",6668-1172-1,קוטג' דו משפחתי,6.0,,165.0,5200000,,,1977.0,,,8303615184,1,66681172,False,,הרצלייה,"לח""י",,6668-1172-1,6668/1172,31515.15151515152,32.1736152033,34.806650059,2012
2012-12-13,2012-12-13,"ברנר 36, הרצלייה",ברנר 36,6546-571-2,דירה בבית קומות,5.0,"מרתף, קרקע",167.03,3600000,,,2013.0,,1.0,8303677566,1,6546571,False,,הרצלייה,ברנר,,6546-571-2,6546/571,21553.01442854577,32.157208363,34.8465405131,2012
2012-12-12,2012-12-12,"קבוץ גלויות 52, הרצלייה",קבוץ גלויות 52,6558-864-1,מחסנים,,מרתף,,66000,,,2004.0,,2.0,8304016338,1,6558864,False,,הרצלייה,קבוץ גלויות,,6558-864-1,6558/864,,32.171169697,34.8601428806,2012
2012-12-12,2012-12-12,"צלע צפון 4, הרצלייה",צלע צפון 4,6519-58-2,קוטג' דו משפחתי,5.0,מרתף + קרקע + ראשונה,330.08,5100000,,,2009.0,,,8303623102,1,651958,False,,הרצלייה,צלע צפון,,6519-58-2,6519/58,15450.79980610761,32.1736913692,34.8174225486,2012
2012-12-12,2012-12-12,"ברנר 36, הרצלייה",ברנר 36,6546-571-5,דירה,4.0,,110.0,3600000,1.0,פסמן ברנר - בית סרוסי,2013.0,,1.0,11181280732,1,6546571,False,,הרצלייה,ברנר,,6546-571-5,6546/571,32727.272727272728,32.157208363,34.8465405131,2012
2012-12-11,2012-11-12,"קרת 1, הרצלייה",קרת 1,6541-154-4,קוטג' דו משפחתי,6.0,ראשונה + שניה,135.21,3400000,,,1985.0,,1.0,8302524276,1,6541154,False,,הרצלייה,קרת,,6541-154-4,6541/154,25146.069077730936,32.1584864165,34.8479204214,2012
2012-12-11,2012-11-12,"העוגן 4, הרצלייה",העוגן 4,6516-16-173,דירת נופש,3.0,רביעית,71.8,1950000,,,2005.0,,6.0,8302148208,1,651616,True,-5% ב 2.6 שנים,הרצלייה,העוגן,-1.92,6516-16-173,6516/16,27158.774373259053,32.1591960165,34.7947789632,2012
2012-12-11,2012-11-12,"פורצי הדרך 8, הרצלייה",פורצי הדרך 8,6560-100-5,דירה בבית קומות,3.0,שניה,68.15,1340000,,,2000.0,,2.0,8302103068,1,6560100,False,68% ב 5.8 שנים,הרצלייה,פורצי הדרך,11.72,6560-100-5,6560/100,19662.50917094644,32.160218988,34.8639017264,2012
2012-12-11,2012-11-12,"כיסופים 11, הרצלייה",כיסופים 11,7291-245-11,קוטג' טורי,5.0,קרקע+ראשונה+שניה,123.0,2000000,,,1990.0,,2.0,8302546254,1,7291245,False,,הרצלייה,כסופים,,7291-245-11,7291/245,16260.162601626016,32.15559606,34.8347113457,2012
2012-12-09,2012-09-12,"חנה סנש 25, הרצלייה",חנה סנש 25,6424-151-14,דירה בבית קומות,5.0,חמישית,124.52,2225000,,,1998.0,,7.0,8300127564,1,6424151,False,,הרצלייה,סנש חנה,,6424-151-14,6424/151,17868.615483456473,32.1586925243,34.8389299183,2012
2012-12-09,2012-09-12,"הרב ניסים יצחק 1, הרצלייה",הרב ניסים יצחק 1,6546-308-4,קוטג' דו משפחתי,5.0,,177.0,3080000,,,1980.0,,1.0,8300421714,1,6546308,False,,הרצלייה,הרב ניסים יצחק,,6546-308-4,6546/308,17401.129943502823,32.1534901218,34.8449509475,2012
2012-12-09,2012-09-12,"יורדי ים 1, הרצלייה",יורדי ים 1,6516-21-7,חנות,,,2400.0,45000000,,,1997.0,,3.0,8299938272,1,651621,False,,הרצלייה,יורדי ים,,6516-21-7,6516/21,18750.0,32.1614412605,34.7954728611,2012
2012-12-09,2012-09-12,"שמואל הנגיד 8, הרצלייה",שמואל הנגיד 8,6534-141-8,דירה בבית קומות,4.0,שניה,94.0,1750000,,,2003.0,,3.0,8299821056,1,6534141,False,,הרצלייה,שמואל הנגיד,,6534-141-8,6534/141,18617.021276595744,32.1660116415,34.8352670602,2012
2012-12-08,2012-08-12,"קפלן 14, הרצלייה",קפלן 14,6669-247-2,קוטג' דו משפחתי,7.0,,207.0,15069000,,,1978.0,,3.0,8298275196,1,6669247,False,,הרצלייה,קפלן,,6669-247-2,6669/247,72797.10144927536,32.1831361976,34.8085507309,2012
2012-12-08,2012-08-12,"אמנון ותמר 14, הרצלייה",אמנון ותמר 14,6544-62-7,דירה בבית קומות,4.5,קרקע+שלישית,134.9,2400000,,,1993.0,,,8298225098,1,654462,False,,הרצלייה,אמנון ותמר,,6544-62-7,6544/62,17790.956263899185,32.1529343032,34.8501008997,2012
2012-12-07,2012-07-12,"השופטים 4, הרצלייה",השופטים 4,6546-554-18,דירה בבית קומות,5.0,חמישית,113.0,2600000,,,1980.0,,9.0,8297646344,1,6546554,False,126% ב 7.3 שנים,הרצלייה,השופטים,17.26,6546-554-18,6546/554,23008.849557522124,32.1539614987,34.8407078581,2012
2012-12-07,2012-07-12,"הקוממיות 3, הרצלייה",הקוממיות 3,6666-740-1,קוטג' דו משפחתי,5.0,שניה,200.0,5185000,,,1980.0,,1.0,8363419764,1,6666740,False,,הרצלייה,הקוממיות,,6666-740-1,6666/740,25925.0,32.1741370109,34.8139520971,2012
2012-12-07,2012-07-12,"הרב עוזיאל 2, הרצלייה",הרב עוזיאל 2,7291-118-4,דירה בבית קומות,2.0,ראשונה,34.1,1300000,,,1980.0,,2.0,8296857652,1,7291118,False,46% ב 2.6 שנים,הרצלייה,הרב עוזיאל,17.69,7291-118-4,7291/118,38123.16715542522,32.1558729495,34.8384228259,2012
2012-12-07,2012-07-12,"העצמאות 11, הרצלייה",העצמאות 11,6538-258-9,דירה בבית קומות,2.0,שלישית,52.0,1080000,,,1950.0,,3.0,8297781912,1,6538258,False,,הרצלייה,העצמאות,,6538-258-9,6538/258,20769.23076923077,32.1644158432,34.8392073504,2012
2012-12-07,2012-07-12,"רמב""ם 6, הרצלייה","רמב""ם 6",6538-103-5,דירה בבית קומות,2.0,ראשונה,48.0,1100000,,,1960.0,,2.0,8297542078,1,6538103,False,,הרצלייה,"רמב""ם",,6538-103-5,6538/103,22916.666666666668,32.1633278399,34.8432329353,2012
2012-12-06,2012-06-12,"זיסו 24, הרצלייה",זיסו 24,6577-157-20,דירה בבית קומות,3.0,שלישית,44.1,780000,,,1960.0,,4.0,8295525504,1,6577157,False,,הרצלייה,זיסו,,6577-157-20,6577/157,17687.07482993197,32.1769214972,34.8550681743,2012
2012-12-06,2012-06-12,"אריה לייב יפה 54, הרצלייה",אריה לייב יפה 54,6536-272-9,דירה בבית קומות,5.0,שלישית+גג,113.46,2235000,,,1987.0,,3.0,8296434520,1,6536272,False,,הרצלייה,יפה אריה לייב,,6536-272-9,6536/272,19698.572184029614,32.1706847226,34.84984901,2012
2012-12-03,2012-03-12,"צמרות 2, הרצלייה",צמרות 2,6546-858-128,דירה בבית קומות,4.5,שלוש עשרה,134.5,2600000,,,1998.0,,17.0,8291761272,1,6546858,False,48% ב 13.9 שנים,הרצלייה,צמרות,3.45,6546-858-128,6546/858,19330.85501858736,32.1515729734,34.8431441388,2012
2012-12-03,2012-03-12,"קהילת ציון 4, הרצלייה",קהילת ציון 4,6532-353-20,דירה בבית קומות,5.0,חמישית,112.3,2100000,,,2007.0,,7.0,8292826428,1,6532353,False,13% ב 1.5 שנים,הרצלייה,קהילת ציון,8.67,6532-353-20,6532/353,18699.91095280499,32.1666236151,34.8483901592,2012
2012-12-02,2012-02-12,"החשמונאים 7, הרצלייה",החשמונאים 7,6542-52-2,דירת גן,4.0,ראשונה,98.0,1500000,,,1959.0,,2.0,8290591998,1,654252,False,,הרצלייה,החשמונאים,,6542-52-2,6542/52,15306.122448979591,32.1605041524,34.8506324142,2012
2012-12-02,2012-02-12,"אלוף יגאל אלון 30, הרצלייה",אלוף יגאל אלון 30,6532-150-2,דירה בבית קומות,3.0,שניה,81.07,1330000,,,1981.0,,3.0,8291056644,1,6532150,False,,הרצלייה,אלוף אלון יגאל,,6532-150-2,6532/150,16405.575428641914,32.168533869,34.8480788373,2012
2012-12-01,2012-01-12,"משה שמיר 2, הרצלייה",משה שמיר 2,6526-329-8,דירה בבית קומות,5.0,שניה,142.5,3750000,,,2010.0,,2.0,8289337328,1,6526329,False,,הרצלייה,שמיר משה,,6526-329-8,6526/329,26315.78947368421,32.1754595396,34.8400257674,2012
2012-12-01,2012-01-12,"אוריאל אופק 10, הרצלייה",אוריאל אופק 10,6524-88-113,מחסנים,,מרתף עליון,40.63,199534,,,2006.0,,14.0,8288800828,1,652488,False,,הרצלייה,אופק אוריאל,,6524-88-113,6524/88,4911.001722864878,32.1734092146,34.8311284816,2012
2012-11-30,2012-11-30,"רביבים 39, הרצלייה",רביבים 39,6577-49-39,דירה בבית קומות,2.0,שניה,36.21,740000,,,1960.0,,3.0,8303601864,1,657749,False,,הרצלייה,רביבים,,6577-49-39,6577/49,20436.34355150511,32.1736086033,34.8522108147,2012
2012-11-29,2012-11-29,"שניאור זלמן 5, הרצלייה",שניאור זלמן 5,6526-189-12,דירה בבית קומות,5.0,שלישית,107.0,2190000,,,1993.0,,5.0,8303468072,1,6526189,False,114% ב 14.5 שנים,הרצלייה,שניאור זלמן,7.86,6526-189-12,6526/189,20467.28971962617,32.1711026986,34.8365220854,2012
2012-11-29,2012-11-29,"יהודה המכבי 12, הרצלייה",יהודה המכבי 12,6517-237-1,קוטג' דו משפחתי,7.0,ראשונה +שניה,170.89,13780000,,,2009.0,,1.0,8304028474,1,6517237,False,176% ב 5.5 שנים,הרצלייה,יהודה המכבי,32.0,6517-237-1,6517/237,80636.66686172392,32.1697829777,34.8013105228,2012
2012-11-28,2012-11-28,"שמעוני דוד 8, הרצלייה",שמעוני דוד 8,6526-188-39,דירה בבית קומות,5.0,שלישית,116.0,2440000,,,1997.0,,5.0,8303180434,1,6526188,False,58% ב 9.8 שנים,הרצלייה,שמעוני דוד,5.92,6526-188-39,6526/188,21034.48275862069,32.1711711166,34.8357317915,2012
2012-11-28,2012-11-28,"נווה עובד 14, הרצלייה",נווה עובד 14,6669-440-2,דירה בבית קומות,3.0,קרקע,31.5,1600000,,,1950.0,,1.0,8303485166,1,6669440,False,,הרצלייה,נוה עובד,,6669-440-2,6669/440,50793.65079365079,32.1848420801,34.8129614072,2012
2012-11-28,2012-11-28,"הדר 24, הרצלייה",הדר 24,6536-494-6,דירה בבית קומות,5.0,שלישית,111.0,2175000,,,2010.0,,4.0,8302922248,1,6536494,False,27% ב 3.5 שנים,הרצלייה,הדר,7.71,6536-494-6,6536/494,19594.594594594597,32.1702796853,34.8488096234,2012
2012-11-28,2012-11-28,"חבצלת השרון 9, הרצלייה",חבצלת השרון 9,6668-609-1,קוטג' חד משפחתי,6.0,"קרקע,ראשונה",131.75,6000000,,,1983.0,,,8304035800,1,6668609,False,,הרצלייה,חבצלת השרון,,6668-609-1,6668/609,45540.79696394687,32.1819779992,34.8063354594,2012
2012-11-27,2012-11-27,"סירקין 3, הרצלייה",סירקין 3,6531-51-12,חנות,,קרקע,21.0,200000,,,1960.0,,3.0,8362342916,1,653151,False,,הרצלייה,סירקין,,6531-51-12,6531/51,9523.809523809525,32.1667668038,34.8436800002,2012
2012-11-27,2012-11-27,"איילת חן 2, הרצלייה",איילת חן 2,6526-250-5,דירה בבית קומות,5.0,שניה+קרקע,120.29,2125000,,,1998.0,,2.0,8302914404,1,6526250,False,60% ב 9.3 שנים,הרצלייה,איילת חן,6.45,6526-250-5,6526/250,17665.64136669715,32.170685866,34.8343669148,2012
2012-11-26,2012-11-26,"הדר 24, הרצלייה",הדר 24,6536-494-5,דירה בבית קומות,5.0,שניה,111.0,2200000,,,2010.0,,4.0,8302985148,1,6536494,False,,הרצלייה,הדר,,6536-494-5,6536/494,19819.81981981982,32.1702796853,34.8488096234,2012
2012-11-26,2012-11-26,"סמדר 22, הרצלייה",סמדר 22,6546-519-2,קוטג' דו משפחתי,4.5,קרקע ראשונה,106.1,2800000,,,1970.0,,,8302933274,1,6546519,False,,הרצלייה,סמדר,,6546-519-2,6546/519,26390.19792648445,32.1581874536,34.8435420225,2012
2012-11-26,2012-11-26,"רבנו תם 12, הרצלייה",רבנו תם 12,6527-241-40,דירה בבית קומות,3.0,שלישית,53.0,1295000,,,1960.0,,3.0,8302935198,1,6527241,False,75% ב 5.1 שנים,הרצלייה,רבנו תם,14.71,6527-241-40,6527/241,24433.962264150945,32.1632490351,34.8317561464,2012
2012-11-26,2012-11-26,"וינגייט 86, הרצלייה",וינגייט 86,6668-1391-9,קוטג' חד משפחתי,6.0,מרתף קרקע ראשונה גג,199.68,8812000,,,1980.0,,,8303723298,1,66681391,False,,הרצלייה,וינגייט,,6668-1391-9,6668/1391,44130.60897435898,32.1749586105,34.8028129477,2012
2012-11-25,2012-11-25,"החלום ופשרו 4, הרצלייה",החלום ופשרו 4,6542-82-0,קוטג' דו משפחתי,6.0,,1826.0,3500000,,,1984.0,,,8302670796,1,654282,False,,הרצלייה,החלום ופשרו,,6542-82-0,6542/82,1916.7579408543263,32.1573221127,34.8502773553,2012
2012-11-25,2012-11-25,"וינגייט 167, הרצלייה",וינגייט 167,6517-246-8,קוטג' חד משפחתי,6.0,"מרתף,קרקע,ראשונה",196.74,5500000,,,1982.0,,,8302973012,1,6517246,False,,הרצלייה,וינגייט,,6517-246-8,6517/246,27955.677543966656,32.1690926221,34.8040796017,2012
2012-11-25,2012-11-25,"חבצלת השרון 45, הרצלייה",חבצלת השרון 45,6668-713-2,קוטג' חד משפחתי,9.0,שלישית,610.0,24000000,,,1990.0,,2.0,8303181692,1,6668713,False,,הרצלייה,חבצלת השרון,,6668-713-2,6668/713,39344.26229508197,32.178081909,34.8046233268,2012
2012-11-25,2012-11-25,"פלמ""ח 12, הרצלייה","פלמ""ח 12",6536-209-4,דירה בבית קומות,4.0,שניה,84.12,1927000,,,1991.0,,3.0,8302447982,1,6536209,False,74% ב 8.5 שנים,הרצלייה,"פלמ""ח",8.71,6536-209-4,6536/209,22907.750832144557,32.1699638699,34.8452346862,2012
2012-11-25,2012-11-25,"אריה לייב יפה 3, הרצלייה",אריה לייב יפה 3,6536-267-6,דירה בבית קומות,7.0,שלישית + גג,166.5,3045000,,,1988.0,,3.0,8302977230,1,6536267,False,,הרצלייה,יפה אריה לייב,,6536-267-6,6536/267,18288.288288288288,32.1714451665,34.8426953166,2012
2012-11-22,2012-11-22,"ריינס 8, הרצלייה",ריינס 8,6534-78-6,דירה בבית קומות,4.0,שלישית,101.0,1715000,,,1984.0,,3.0,8302799186,1,653478,False,3% ב 2 שנים,הרצלייה,ריינס,1.5,6534-78-6,6534/78,16980.19801980198,32.1653677047,34.8383403054,2012
2012-11-22,2012-11-22,"סוקולוב 71, הרצלייה",סוקולוב 71,6532-119-15,דירה בבית קומות,3.0,שניה,78.0,1280000,,,2012.0,,5.0,8302825160,1,6532119,False,,הרצלייה,סוקולוב,,6532-119-15,6532/119,16410.25641025641,32.1673352329,34.8467621924,2012
2012-11-22,2012-11-22,"מרזוק 6, הרצלייה",מרזוק 6,6577-208-13,דירה בבית קומות,3.0,רביעית,72.8,870000,,,1970.0,,4.0,8302482244,1,6577208,False,,הרצלייה,מרזוק,,6577-208-13,6577/208,11950.549450549452,32.1778622858,34.8530881944,2012
2012-11-22,2012-11-22,"אבן גבירול 16, הרצלייה",אבן גבירול 16,6527-264-14,דירה בבית קומות,4.0,שניה,94.28,1540000,,,1970.0,,3.0,8302353484,1,6527264,False,,הרצלייה,אבן גבירול,,6527-264-14,6527/264,16334.323292320749,32.167121784,34.8363754587,2012
2012-11-22,2012-11-22,"סוקולוב 71, הרצלייה",סוקולוב 71,6532-119-16,דירה בבית קומות,4.0,חמישית,118.0,3100000,,,2012.0,,5.0,8303402138,1,6532119,False,,הרצלייה,סוקולוב,,6532-119-16,6532/119,26271.186440677968,32.1673352329,34.8467621924,2012
2012-11-22,2012-11-22,"בר אילן 6, הרצלייה",בר אילן 6,6533-96-4,דירה בבית קומות,4.0,שניה,67.0,1201000,,,1960.0,,3.0,8304192162,1,653396,False,21% ב 3.9 שנים,הרצלייה,בר אילן,5.38,6533-96-4,6533/96,17925.373134328358,32.1661614158,34.8417179933,2012
2012-11-22,2012-11-22,"זלמן שניאור 36, הרצלייה",זלמן שניאור 36,6526-179-1,דירת גן,4.0,קרקע+ראשונה,111.0,2800000,,,1995.0,,3.0,8302668354,1,6526179,False,88% ב 7.5 שנים,הרצלייה,שניאור זלמן,11.73,6526-179-1,6526/179,25225.225225225226,32.1735942109,34.8390921221,2012
2012-11-22,2012-11-22,"צמרות 8, הרצלייה",צמרות 8,6546-861-12,דירה בבית קומות,6.0,שלישית,143.0,3525000,,,1994.0,,16.0,8303886986,1,6546861,False,6% ב 2 שנים,הרצלייה,צמרות,3.0,6546-861-12,6546/861,24650.34965034965,32.151102979,34.8451205506,2012
2012-11-21,2012-11-21,"סוקולוב 71, הרצלייה",סוקולוב 71,6532-119-14,דירה,4.0,חמישית,118.0,3100000,1.0,SOCOLIFE,2012.0,,5.0,11181280498,1,6532119,False,,הרצלייה,סוקולוב,,6532-119-14,6532/119,26271.186440677968,32.1673352329,34.8467621924,2012
2012-11-21,2012-11-21,"אפרים קישון 12, הרצלייה",אפרים קישון 12,6524-78-5,קוטג' דו משפחתי,6.0,"מרתף, קרקע, ראשונה",271.9,5100000,,,2007.0,,,8302476694,1,652478,False,48% ב 4 שנים,הרצלייה,קישון אפרים,12.0,6524-78-5,6524/78,18756.895917616774,32.1721796361,34.8307088406,2012
2012-11-21,2012-11-21,"יהודה הנשיא 11, הרצלייה",יהודה הנשיא 11,6541-149-3,דירה בבית קומות,5.0,ראשונה + שניה,108.75,3410000,,,1970.0,,1.0,8302924764,1,6541149,False,,הרצלייה,יהודה הנשיא,,6541-149-3,6541/149,31356.32183908046,32.1582046538,34.8470460246,2012
2012-11-21,2012-11-21,"כ""ט בנובמבר 4, הרצלייה","כ""ט בנובמבר 4",6530-134-7,דירה בבית קומות,4.0,רביעית,100.0,1560000,1.0,,2013.0,,5.0,8303063366,1,6530134,False,,הרצלייה,"כ""ט בנובמבר",,6530-134-7,6530/134,15600.0,32.1701986008,34.8423963899,2012
2012-11-21,2012-11-21,"זוהר טל 37, הרצלייה",זוהר טל 37,6668-995-11,דירה בבית קומות,2.0,ראשונה,41.42,1600000,,,1972.0,,5.0,8362162060,1,6668995,False,107% ב 6.7 שנים,הרצלייה,זהר טל,15.97,6668-995-11,6668/995,38628.6817962337,32.1707031396,34.8031405165,2012
2012-11-21,2012-11-21,"סוקולוב 71, הרצלייה",סוקולוב 71,6532-119-13,דירה,3.0,שניה,78.0,1280000,1.0,SOCOLIFE,2012.0,,5.0,11181280497,1,6532119,False,,הרצלייה,סוקולוב,,6532-119-13,6532/119,16410.25641025641,32.1673352329,34.8467621924,2012
2012-11-20,2012-11-20,"תמר 5, הרצלייה",תמר 5,6558-834-9,דירה בבית קומות,4.0,ראשונה,73.55,1335000,,,1994.0,,3.0,8302354668,1,6558834,False,,הרצלייה,תמר,,6558-834-9,6558/834,18150.91774303195,32.1723738715,34.8577482765,2012
2012-11-20,2012-11-20,"הנדיב 7, הרצלייה",הנדיב 7,6529-244-57,דירה בבית קומות,4.0,חמישית,110.65,1980000,,,1995.0,,16.0,8302453532,1,6529244,False,8% ב 2.7 שנים,הרצלייה,הנדיב,2.96,6529-244-57,6529/244,17894.26118391324,32.1679584212,34.8400344017,2012
2012-11-20,2012-11-20,"הפרטיזנים 26, הרצלייה",הפרטיזנים 26,6558-782-9,דירה בבית קומות,3.0,שלישית,61.4,1117000,,,1977.0,,3.0,8302325956,1,6558782,False,,הרצלייה,הפרטיזנים,,6558-782-9,6558/782,18192.18241042345,32.1689430086,34.859621068,2012
2012-11-19,2012-11-19,"ברוך 36, הרצלייה",ברוך 36,6536-567-8,דירה בבית קומות,5.0,שלישית,122.6,2100000,,,1980.0,,3.0,8302452200,1,6536567,False,,הרצלייה,ברוך,,6536-567-8,6536/567,17128.874388254488,32.1696849224,34.8479482293,2012
2012-11-16,2012-11-16,"העלייה השנייה 6, הרצלייה",העלייה השנייה 6,6536-594-28,דירה בבית קומות,5.0,רביעית,125.0,1949000,,,1970.0,2012.0,3.0,8304247070,1,6536594,False,,הרצלייה,העליה השניה,,6536-594-28,6536/594,15592.0,32.1721897338,34.844398094,2012
2012-11-15,2012-11-15,"הרי גולן 18, הרצלייה",הרי גולן 18,6577-234-5,דירה בבית קומות,2.0,שלישית,44.0,740000,,,1960.0,,5.0,8302222060,1,6577234,False,92% ב 8.5 שנים,הרצלייה,הרי גולן,10.82,6577-234-5,6577/234,16818.18181818182,32.1767737455,34.8528125236,2012
2012-11-14,2012-11-14,"שלווה 75, הרצלייה",שלווה 75,6666-767-1,קוטג' דו משפחתי,5.0,מרתף+קרקע+ראשונה+גג,248.0,6850000,,,1977.0,,2.0,8302099442,1,6666767,False,52% ב 2.8 שנים,הרצלייה,שלוה,18.57,6666-767-1,6666/767,27620.967741935485,32.1702605493,34.8096932627,2012
2012-11-14,2012-11-14,"בני בנימין 18, הרצלייה",בני בנימין 18,6528-45-8,דירה בבית קומות,4.0,שניה,79.0,1620000,,,1970.0,,3.0,8303298982,1,652845,False,,הרצלייה,בני בנימין,,6528-45-8,6528/45,20506.32911392405,32.1713056736,34.8406266396,2012
2012-11-14,2012-11-14,"בן-גוריון 48, הרצלייה",בן-גוריון 48,6546-756-20,דירה בבית קומות,4.0,רביעית,128.36,2100000,,,1980.0,,4.0,8302510216,1,6546756,False,75% ב 5.4 שנים,הרצלייה,בן גוריון,13.89,6546-756-20,6546/756,16360.23683390464,32.159214959,34.8417209124,2012
2012-11-14,2012-11-14,"בן-יהודה 72, הרצלייה",בן-יהודה 72,6546-506-13,דירה בבית קומות,3.0,רביעית,53.0,1225000,,,2020.0,,4.0,8302903970,1,6546506,False,,הרצלייה,בן יהודה,,6546-506-13,6546/506,23113.20754716981,32.1563239914,34.8453112079,2012
2012-11-14,2012-11-14,"צבי מנדלבלט 8, הרצלייה",צבי מנדלבלט 8,6527-342-14,דירה בבית קומות,4.0,חמישית,95.0,1729000,1.0,שבעת הכוכבים,1970.0,2012.0,3.0,8303728182,1,6527342,False,,הרצלייה,מנדלבלט צבי,,6527-342-14,6527/342,18200.0,32.1672895269,34.832873349,2012
2012-11-14,2012-11-14,"הנדיב 13, הרצלייה",הנדיב 13,6529-99-4,דירה בבית קומות,3.0,ראשונה,80.15,1350000,,,1978.0,,4.0,8302481652,1,652999,False,,הרצלייה,הנדיב,,6529-99-4,6529/99,16843.41859014348,32.1684634701,34.839911045,2012
2012-11-13,2012-11-13,"אלי לנדאו 50, הרצלייה",אלי לנדאו 50,6668-1364-39,דירה בבית קומות,3.0,שביעית,98.0,8776000,,,1993.0,,14.0,8303040130,1,66681364,False,,הרצלייה,רמת ים,,6668-1364-39,6668/1364,89551.02040816327,32.1729217818,34.8010746527,2012
2012-11-13,2012-11-13,"האדמית 6, הרצלייה",האדמית 6,6544-65-30,דירה בבית קומות,6.0,ראשונה,999.0,2300000,,,1993.0,,,8303319628,1,654465,False,,הרצלייה,האדומית,,6544-65-30,6544/65,2302.3023023023025,32.1530134202,34.8489552612,2012
2012-11-13,2012-11-13,"הבנים 69, הרצלייה",הבנים 69,6540-85-22,דירה בבית קומות,5.0,שלישית,120.0,2020000,,,1991.0,,4.0,8302227610,1,654085,False,62% ב 5.4 שנים,הרצלייה,הבנים,11.48,6540-85-22,6540/85,16833.333333333332,32.1634791566,34.8506010791,2012
2012-11-13,2012-11-13,"דובדבן 14, הרצלייה",דובדבן 14,6558-800-7,דירה בבית קומות,2.0,קרקע,46.1,1200000,,,1992.0,,2.0,8302475510,1,6558800,False,106% ב 12.8 שנים,הרצלייה,דובדבן,8.28,6558-800-7,6558/800,26030.36876355748,32.1662204834,34.8631644011,2012
2012-11-13,2012-11-13,"וינגייט 42, הרצלייה",וינגייט 42,6668-706-15,דירה בבית קומות,3.0,שניה,56.0,1825000,,,1970.0,,4.0,8302286218,1,6668706,False,65% ב 2.6 שנים,הרצלייה,וינגייט,25.0,6668-706-15,6668/706,32589.285714285717,32.1787244362,34.8054230027,2012
2012-11-12,2012-12-11,"הר סיני 2, הרצלייה",הר סיני 2,6577-54-23,דירה בבית קומות,2.0,שלישית,39.7,1180000,,,1960.0,,3.0,8304254396,1,657754,False,,הרצלייה,הר סיני,,6577-54-23,6577/54,29722.92191435768,32.1726079137,34.8526548833,2012
2012-11-12,2012-12-11,"אלכסנדר ינאי 4, הרצלייה",אלכסנדר ינאי 4,6517-115-10,דירה בבית קומות,4.0,ראשונה,88.52,2500000,,,1970.0,,5.0,8362784326,1,6517115,False,,הרצלייה,אלכסנדר ינאי,,6517-115-10,6517/115,28242.20515137822,32.1699828469,34.8025112144,2012
2012-11-12,2012-12-11,"התנאים 1, הרצלייה",התנאים 1,6546-772-27,דירה בבית קומות,4.0,שביעית,120.0,2610000,,,1985.0,,9.0,8304222058,1,6546772,False,133% ב 8 שנים,הרצלייה,התנאים,16.62,6546-772-27,6546/772,21750.0,32.1529614485,34.8408514756,2012
2012-11-11,2012-11-11,"אבן גבירול 35, הרצלייה",אבן גבירול 35,6534-163-4,דירה בבית קומות,5.0,שניה,111.54,2070000,,,1991.0,,4.0,8301824680,1,6534163,False,,הרצלייה,אבן גבירול,,6534-163-4,6534/163,18558.364712210863,32.165093978,34.8345729926,2012
2012-11-11,2012-11-11,"רמב""ם 16, הרצלייה","רמב""ם 16",6538-84-2,דירה בבית קומות,4.0,ראשונה,90.66,1650000,,,1990.0,,4.0,8302357628,1,653884,False,,הרצלייה,"רמב""ם",,6538-84-2,6538/84,18199.867637326275,32.163331738,34.8445794145,2012
2012-11-11,2012-11-11,"סירקין 3, הרצלייה",סירקין 3,6531-51-90,דירה בבית קומות,3.0,שלישית,67.0,1280000,,,1960.0,,3.0,8302311304,1,653151,False,89% ב 5.3 שנים,הרצלייה,סירקין,16.79,6531-51-90,6531/51,19104.4776119403,32.1667668038,34.8436800002,2012
2012-11-10,2012-10-11,"הנביאים 6, הרצלייה",הנביאים 6,6530-237-5,דירה בבית קומות,3.0,שניה,67.5,1535000,,,1980.0,,3.0,8300654296,1,6530237,False,,הרצלייה,הנביאים,,6530-237-5,6530/237,22740.74074074074,32.1689452137,34.8409972104,2012
2012-11-09,2012-09-11,"אריאל 5, הרצלייה",אריאל 5,6534-114-14,דירה בבית קומות,3.0,שניה,60.0,1280000,,,2022.0,,6.0,8299730628,1,6534114,False,,הרצלייה,אריאל,,6534-114-14,6534/114,21333.33333333333,32.1666145946,34.8370331058,2012
2012-11-07,2012-07-11,"אבן עזרא 26, הרצלייה",אבן עזרא 26,6527-367-8,דירה בבית קומות,4.0,רביעית,72.5,600000,,,1970.0,,4.0,8297830160,1,6527367,False,,הרצלייה,אבן עזרא,,6527-367-8,6527/367,8275.862068965518,32.1655426416,34.8310148523,2012
2012-11-07,2012-07-11,"ספיר 6, הרצלייה",ספיר 6,6420-55-10,משרד,,ראשונה,470.0,15000000,,,1970.0,2012.0,2.0,8298108474,1,642055,False,,הרצלייה,ספיר,,6420-55-10,6420/55,31914.89361702128,32.1638172601,34.8111521773,2012
2012-11-06,2012-06-11,"פלמ""ח 4, הרצלייה","פלמ""ח 4",6536-515-1,דירה בבית קומות,4.0,ראשונה,88.0,1610000,,,1970.0,,3.0,8295363740,1,6536515,False,65% ב 9.6 שנים,הרצלייה,"פלמ""ח",6.77,6536-515-1,6536/515,18295.454545454544,32.1693717323,34.8452343916,2012
2012-11-06,2012-06-11,"אבן שפרוט 27, הרצלייה",אבן שפרוט 27,6527-220-4,דירה בבית קומות,3.0,ראשונה,52.0,1200000,,,1960.0,,3.0,8295307574,1,6527220,False,106% ב 5.1 שנים,הרצלייה,אבן שפרוט,20.78,6527-220-4,6527/220,23076.92307692308,32.1661109295,34.8329940444,2012
2012-11-06,2012-06-11,"שרעבי 3, הרצלייה",שרעבי 3,6672-118-2,קוטג' דו משפחתי,5.0,,200.0,3750000,,,1991.0,,,8295672024,1,6672118,False,,הרצלייה,שרעבי,,6672-118-2,6672/118,18750.0,32.184351632,34.8359812772,2012
2012-11-06,2012-06-11,"רבי עקיבא 14, הרצלייה",רבי עקיבא 14,6546-306-4,קוטג' דו משפחתי,5.0,מרתף+קרקע+ראשונה+שני,184.0,3150000,,,1978.0,,,8295369290,1,6546306,False,,הרצלייה,רבי עקיבא,,6546-306-4,6546/306,17119.565217391304,32.1534719002,34.8444799773,2012
2012-11-04,2012-04-11,"הנדיב 48, הרצלייה",הנדיב 48,6526-271-3,דירה בבית קומות,6.0,ראשונה,129.44,2200000,,,1995.0,,5.0,8292847814,1,6526271,False,,הרצלייה,הנדיב,,6526-271-3,6526/271,16996.29171817058,32.1707339585,34.8336264862,2012
2012-11-03,2012-03-11,"חברון 5, הרצלייה",חברון 5,6531-84-2,דירה בבית קומות,3.0,ראשונה,55.32,1210000,,,1970.0,,3.0,8292292222,1,653184,False,84% ב 7.4 שנים,הרצלייה,חברון,11.35,6531-84-2,6531/84,21872.74041937816,32.1657990051,34.8432044327,2012
2012-11-03,2012-03-11,"פלמ""ח 1, הרצלייה","פלמ""ח 1",6536-202-1,דירה בבית קומות,3.0,ראשונה,46.5,1100000,,,1962.0,,3.0,8291503530,1,6536202,False,95% ב 10.7 שנים,הרצלייה,"פלמ""ח",8.88,6536-202-1,6536/202,23655.913978494624,32.1689857094,34.8447778895,2012
2012-11-01,2012-01-11,"ויתקין 13, הרצלייה",ויתקין 13,6536-323-1,קוטג' דו משפחתי,7.0,,250.0,6000000,,,2000.0,,,8288780034,1,6536323,False,,הרצלייה,ויתקין,,6536-323-1,6536/323,24000.0,32.17208972,34.8474894528,2012
2012-11-01,2012-01-11,"התנאים 7, הרצלייה",התנאים 7,6546-723-19,דירה בבית קומות,4.5,חמישית,118.0,2025000,,,1980.0,,9.0,8288677396,1,6546723,False,9% ב 2.6 שנים,הרצלייה,התנאים,3.46,6546-723-19,6546/723,17161.01694915254,32.1530139856,34.8393360732,2012
2012-11-01,2012-01-11,"נווה עובד 19, הרצלייה",נווה עובד 19,6669-456-4,דירה בבית קומות,5.0,ראשונה,116.0,1700000,,,1960.0,,1.0,8288746438,1,6669456,False,41% ב 6.5 שנים,הרצלייה,נוה עובד,6.31,6669-456-4,6669/456,14655.172413793103,32.185479524,34.8136244378,2012
2012-11-01,2012-01-11,"מלכי ישראל 11, הרצלייה",מלכי ישראל 11,6528-65-10,דירה בבית קומות,5.0,"רביעית, חמישית",144.0,2465000,,,2012.0,,4.0,8288959632,1,652865,False,,הרצלייה,מלכי ישראל,,6528-65-10,6528/65,17118.055555555555,32.1710594131,34.841343224,2012
2012-10-31,2012-10-31,"הרב קוק 63, הרצלייה",הרב קוק 63,6527-33-6,דירה בבית קומות,5.0,קרקע+א+ב,109.38,2200000,,,1980.0,2009.0,3.0,8301803294,1,652733,False,69% ב 4 שנים,הרצלייה,הרב קוק,17.25,6527-33-6,6527/33,20113.366246114463,32.1621649355,34.8332313387,2012
2012-10-31,2012-10-31,"בן-גוריון 97, הרצלייה",בן-גוריון 97,6546-667-1,דירה בבית קומות,5.0,ראשונה,115.0,1600000,,,1980.0,,3.0,8301580480,1,6546667,False,,הרצלייה,בן גוריון,,6546-667-1,6546/667,13913.04347826087,32.1551403208,34.8426599314,2012
2012-10-31,2012-10-31,"העלייה השנייה 25, הרצלייה",העלייה השנייה 25,6536-773-4,קוטג' דו משפחתי,8.0,"מרתף,קרקע,ראשונה",192.0,3475000,,,1983.0,,,8301349082,1,6536773,False,,הרצלייה,העליה השניה,,6536-773-4,6536/773,18098.95833333333,32.1725922839,34.8454983502,2012
2012-10-31,2012-10-31,"פלמ""ח 7, הרצלייה","פלמ""ח 7",6536-577-3,דירה בבית קומות,4.0,ראשונה,87.0,1500000,,,1970.0,,3.0,8301566420,1,6536577,False,,הרצלייה,"פלמ""ח",,6536-577-3,6536/577,17241.379310344826,32.1695673174,34.8447831252,2012
2012-10-30,2012-10-30,"אלוף יגאל אלון 2, הרצלייה",אלוף יגאל אלון 2,6531-152-8,דירה בבית קומות,4.0,רביעית,70.0,1620000,,,1974.0,,3.0,8302819684,1,6531152,False,108% ב 8 שנים,הרצלייה,אלוף אלון יגאל,13.5,6531-152-8,6531/152,23142.85714285714,32.1686118556,34.8445846293,2012
2012-10-30,2012-10-30,"עולי בבל 1, הרצלייה",עולי בבל 1,6527-423-13,דירה בבית קומות,3.0,ראשונה,110.0,3100000,,,1988.0,,2.0,8301851468,1,6527423,False,103% ב 6.6 שנים,הרצלייה,עולי בבל,15.61,6527-423-13,6527/423,28181.81818181818,32.168640304,34.8334734866,2012
2012-10-29,2012-10-29,"דון יוסף הנשיא 19, הרצלייה",דון יוסף הנשיא 19,6527-373-2,דירה בבית קומות,3.0,ראשונה,60.2,1250000,,,1970.0,,4.0,8301299724,1,6527373,True,-1% ב 2.2 שנים,הרצלייה,דון יוסף הנשיא,-0.45,6527-373-2,6527/373,20764.1196013289,32.164423059,34.833232841,2012
2012-10-29,2012-10-29,"ההגנה 37, הרצלייה",ההגנה 37,6536-758-2,דירה בבית קומות,4.0,ראשונה,100.79,1870000,,,1980.0,2012.0,3.0,8301313192,1,6536758,False,20% ב 2.7 שנים,הרצלייה,ההגנה,7.41,6536-758-2,6536/758,18553.42791943645,32.1707121446,34.8503840553,2012
2012-10-29,2012-10-29,"דוד שמעוני 20, הרצלייה",דוד שמעוני 20,6526-295-40,דירה בבית קומות,4.0,שישית,104.4,2450000,,,2006.0,,8.0,8301562128,1,6526295,False,84% ב 8.6 שנים,הרצלייה,שמעוני דוד,9.77,6526-295-40,6526/295,23467.43295019157,32.1725509174,34.8365674126,2012
2012-10-29,2012-10-29,"יל""ג 6, הרצלייה","יל""ג 6",6531-158-8,דירה בבית קומות,4.0,שניה,102.16,1400000,,,1980.0,,3.0,8302687964,1,6531158,False,,הרצלייה,"יל""ג",,6531-158-8,6531/158,13703.99373531715,32.1682080591,34.8432209335,2012
2012-10-29,2012-10-29,"יל""ג 6, הרצלייה","יל""ג 6",6531-158-11,דירה בבית קומות,4.0,שלישית,109.66,1800000,,,1980.0,,3.0,8302973604,1,6531158,False,,הרצלייה,"יל""ג",,6531-158-11,6531/158,16414.37169432792,32.1682080591,34.8432209335,2012
2012-10-29,2012-10-29,"ההגנה 55, הרצלייה",ההגנה 55,6536-845-8,דירה בבית קומות,5.0,שניה,113.1,1920000,,,1982.0,,7.0,8301264278,1,6536845,False,62% ב 10.4 שנים,הרצלייה,ההגנה,5.96,6536-845-8,6536/845,16976.127320954907,32.1727406712,34.8498717156,2012
2012-10-28,2012-10-28,"האילנות 27, הרצלייה",האילנות 27,6663-295-1,דירה בבית קומות,4.0,ראשונה,98.8,1632000,,,1970.0,,4.0,8301330804,1,6663295,False,,הרצלייה,האילנות,,6663-295-1,6663/295,16518.218623481782,32.1787958119,34.8436281917,2012
2012-10-28,2012-10-28,"הר שומרון 6, הרצלייה",הר שומרון 6,6577-225-7,דירה בבית קומות,3.0,שניה,54.0,800000,,,1970.0,,3.0,8301488276,1,6577225,False,133% ב 6.5 שנים,הרצלייה,הר שומרון,20.46,6577-225-7,6577/225,14814.814814814816,32.1763234882,34.8561169492,2012
2012-10-28,2012-10-28,"הלל 5, הרצלייה",הלל 5,6534-176-23,דירה בבית קומות,6.0,שלישית+רביעית,131.92,2370000,,,1996.0,,3.0,8301988220,1,6534176,False,52% ב 5.8 שנים,הרצלייה,הלל,8.97,6534-176-23,6534/176,17965.433596118863,32.1642080908,34.8378579139,2012
2012-10-25,2012-10-25,"אבן גבירול 26, הרצלייה",אבן גבירול 26,6527-387-39,דירה בבית קומות,4.0,שניה,91.0,1000000,,,1960.0,,3.0,8302048160,1,6527387,False,,הרצלייה,אבן גבירול,,6527-387-39,6527/387,10989.010989010989,32.1660916541,34.8341140782,2012
2012-10-24,2012-10-24,"הס 26, הרצלייה",הס 26,6533-121-6,דירה בבית קומות,5.0,שלישית + גג,101.5,1480000,,,1985.0,,3.0,8302903378,1,6533121,False,93% ב 11.8 שנים,הרצלייה,הס,7.88,6533-121-6,6533/121,14581.28078817734,32.1649235019,34.8412134465,2012
2012-10-24,2012-10-24,"הרי גולן 16, הרצלייה",הרי גולן 16,6577-234-15,דירה בבית קומות,2.0,רביעית,44.0,745000,,,1960.0,,5.0,8301259986,1,6577234,True,-6% ב 2.7 שנים,הרצלייה,הרי גולן,-2.22,6577-234-15,6577/234,16931.81818181818,32.1767737455,34.8528125236,2012
2012-10-23,2012-10-23,"הברוש 13, הרצלייה",הברוש 13,6669-130-2,קוטג' חד משפחתי,6.0,שלישית,298.0,10724000,,,1970.0,,2.0,8302478026,1,6669130,False,,הרצלייה,הברוש,,6669-130-2,6669/130,35986.57718120806,32.1858148058,34.8110040844,2012
2012-10-23,2012-10-23,"הרב חנוך פישמן 4, הרצלייה",הרב חנוך פישמן 4,6519-66-2,קוטג' דו משפחתי,5.0,,229.0,16001000,,,2011.0,,1.0,8303734916,1,651966,False,,הרצלייה,הרב פישמן,,6519-66-2,6519/66,69873.36244541485,32.1721458139,34.8162176142,2012
2012-10-23,2012-10-23,"סוקולוב 71, הרצלייה",סוקולוב 71,6532-119-12,חנות,,,65.0,1900000,,,2012.0,,5.0,8301468074,1,6532119,False,,הרצלייה,סוקולוב,,6532-119-12,6532/119,29230.76923076923,32.1673352329,34.8467621924,2012
2012-10-22,2012-10-22,"מגן דוד 30, הרצלייה",מגן דוד 30,7927-73-1,דירה בבית קומות,4.0,ראשונה,85.5,2050000,,,1998.0,,2.0,8301304534,1,792773,False,,הרצלייה,מגן דוד,,7927-73-1,7927/73,23976.6081871345,32.1856268656,34.8386066047,2012
2012-10-22,2012-10-22,"סוקולוב 71, הרצלייה",סוקולוב 71,6532-119-11,עסק,1.0,,65.0,2223000,1.0,SOCOLIFE,2012.0,,5.0,11181280496,1,6532119,False,,הרצלייה,סוקולוב,,6532-119-11,6532/119,34200.0,32.1673352329,34.8467621924,2012
2012-10-22,2012-10-22,"צמרות 8, הרצלייה",צמרות 8,6546-861-9,דירה בבית קומות,4.5,שלישית,132.7,3400000,,,1994.0,,16.0,8301003576,1,6546861,False,74% ב 3.8 שנים,הרצלייה,צמרות,19.47,6546-861-9,6546/861,25621.703089675964,32.151102979,34.8451205506,2012
2012-10-22,2012-10-22,"הדר 79, הרצלייה",הדר 79,6536-423-5,דירה בבית קומות,2.5,שניה,37.0,970000,,,1964.0,,3.0,8301369876,1,6536423,False,,הרצלייה,הדר,,6536-423-5,6536/423,26216.216216216217,32.1758713924,34.8484023455,2012
2012-10-22,2012-10-22,"האדמית 4, הרצלייה",האדמית 4,6544-65-11,דירה בבית קומות,6.0,שלישית ורביעית+קרקע,189.0,3100000,,,1989.0,,,8301382826,1,654465,False,,הרצלייה,האדומית,,6544-65-11,6544/65,16402.1164021164,32.1530134202,34.8489552612,2012
2012-10-22,2012-10-22,"סוקולוב 47, הרצלייה",סוקולוב 47,6531-58-12,חנות,,קרקע,,72000,,,1960.0,,3.0,8302417568,1,653158,False,,הרצלייה,סוקולוב,,6531-58-12,6531/58,,32.1674420686,34.8439079431,2012
2012-10-21,2012-10-21,"הרי גולן 15, הרצלייה",הרי גולן 15,6577-231-7,דירה בבית קומות,3.0,שניה,60.2,1025000,,,1970.0,,4.0,8301056634,1,6577231,False,,הרצלייה,הרי גולן,,6577-231-7,6577/231,17026.5780730897,32.1770142963,34.8520899725,2012
2012-10-19,2012-10-19,"אמה טאובר 2, הרצלייה",אמה טאובר 2,6536-906-12,דירה בבית קומות,4.0,שלישית,95.0,1994000,,,2003.0,,7.0,8301133520,1,6536906,False,77% ב 8.5 שנים,הרצלייה,טאובר אמה,9.06,6536-906-12,6536/906,20989.473684210527,32.1754439708,34.8493858698,2012
2012-10-19,2012-10-19,"קהילת ציון 26, הרצלייה",קהילת ציון 26,6538-371-2,דירה בבית קומות,3.0,ראשונה,62.0,1300000,,,1960.0,,3.0,8300836854,1,6538371,False,62% ב 5.2 שנים,הרצלייה,קהילת ציון,11.92,6538-371-2,6538/371,20967.74193548387,32.1640410571,34.8486205737,2012
2012-10-18,2012-10-18,"ההגנה 9, הרצלייה",ההגנה 9,6537-194-3,דירה בבית קומות,4.0,שניה,90.1,1700000,,,2006.0,,4.0,8300765518,1,6537194,False,,הרצלייה,ההגנה,,6537-194-3,6537/194,18867.924528301886,32.1665261769,34.8517852225,2012
2012-10-16,2012-10-16,"פורצי הדרך 6, הרצלייה",פורצי הדרך 6,6560-100-8,דירת גן,4.0,קרקע,81.35,1555000,,,2000.0,,2.0,8300944450,1,6560100,False,,הרצלייה,פורצי הדרך,,6560-100-8,6560/100,19114.93546404425,32.160218988,34.8639017264,2012
2012-10-16,2012-10-16,"רבי עקיבא 1, הרצלייה",רבי עקיבא 1,6546-531-3,דירה בבית קומות,3.0,ראשונה,41.6,1120000,,,1960.0,,3.0,8300945634,1,6546531,False,68% ב 1 שנים,הרצלייה,רבי עקיבא,68.0,6546-531-3,6546/531,26923.07692307692,32.1538794096,34.8426446888,2012
2012-10-15,2012-10-15,"אברהם שטרן 7, הרצלייה",אברהם שטרן 7,6546-555-15,דירה בבית קומות,4.0,רביעית,93.0,2250000,,,1970.0,,9.0,8300873632,1,6546555,False,,הרצלייה,שטרן אברהם,,6546-555-15,6546/555,24193.548387096773,32.1541389308,34.8403127481,2012
2012-10-15,2012-10-15,"הבשן 3, הרצלייה",הבשן 3,6577-168-3,דירה בבית קומות,2.0,ראשונה,37.6,785000,,,1960.0,,4.0,8301271012,1,6577168,False,128% ב 7.1 שנים,הרצלייה,הבשן,18.03,6577-168-3,6577/168,20877.659574468085,32.1762413493,34.8539098646,2012
2012-10-14,2012-10-14,"הס 28, הרצלייה",הס 28,6533-122-3,דירה בבית קומות,2.0,ראשונה,45.3,1260000,,,1960.0,,3.0,8300943266,1,6533122,False,29% ב 1.1 שנים,הרצלייה,הס,26.36,6533-122-3,6533/122,27814.56953642384,32.1647664128,34.8412822105,2012
2012-10-10,2012-10-10,"אברהם שטרן 4, הרצלייה",אברהם שטרן 4,6546-844-14,דירה בבית קומות,2.5,שניה,49.32,870000,,,1965.0,,4.0,8301023778,1,6546844,False,77% ב 7.9 שנים,הרצלייה,שטרן אברהם,9.75,6546-844-14,6546/844,17639.902676399026,32.1545182435,34.8416009175,2012
2012-10-10,2012-10-10,"ויצמן 8, הרצלייה",ויצמן 8,6535-37-13,דירה בבית קומות,3.0,שלישית,55.0,1180000,,,1970.0,,3.0,8300651336,1,653537,False,24% ב 4.2 שנים,הרצלייה,ויצמן,5.71,6535-37-13,6535/37,21454.545454545456,32.1632648339,34.8351342465,2012
2012-10-09,2012-09-10,"סירני 2, הרצלייה",סירני 2,6419-24-2,קוטג' דו משפחתי,7.0,קרקע,185.0,4600000,,,1960.0,,,8300623808,1,641924,False,,הרצלייה,סירני,,6419-24-2,6419/24,24864.864864864863,32.1646831351,34.8065129083,2012
2012-10-09,2012-09-10,"פתח תקווה 4, הרצלייה",פתח תקווה 4,6542-62-6,דירה בבית קומות,4.0,ראשונה,70.0,1616000,,,1965.0,,2.0,8300382050,1,654262,False,137% ב 5.6 שנים,הרצלייה,פתח תקווה,24.46,6542-62-6,6542/62,23085.714285714286,32.1600064853,34.852240008,2012
2012-10-08,2012-08-10,"שמעוני דוד 8, הרצלייה",שמעוני דוד 8,6526-188-16,דירה בבית קומות,5.0,שלישית,116.0,2250000,,,1997.0,,5.0,8298441252,1,6526188,False,,הרצלייה,שמעוני דוד,,6526-188-16,6526/188,19396.55172413793,32.1711711166,34.8357317915,2012
2012-10-08,2012-08-10,"אחד העם 13, הרצלייה",אחד העם 13,6532-174-1,דירה בבית קומות,4.0,ראשונה,73.0,1460000,,,1970.0,,3.0,8298294732,1,6532174,False,113% ב 14.1 שנים,הרצלייה,אחד העם,8.01,6532-174-1,6532/174,20000.0,32.1676690454,34.8462270552,2012
2012-10-08,2012-08-10,"בן-יהודה 72, הרצלייה",בן-יהודה 72,6546-506-8,דירה בבית קומות,3.0,שניה,53.0,1210000,,,2020.0,,4.0,8298067626,1,6546506,False,99% ב 6.7 שנים,הרצלייה,בן יהודה,14.78,6546-506-8,6546/506,22830.18867924528,32.1563239914,34.8453112079,2012
2012-10-07,2012-07-10,"סוקולוב 6, הרצלייה",סוקולוב 6,6533-299-102,דירה בבית קומות,4.5,שמונה עשרה,117.2,2700000,,,2007.0,,17.0,8297270794,1,6533299,False,38% ב 3.1 שנים,הרצלייה,סוקולוב,12.26,6533-299-102,6533/299,23037.54266211604,32.1664623369,34.8395329221,2012
2012-10-07,2012-07-10,"אבן שפרוט 15, הרצלייה",אבן שפרוט 15,6527-219-23,דירה בבית קומות,3.0,שלישית,47.0,1030000,,,1960.0,,3.0,8297824092,1,6527219,False,128% ב 11.6 שנים,הרצלייה,אבן שפרוט,11.03,6527-219-23,6527/219,21914.89361702128,32.1663953376,34.8325497552,2012
2012-10-07,2012-07-10,"בן-יהודה 38, הרצלייה",בן-יהודה 38,6546-815-2,קוטג' דו משפחתי,5.0,מרתף+קרקע ראשונה,267.6,3400000,,,1983.0,,,8296574972,1,6546815,False,,הרצלייה,בן יהודה,,6546-815-2,6546/815,12705.530642750373,32.1592791108,34.8451297646,2012
2012-10-06,2012-06-10,"דוד המלך 27, הרצלייה",דוד המלך 27,6666-841-2,קוטג' דו משפחתי,6.0,קרקע+ראשונה+גג,203.4,4760000,,,1970.0,,,8295914300,1,6666841,False,,הרצלייה,דוד המלך,,6666-841-2,6666/841,23402.163225172077,32.1776903338,34.8148195934,2012
2012-10-06,2012-06-10,"הר שומרון 2, הרצלייה",הר שומרון 2,6577-246-11,דירה בבית קומות,2.0,שלישית,41.6,610000,,,1970.0,,3.0,8295580486,1,6577246,False,77% ב 6.8 שנים,הרצלייה,הר שומרון,11.32,6577-246-11,6577/246,14663.461538461535,32.1758114918,34.856094454,2012
2012-10-05,2012-05-10,"בן-יהודה 19, הרצלייה",בן-יהודה 19,6538-445-2,דירה בבית קומות,4.0,ראשונה,74.0,1640000,,,1970.0,,3.0,8294025006,1,6538445,False,79% ב 5 שנים,הרצלייה,בן יהודה,15.8,6538-445-2,6538/445,22162.162162162163,32.1633507982,34.8455013518,2012
2012-10-02,2012-02-10,"העצמאות 97, הרצלייה",העצמאות 97,6537-159-3,דירה בבית קומות,4.0,ראשונה,81.22,1451000,,,1978.0,,3.0,8290405222,1,6537159,False,93% ב 10.4 שנים,הרצלייה,העצמאות,8.94,6537-159-3,6537/159,17865.057867520314,32.1653491777,34.8501338964,2012
2012-10-02,2012-02-10,"משה שמיר 2, הרצלייה",משה שמיר 2,6526-329-7,דירה בבית קומות,5.0,שניה,146.3,3780000,,,2010.0,,2.0,8290110406,1,6526329,False,,הרצלייה,שמיר משה,,6526-329-7,6526/329,25837.32057416268,32.1754595396,34.8400257674,2012
2012-10-01,2012-01-10,"הבשן 22, הרצלייה",הבשן 22,6577-163-12,דירה בבית קומות,3.0,שניה,62.0,930000,,,1960.0,,4.0,8289778886,1,6577163,False,164% ב 5 שנים,הרצלייה,הבשן,32.8,6577-163-12,6577/163,15000.0,32.1763231946,34.8549145906,2012
2012-09-27,2012-09-27,"סוקולוב 65, הרצלייה",סוקולוב 65,6532-365-1,דירה בבית קומות,4.0,קומה ‎2‏,98.38,1875000,,,2015.0,,10.0,8300982782,1,6532365,False,,הרצלייה,סוקולוב,,6532-365-1,6532/365,19058.751778816837,32.1674336975,34.8463334283,2012
2012-09-27,2012-09-27,"יהודה בורר 3, הרצלייה",יהודה בורר 3,6529-203-6,דירה בבית קומות,4.0,שלישית +גג,101.99,2150000,,,1980.0,,3.0,8300874816,1,6529203,False,136% ב 12 שנים,הרצלייה,בורר יהודה,11.33,6529-203-6,6529/203,21080.49808804785,32.1708877751,34.8391230404,2012
2012-09-27,2012-09-27,"צמרות 8, הרצלייה",צמרות 8,6546-861-20,דירה בבית קומות,5.5,חמישית,143.0,2900000,,,1994.0,,16.0,8301311860,1,6546861,False,20% ב 4.2 שנים,הרצלייה,צמרות,4.76,6546-861-20,6546/861,20279.72027972028,32.151102979,34.8451205506,2012
2012-09-24,2012-09-24,"הנדיב 14, הרצלייה",הנדיב 14,6530-52-9,דירה בבית קומות,3.0,ראשונה,75.0,1535000,,,1930.0,,2.0,8300781354,1,653052,False,,הרצלייה,הנדיב,,6530-52-9,6530/52,20466.666666666668,,,2012
2012-09-24,2012-09-24,"ארלוזורוב 26, הרצלייה",ארלוזורוב 26,6541-181-19,דירה בבית קומות,4.0,חמישית,84.0,1790000,,,1980.0,,6.0,8300582220,1,6541181,False,,הרצלייה,ארלוזורוב,,6541-181-19,6541/181,21309.52380952381,32.1594269854,34.8467756649,2012
2012-09-24,2012-09-24,"נורדאו 17, הרצלייה",נורדאו 17,6520-39-8,דירה בבית קומות,6.0,מרתף קרקע ראשונה וגג,197.01,2820000,,,1970.0,,2.0,8300001098,1,652039,False,,הרצלייה,נורדאו,,6520-39-8,6520/39,14313.994213491702,32.1691266674,34.8152377709,2012
2012-09-23,2012-09-23,"צבי מנדלבלט 8, הרצלייה",צבי מנדלבלט 8,6527-342-11,דירה בבית קומות,3.0,שלישית,103.0,1585000,,,1970.0,,3.0,8300245298,1,6527342,False,,הרצלייה,מנדלבלט צבי,,6527-342-11,6527/342,15388.349514563106,32.1672895269,34.832873349,2012
2012-09-23,2012-09-23,"כצנלסון 9, הרצלייה",כצנלסון 9,6558-153-2,דירה בבית קומות,2.5,קרקע,46.0,1620000,,,1950.0,,1.0,8300227612,1,6558153,False,1% ב 2.8 שנים,הרצלייה,כצנלסון,0.36,6558-153-2,6558/153,35217.391304347824,32.1691648797,34.8543834247,2012
2012-09-23,2012-09-23,"יהודה הלוי 37, הרצלייה",יהודה הלוי 37,6527-292-9,דירה בבית קומות,3.0,שניה,54.0,1150000,,,1972.0,,3.0,8300223912,1,6527292,False,,הרצלייה,הקוצרים,,6527-292-9,6527/292,21296.296296296296,32.1671543651,34.835486391,2012
2012-09-23,2012-09-23,"חיים לסקוב 32, הרצלייה",חיים לסקוב 32,6526-219-1,דירה בבית קומות,6.0,מרתף+קרקע+ראשונה+גג,277.12,4100000,,,1999.0,,,8300249590,1,6526219,False,130% ב 9 שנים,הרצלייה,לסקוב חיים,14.44,6526-219-1,6526/219,14795.034642032331,32.1743098517,34.8421183469,2012
2012-09-20,2012-09-20,"אחד העם 21, הרצלייה",אחד העם 21,6532-346-10,דירה בבית קומות,4.0,חמישית,110.0,1300000,,,1982.0,,5.0,8300480322,1,6532346,False,,הרצלייה,אחד העם,,6532-346-10,6532/346,11818.181818181818,32.1667491325,34.8462784956,2012
2012-09-16,2012-09-16,"יהודה הלוי 9, הרצלייה",יהודה הלוי 9,6529-46-17,דירה בבית קומות,3.0,שלישית,70.34,1500000,,,1960.0,,3.0,8300510218,1,652946,False,,הרצלייה,יהודה הלוי,,6529-46-17,6529/46,21324.992891669037,32.168778502,34.8380156407,2012
2012-09-14,2012-09-14,"אל על 4, הרצלייה",אל על 4,6521-5-67,דירה בבית קומות,4.0,תשיעית,113.0,2200000,,,1970.0,,11.0,8300493272,1,65215,False,,הרצלייה,אל על,,6521-5-67,6521/5,19469.02654867257,32.1666328275,34.8149019352,2012
2012-09-13,2012-09-13,"דן שומרון 9, הרצלייה",דן שומרון 9,6536-968-28,דירה בבית קומות,5.0,קומה ‎5‏,158.23,3850000,,,2012.0,,6.0,8300484614,1,6536968,False,,הרצלייה,שומרון דן,,6536-968-28,6536/968,24331.669089300387,32.176449328,34.8439402149,2012
2012-09-13,2012-09-13,,,6668-934-2,קוטג' חד משפחתי,9.0,שניה,566.0,19750000,,,1963.0,,,8299902234,2,6668934,False,,הרצלייה,שבט מנשה,,6668-934-2,6668/934,34893.99293286219,32.1762674048,34.8064980184,2012
2012-09-13,2012-09-13,"שמעוני דוד 8, הרצלייה",שמעוני דוד 8,6526-188-29,דירה בבית קומות,5.0,ראשונה,116.0,2206000,,,1997.0,,5.0,8300929206,1,6526188,False,,הרצלייה,שמעוני דוד,,6526-188-29,6526/188,19017.241379310344,32.1711711166,34.8357317915,2012
2012-09-12,2012-12-09,"צמרות 2, הרצלייה",צמרות 2,6546-858-101,דירה בבית קומות,5.0,תשיעית,133.3,2880000,,,1998.0,,17.0,8303485758,1,6546858,False,,הרצלייה,צמרות,,6546-858-101,6546/858,21605.401350337583,32.1515729734,34.8431441388,2012
2012-09-12,2012-12-09,"גיל 56, הרצלייה",גיל 56,6557-120-2,דירה בבית קומות,4.0,ראשונה,100.0,2200000,,,1960.0,,1.0,8303952846,1,6557120,False,95% ב 12 שנים,הרצלייה,גיל,7.92,6557-120-2,6557/120,22000.0,32.1599004174,34.8623999535,2012
2012-09-12,2012-12-09,"הקונגרס הציוני 18, הרצלייה",הקונגרס הציוני 18,6669-51-1,קוטג' חד משפחתי,6.0,שניה,220.0,8250000,,,1996.0,,1.0,8303692662,1,666951,False,,הרצלייה,הקונגרס הציוני,,6669-51-1,6669/51,37500.0,32.1837475165,34.8096275535,2012
2012-09-10,2012-10-09,"שפינוזה 10, הרצלייה",שפינוזה 10,6666-25-2,קוטג' דו משפחתי,6.0,,180.0,7000000,,,1995.0,,1.0,8301388820,1,666625,False,,הרצלייה,שפינוזה,,6666-25-2,6666/25,38888.88888888889,32.1727868539,34.8139832109,2012
2012-09-10,2012-10-09,"האילנות 25, הרצלייה",האילנות 25,6663-304-16,דירה בבית קומות,5.0,"קומה ‎4‏, קומה ‎5‏",126.1,2390000,,,1970.0,2012.0,4.0,8300704394,1,6663304,False,,הרצלייה,האילנות,,6663-304-16,6663/304,18953.21173671689,32.1788935886,34.8431761264,2012
2012-09-10,2012-10-09,"אמה טאובר 2, הרצלייה",אמה טאובר 2,6536-906-15,דירה בבית קומות,4.0,רביעית,96.0,2150000,,,2003.0,,7.0,8300508368,1,6536906,False,85% ב 9 שנים,הרצלייה,טאובר אמה,9.44,6536-906-15,6536/906,22395.83333333333,32.1754439708,34.8493858698,2012
2012-09-09,2012-09-09,"יהודה הלוי 31, הרצלייה",יהודה הלוי 31,6527-263-9,דירה בבית קומות,5.0,שלישית,131.44,1860000,,,1970.0,,9.0,8299220324,1,6527263,False,,הרצלייה,יהודה הלוי,,6527-263-9,6527/263,14150.943396226416,32.1673747296,34.8360354094,2012
2012-09-09,2012-09-09,"אוצר הצמחים 6, הרצלייה",אוצר הצמחים 6,6530-252-15,דירה בבית קומות,4.0,רביעית,107.58,1780000,,,1980.0,,8.0,8299397924,1,6530252,False,3% ב 1.7 שנים,הרצלייה,אוצר הצמחים,1.76,6530-252-15,6530/252,16545.826361777283,32.1685658709,34.8411734072,2012
2012-09-09,2012-09-09,"נתן אלתרמן 15, הרצלייה",נתן אלתרמן 15,6526-292-9,דירה בבית קומות,5.0,שלישית,165.3,3750000,,,2003.0,,3.0,8300599314,1,6526292,False,69% ב 9 שנים,הרצלייה,אלתרמן נתן,7.67,6526-292-9,6526/292,22686.02540834845,32.174049809,34.8385884388,2012
2012-09-09,2012-09-09,"אוסישקין 8, הרצלייה",אוסישקין 8,6539-124-12,דירה בבית קומות,3.0,שלישית,62.71,1550000,,,1970.0,,3.0,8300133706,1,6539124,False,,הרצלייה,אוסישקין,,6539-124-12,6539/124,24716.95104449051,32.1610832417,34.8462521978,2012
2012-09-08,2012-08-09,"בן-גוריון 21, הרצלייה",בן-גוריון 21,6538-115-14,דירה בבית קומות,3.0,שלישית,62.54,1080000,,,1960.0,,4.0,8298701954,1,6538115,False,60% ב 5.4 שנים,הרצלייה,בן גוריון,11.11,6538-115-14,6538/115,17268.94787336105,32.1632048948,34.8427928826,2012
2012-09-05,2012-05-09,"גלי תכלת 8, הרצלייה",גלי תכלת 8,6669-156-1,קוטג' דו משפחתי,8.0,,382.0,9156000,,,1991.0,,1.0,8295355822,1,6669156,False,,הרצלייה,גלי תכלת,,6669-156-1,6669/156,23968.58638743456,32.1852578593,34.8077501595,2012
2012-09-02,2012-02-09,"חת""ם סופר 12, הרצלייה","חת""ם סופר 12",6546-894-4,דירה בבית קומות,5.0,,151.0,3840000,,,2009.0,,2.0,8290283122,1,6546894,False,19% ב 2 שנים,הרצלייה,"חת""ם סופר",9.5,6546-894-4,6546/894,25430.46357615894,32.1520433488,34.8443258211,2012
2012-09-01,2012-01-09,"הדר 3, הרצלייה",הדר 3,6532-36-3,דירה בבית קומות,3.0,ראשונה,70.0,1200000,,,2012.0,,1.0,8290563360,1,653236,False,,הרצלייה,הדר,,6532-36-3,6532/36,17142.85714285714,32.1674613295,34.8484530181,2012
2012-09-01,2012-01-09,"בני בנימין 14, הרצלייה",בני בנימין 14,6528-99-3,דירה בבית קומות,4.0,שניה,94.25,1100000,,,1991.0,,3.0,8288549228,1,652899,False,,הרצלייה,בני בנימין,,6528-99-3,6528/99,11671.087533156498,32.1710156908,34.8402079727,2012
2012-08-30,2012-08-30,"חת""ם סופר 16, הרצלייה","חת""ם סופר 16",6546-896-2,דירה בבית קומות,5.0,ראשונה,114.09,3000000,,,2009.0,,3.0,8299590842,1,6546896,False,,הרצלייה,"חת""ם סופר",,6546-896-2,6546/896,26295.030239284773,32.1520351224,34.8448453838,2012
2012-08-30,2012-08-30,"חברון 5, הרצלייה",חברון 5,6531-84-3,דירה בבית קומות,3.0,ראשונה,47.67,1175000,,,1970.0,,3.0,8300441842,1,653184,False,27% ב 4.8 שנים,הרצלייה,חברון,5.62,6531-84-3,6531/84,24648.625970211877,32.1657990051,34.8432044327,2012
2012-08-30,2012-08-30,"סנש חנה 26, הרצלייה",סנש חנה 26,6424-150-35,דירה בבית קומות,4.0,שישית,101.53,2220000,,,2002.0,,7.0,8299217808,1,6424150,False,,הרצלייה,סנש חנה,,6424-150-35,6424/150,21865.458485176798,32.15900613,34.8391946766,2012
2012-08-30,2012-08-30,"יהדות הדממה 4, הרצלייה",יהדות הדממה 4,6518-379-1,קוטג' דו משפחתי,5.0,מרתף+קרקע+ראשונה,271.94,6700000,,,2002.0,,,8299486354,1,6518379,False,104% ב 9.7 שנים,הרצלייה,יהדות הדממה,10.72,6518-379-1,6518/379,24637.7877472972,32.1673144871,34.8060930508,2012
2012-08-30,2012-08-30,"סוקולוב 58, הרצלייה",סוקולוב 58,6532-347-41,דירה בבית קומות,4.5,שישית,105.2,1625000,,,1970.0,,8.0,8298983968,1,6532347,False,,הרצלייה,סוקולוב,,6532-347-41,6532/347,15446.7680608365,32.1667396,34.8466095364,2012
2012-08-29,2012-08-29,"כ""ט בנובמבר 4, הרצלייה","כ""ט בנובמבר 4",6530-134-18,דירת גג (פנטהאוז),6.0,חמישית,140.0,2930000,1.0,,2013.0,,5.0,8299308236,1,6530134,False,,הרצלייה,"כ""ט בנובמבר",,6530-134-18,6530/134,20928.571428571428,32.1701986008,34.8423963899,2012
2012-08-29,2012-08-29,"אמנון ותמר 9, הרצלייה",אמנון ותמר 9,6544-64-15,חנות,,"מרתף ‎-1‏, קומה ‎0‏",307.21,220000,,,1996.0,,5.0,8299409468,1,654464,False,25% ב 3.2 שנים,הרצלייה,אמנון ותמר,7.81,6544-64-15,6544/64,716.1225220533187,32.1533016288,34.8495962377,2012
2012-08-29,2012-08-29,"אליהו גולומב 69, הרצלייה",אליהו גולומב 69,6536-922-5,דירה בבית קומות,5.0,שמינית,120.0,2625000,,,2000.0,,5.0,8299376686,1,6536922,False,,הרצלייה,גולומב אליהו,,6536-922-5,6536/922,21875.0,32.174354203,34.8496004505,2012
2012-08-29,2012-08-29,"יהושפט המלך 10, הרצלייה",יהושפט המלך 10,6667-566-1,קוטג' חד משפחתי,7.0,,180.0,5000000,,,1978.0,,,8299985854,1,6667566,False,,הרצלייה,יהושפט המלך,,6667-566-1,6667/566,27777.777777777777,32.1719145815,34.8087096078,2012
2012-08-29,2012-08-29,"דן שומרון 7, הרצלייה",דן שומרון 7,6536-968-2,דירה בבית קומות,5.0,"קומה ‎-1‏, קומה ‎0‏",127.25,2935000,,,2012.0,,5.0,8299743504,1,6536968,False,,הרצלייה,שומרון דן,,6536-968-2,6536/968,23064.83300589391,32.176449328,34.8439402149,2012
2012-08-28,2012-08-28,"בר-אילן 5, הרצלייה",בר-אילן 5,6533-31-6,דירה בבית קומות,3.0,שלישית,73.06,1630000,,,2008.0,,4.0,8299375354,1,653331,False,,הרצלייה,בר אילן,,6533-31-6,6533/31,22310.429783739397,32.1658166976,34.8421263933,2012
2012-08-28,2012-08-28,"אריה לייב יפה 7, הרצלייה",אריה לייב יפה 7,6536-264-2,דירה בבית קומות,5.0,ראשונה,108.3,2530000,,,2012.0,,5.0,8299304536,1,6536264,False,,הרצלייה,יפה אריה לייב,,6536-264-2,6536/264,23361.034164358265,32.171557707,34.8430973444,2012
2012-08-27,2012-08-27,"השופטים 7, הרצלייה",השופטים 7,6546-540-55,דירה בבית קומות,4.0,ארבע עשרה,121.0,2255000,,,1991.0,,18.0,8299087864,1,6546540,False,,הרצלייה,השופטים,,6546-540-55,6546/540,18636.36363636364,32.1527364016,34.8416486065,2012
2012-08-27,2012-08-27,"בן-גוריון 48, הרצלייה",בן-גוריון 48,6546-756-18,דירה בבית קומות,5.0,שלישית,105.45,1762000,,,1980.0,,4.0,8298903382,1,6546756,False,,הרצלייה,בן גוריון,,6546-756-18,6546/756,16709.340919867234,32.159214959,34.8417209124,2012
2012-08-27,2012-08-27,"אלי לנדאו 2, הרצלייה",אלי לנדאו 2,6668-1374-248,דירה בבית קומות,2.0,עשירית,40.0,1720000,,,1970.0,,15.0,8298681160,1,66681374,False,,הרצלייה,רמת ים,,6668-1374-248,6668/1374,43000.0,32.1789670705,34.8029711574,2012
2012-08-27,2012-08-27,"אריה לייב יפה 49, הרצלייה",אריה לייב יפה 49,6536-762-11,דירה בבית קומות,2.0,שניה,47.4,1000000,,,1970.0,,3.0,8298887546,1,6536762,False,125% ב 9 שנים,הרצלייה,יפה אריה לייב,13.89,6536-762-11,6536/762,21097.04641350211,32.1711753508,34.8493949479,2012
2012-08-27,2012-08-27,"אלי לנדאו 2, הרצלייה",אלי לנדאו 2,6668-1374-249,דירה בבית קומות,2.0,עשירית,30.0,1298000,,,1970.0,,15.0,8298680568,1,66681374,False,,הרצלייה,רמת ים,,6668-1374-249,6668/1374,43266.66666666666,32.1789670705,34.8029711574,2012
2012-08-26,2012-08-26,"נופר 1, הרצלייה",נופר 1,6544-22-1,קוטג' דו משפחתי,5.0,"מרתף,קרקע,ראשונה",182.3,4050000,,,1987.0,,,8298698254,1,654422,False,,הרצלייה,נופר,,6544-22-1,6544/22,22216.1272627537,32.1532683658,34.848307196,2012
2012-08-26,2012-08-26,"נורוק 12, הרצלייה",נורוק 12,6546-842-23,דירה בבית קומות,2.0,שלישית,49.32,1200000,,,1965.0,,3.0,8298871118,1,6546842,False,,הרצלייה,נורוק,,6546-842-23,6546/842,24330.900243309003,32.1545285338,34.8407061022,2012
2012-08-26,2012-08-26,"דן שומרון 9, הרצלייה",דן שומרון 9,6536-968-16,דירה בבית קומות,5.0,"קומה ‎-1‏, קומה ‎0‏, קומה ‎1‏",142.1,3296000,,,2012.0,,6.0,8299739878,1,6536968,False,,הרצלייה,שומרון דן,,6536-968-16,6536/968,23194.93314567206,32.176449328,34.8439402149,2012
2012-08-26,2012-08-26,"אלי לנדאו 50, הרצלייה",אלי לנדאו 50,6668-1364-40,דירת נופש,2.0,חמישית,50.0,3460000,,,1993.0,,14.0,8299650042,1,66681364,False,,הרצלייה,רמת ים,,6668-1364-40,6668/1364,69200.0,32.1729217818,34.8010746527,2012
2012-08-26,2012-08-26,"העצמאות 93, הרצלייה",העצמאות 93,6537-154-5,דירה בבית קומות,3.0,ראשונה,74.5,1250000,,,1970.0,,3.0,8298869194,1,6537154,False,,הרצלייה,העצמאות,,6537-154-5,6537/154,16778.523489932886,32.165248223,34.8497095054,2012
2012-08-23,2012-08-23,"משה סמילנסקי 2, הרצלייה",משה סמילנסקי 2,6526-174-5,קוטג' דו משפחתי,6.0,מרתף+קרקע+ראשונה,212.06,3099000,,,1983.0,,2.0,8298603608,1,6526174,False,,הרצלייה,סמילנסקי משה,,6526-174-5,6526/174,14613.78855041026,32.172306105,34.8385396764,2012
2012-08-23,2012-08-23,"השופטים 1, הרצלייה",השופטים 1,6546-543-22,מלאכה,,שניה,175.0,2000000,,,1970.0,,2.0,8300220878,1,6546543,False,40% ב 0.7 שנים,הרצלייה,השופטים,57.14,6546-543-22,6546/543,11428.57142857143,32.1540434589,34.8417623289,2012
2012-08-23,2012-08-23,"פינסקר 18, הרצלייה",פינסקר 18,6529-85-10,דירה בבית קומות,2.0,שניה,54.84,1150000,,,1970.0,,3.0,8299006686,1,652985,False,,הרצלייה,פינסקר,,6529-85-10,6529/85,20970.09482129832,32.1681595679,34.8376493751,2012
2012-08-22,2012-08-22,"הניצנים 14, הרצלייה",הניצנים 14,6529-162-11,דירה בבית קומות,5.0,שלישית +  מרתף,118.55,2290000,,,1997.0,,4.0,8298709280,1,6529162,False,55% ב 5.4 שנים,הרצלייה,הניצנים,10.19,6529-162-11,6529/162,19316.74398987769,32.1688637449,34.8392204239,2012
2012-08-22,2012-08-22,"יעקב לנצט 10, הרצלייה",יעקב לנצט 10,6533-128-4,דירה בבית קומות,4.0,שניה,76.5,1410000,,,1960.0,,3.0,8298610342,1,6533128,False,87% ב 12.4 שנים,הרצלייה,לנצט יעקב,7.02,6533-128-4,6533/128,18431.37254901961,32.165626718,34.8414726017,2012
2012-08-22,2012-08-22,"יבנאלי 14, הרצלייה",יבנאלי 14,6531-102-2,דירה בבית קומות,3.0,ראשונה,76.0,1450000,,,1980.0,,3.0,8299513882,1,6531102,False,,הרצלייה,יבניאלי,,6531-102-2,6531/102,19078.947368421053,32.166158347,34.844788825,2012
2012-08-21,2012-08-21,"סוקולוב 71, הרצלייה",סוקולוב 71,6532-119-10,דירה בבית קומות,4.0,רביעית,98.0,1797000,,,2012.0,,5.0,8299907784,1,6532119,False,,הרצלייה,סוקולוב,,6532-119-10,6532/119,18336.73469387755,32.1673352329,34.8467621924,2012
2012-08-21,2012-08-21,"לכיש 4, הרצלייה",לכיש 4,6538-388-6,דירה בבית קומות,3.0,ראשונה,44.8,1280000,,,1950.0,,2.0,8298588364,1,6538388,False,110% ב 9 שנים,הרצלייה,לכיש,12.22,6538-388-6,6538/388,28571.42857142857,32.1641016323,34.8389530098,2012
2012-08-21,2012-08-21,"ניר 4, הרצלייה",ניר 4,6526-198-2,קוטג' דו משפחתי,6.0,מרתף+קרקע+ראשונה,195.5,3405000,,,1989.0,,,8298909524,1,6526198,False,,הרצלייה,ניר,,6526-198-2,6526/198,17416.87979539642,32.1749646273,34.8403023619,2012
2012-08-21,2012-08-21,"סוקולוב 58, הרצלייה",סוקולוב 58,6532-347-37,דירה בבית קומות,4.0,רביעית,105.2,1570000,,,1970.0,,8.0,8298683602,1,6532347,False,,הרצלייה,סוקולוב,,6532-347-37,6532/347,14923.954372623572,32.1667396,34.8466095364,2012
2012-08-21,2012-08-21,"סוקולוב 71, הרצלייה",סוקולוב 71,6532-119-9,דירה בבית קומות,4.0,שלישית,98.0,1774000,,,2012.0,,5.0,8299912002,1,6532119,False,,הרצלייה,סוקולוב,,6532-119-9,6532/119,18102.04081632653,32.1673352329,34.8467621924,2012
2012-08-21,2012-08-21,"סוקולוב 71, הרצלייה",סוקולוב 71,6532-119-8,דירה בבית קומות,3.0,רביעית,78.0,1587000,,,2012.0,,5.0,8300118314,1,6532119,False,,הרצלייה,סוקולוב,,6532-119-8,6532/119,20346.153846153848,32.1673352329,34.8467621924,2012
2012-08-21,2012-08-21,"סוקולוב 71, הרצלייה",סוקולוב 71,6532-119-7,דירה בבית קומות,3.0,שלישית,78.0,1564000,,,2012.0,,5.0,8300117204,1,6532119,False,,הרצלייה,סוקולוב,,6532-119-7,6532/119,20051.28205128205,32.1673352329,34.8467621924,2012
2012-08-21,2012-08-21,"סוקולוב 71, הרצלייה",סוקולוב 71,6532-119-6,דירה בבית קומות,3.0,שניה,78.0,1541000,,,2012.0,,5.0,8299970610,1,6532119,False,,הרצלייה,סוקולוב,,6532-119-6,6532/119,19756.410256410258,32.1673352329,34.8467621924,2012
2012-08-20,2012-08-20,"סוקולוב 71, הרצלייה",סוקולוב 71,6532-119-5,דירה,4.0,רביעית,98.0,1797950,1.0,SOCOLIFE,2012.0,,5.0,11181280505,1,6532119,False,,הרצלייה,סוקולוב,,6532-119-5,6532/119,18346.42857142857,32.1673352329,34.8467621924,2012
2012-08-20,2012-08-20,"הניצנים 8, הרצלייה",הניצנים 8,6529-257-1,דירה בבית קומות,5.0,ראשונה,115.0,2250000,,,2004.0,,4.0,8299820464,1,6529257,False,,הרצלייה,הניצנים,,6529-257-1,6529/257,19565.217391304348,32.1677075738,34.8391676676,2012
2012-08-20,2012-08-20,"סוקולוב 71, הרצלייה",סוקולוב 71,6532-119-1,דירה,3.0,שניה,78.0,1541100,1.0,SOCOLIFE,2012.0,,5.0,11181280495,1,6532119,False,,הרצלייה,סוקולוב,,6532-119-1,6532/119,19757.69230769231,32.1673352329,34.8467621924,2012
2012-08-20,2012-08-20,"סוקולוב 71, הרצלייה",סוקולוב 71,6532-119-4,דירה,4.0,שלישית,98.0,1774600,1.0,SOCOLIFE,2012.0,,5.0,11181280504,1,6532119,False,,הרצלייה,סוקולוב,,6532-119-4,6532/119,18108.163265306124,32.1673352329,34.8467621924,2012
2012-08-20,2012-08-20,"סוקולוב 71, הרצלייה",סוקולוב 71,6532-119-2,דירה,3.0,שלישית,78.0,1564450,1.0,SOCOLIFE,2012.0,,5.0,11181280501,1,6532119,False,,הרצלייה,סוקולוב,,6532-119-2,6532/119,20057.05128205128,32.1673352329,34.8467621924,2012
2012-08-20,2012-08-20,"פינסקר 14, הרצלייה",פינסקר 14,6529-179-5,דירה בבית קומות,3.0,שלישית,85.0,1385000,,,1975.0,,5.0,8298487132,1,6529179,False,75% ב 5.3 שנים,הרצלייה,פינסקר,14.15,6529-179-5,6529/179,16294.117647058823,32.1679495823,34.8379265913,2012
2012-08-20,2012-08-20,"סוקולוב 71, הרצלייה",סוקולוב 71,6532-119-3,דירה,3.0,רביעית,78.0,1587800,1.0,SOCOLIFE,2012.0,,5.0,11181280503,1,6532119,False,,הרצלייה,סוקולוב,,6532-119-3,6532/119,20356.410256410258,32.1673352329,34.8467621924,2012
2012-08-19,2012-08-19,"בן גוריון 12, הרצלייה",בן גוריון 12,6533-143-15,דירה בבית קומות,2.5,שניה,53.0,1150000,,,1965.0,,5.0,8298369768,1,6533143,False,,הרצלייה,בן גוריון,,6533-143-15,6533/143,21698.11320754717,32.1650914687,34.8423471197,2012
2012-08-19,2012-08-19,"מרבד הקסמים 30, הרצלייה",מרבד הקסמים 30,6541-219-3,קוטג' דו משפחתי,6.0,א+,195.25,3500000,,,1987.0,,2.0,8298529164,1,6541219,False,,הרצלייה,מרבד הקסמים,,6541-219-3,6541/219,17925.736235595392,32.1584392083,34.8504933935,2012
2012-08-19,2012-08-19,"בן-גוריון 15, הרצלייה",בן-גוריון 15,6531-139-16,דירה בבית קומות,5.0,ראשונה,91.08,1197000,,,1970.0,,4.0,8363046804,1,6531139,False,67% ב 10.5 שנים,הרצלייה,בן גוריון,6.38,6531-139-16,6531/139,13142.292490118578,32.1651243601,34.8429065953,2012
2012-08-19,2012-08-19,"האסיף 2, הרצלייה",האסיף 2,6663-272-12,דירה בבית קומות,4.0,שלישית+גג,82.9,1450000,,,1970.0,,3.0,8299342350,1,6663272,False,89% ב 5.7 שנים,הרצלייה,האסיף,15.61,6663-272-12,6663/272,17490.952955367913,32.1800587566,34.8426997613,2012
2012-08-16,2012-08-16,"הרב קוק 10, הרצלייה",הרב קוק 10,6538-206-7,דירה בבית קומות,3.0,שלישית,53.0,1312000,,,1970.0,,3.0,8299615262,1,6538206,False,39% ב 3.3 שנים,הרצלייה,הרב קוק,11.82,6538-206-7,6538/206,24754.716981132075,32.1614817893,34.8414832747,2012
2012-08-16,2012-08-16,"ברנר 40, הרצלייה",ברנר 40,6546-574-4,דירה בבית קומות,4.0,,120.0,3950000,,,2002.0,,1.0,8298404622,1,6546574,False,,הרצלייה,ברנר,,6546-574-4,6546/574,32916.666666666664,32.1572616814,34.8471273723,2012
2012-08-15,2012-08-15,"מוהליבר 9, הרצלייה",מוהליבר 9,6537-223-4,דירה בבית קומות,5.0,שניה,116.0,1620000,,,1980.0,,3.0,8298527240,1,6537223,False,,הרצלייה,מוהליבר,,6537-223-4,6537/223,13965.51724137931,32.1658378512,34.8505642907,2012
2012-08-15,2012-08-15,"העוגן 4, הרצלייה",העוגן 4,6516-16-75,דירת נופש,2.0,שלישית,56.3,1637000,,,2005.0,,6.0,8299650634,1,651616,False,,הרצלייה,העוגן,,6516-16-75,6516/16,29076.37655417407,32.1591960165,34.7947789632,2012
2012-08-15,2012-08-15,"הס 50, הרצלייה",הס 50,6538-665-19,חנות,,קרקע,54.7,1100000,,,1995.0,,4.0,8299713460,1,6538665,False,0% ב 1.4 שנים,הרצלייה,הס,0.0,6538-665-19,6538/665,20109.68921389397,32.1629578179,34.8420169278,2012
2012-08-15,2012-08-15,"המגינים 4, הרצלייה",המגינים 4,6666-29-2,קוטג' דו משפחתי,7.0,קרקע,127.51,4500000,,,1970.0,,1.0,8298888138,1,666629,False,,הרצלייה,המגינים,,6666-29-2,6666/29,35291.3496980629,32.1724568579,34.8142627744,2012
2012-08-14,2012-08-14,"השרון 7, הרצלייה",השרון 7,6533-296-4,דירה בבית קומות,4.0,ראשונה,71.0,1420000,,,2000.0,,5.0,8298565794,1,6533296,False,,הרצלייה,השרון,,6533-296-4,6533/296,20000.0,32.1657735279,34.8394202164,2012
2012-08-14,2012-08-14,"מעפילי מרוקו 28, הרצלייה",מעפילי מרוקו 28,6577-98-4,דירה בבית קומות,2.0,קרקע,28.9,643000,,,1950.0,,2.0,8298585330,1,657798,False,,הרצלייה,מעפילי מרוקו,,6577-98-4,6577/98,22249.13494809689,32.1756798288,34.8543216017,2012
2012-08-13,2012-08-13,"כלנית 1, הרצלייה",כלנית 1,6544-100-14,קוטג' דו משפחתי,6.0,מרתף+קרקע+ראשונה,218.0,4500000,,,1998.0,,,8298308792,1,6544100,False,30% ב 5 שנים,הרצלייה,כלנית,6.0,6544-100-14,6544/100,20642.201834862382,32.1506290471,34.8493067506,2012
2012-08-13,2012-08-13,"הנדיב 17, הרצלייה",הנדיב 17,6529-156-1,דירה בבית קומות,4.0,ראשונה,101.53,2025000,,,1996.0,,3.0,8298115208,1,6529156,False,,הרצלייה,הנדיב,,6529-156-1,6529/156,19944.84388850586,32.1689175994,34.839487824,2012
2012-08-11,2012-11-08,"העוגן 2, הרצלייה",העוגן 2,6516-56-55,מחסנים,,ראשונה,,70000,,,2000.0,,12.0,8302585992,1,651656,False,,הרצלייה,העוגן,,6516-56-55,6516/56,,32.15935782,34.795784469,2012
2012-08-11,2012-11-08,"אחד העם 51, הרצלייה",אחד העם 51,6538-629-18,דירת גג,6.0,שלישית+רביעית,200.94,2795000,,,1991.0,,5.0,8301985260,1,6538629,False,54% ב 5.5 שנים,הרצלייה,אחד העם,9.82,6538-629-18,6538/629,13909.624763611027,32.1636057191,34.8463607546,2012
2012-08-08,2012-08-08,"לוי אשכול 41, הרצלייה",לוי אשכול 41,6517-323-4,קוטג' חד משפחתי,5.0,,168.0,8093000,,,1979.0,,1.0,8299036434,1,6517323,False,,הרצלייה,לוי אשכול,,6517-323-4,6517/323,48172.619047619046,32.1694381527,34.805594699,2012
2012-08-08,2012-08-08,"חובבי ציון 9, הרצלייה",חובבי ציון 9,6546-244-1,קוטג' דו משפחתי,6.0,קרקע וראשונה + גג,144.6,2930000,,,1972.0,,,8297825868,1,6546244,False,,הרצלייה,חובבי ציון,,6546-244-1,6546/244,20262.7939142462,32.1560212692,34.840640257,2012
2012-08-08,2012-08-08,"חבצלת השרון 56, הרצלייה",חבצלת השרון 56,6668-702-1,קוטג' חד משפחתי,8.0,שניה,342.0,14000000,,,1962.0,,1.0,8295936870,1,6668702,False,,הרצלייה,חבצלת השרון,,6668-702-1,6668/702,40935.67251461988,32.1774105122,34.8037029574,2012
2012-08-07,2012-07-08,"גלגל הפלדה 11, הרצלייה",גלגל הפלדה 11,6420-27-12,משרד,,,195.0,2223000,,,1995.0,,4.0,8296652524,1,642027,False,,הרצלייה,גלגל הפלדה,,6420-27-12,6420/27,11400.0,32.164093499,34.8077497965,2012
2012-08-07,2012-07-08,"הר סיני 5, הרצלייה",הר סיני 5,6577-73-2,חנות,,קרקע,24.69,303000,,,1960.0,,,8298756196,1,657773,False,,הרצלייה,הר סיני,,6577-73-2,6577/73,12272.17496962333,32.1738105016,34.8533130443,2012
2012-08-07,2012-07-08,"בר-אילן 51, הרצלייה",בר-אילן 51,6535-118-6,דירה בבית קומות,2.0,שניה,44.8,1170000,,,1959.0,,2.0,8296408324,1,6535118,False,,הרצלייה,בר אילן,,6535-118-6,6535/118,26116.07142857143,32.1631291885,34.8376920085,2012
2012-08-07,2012-07-08,"הס 25, הרצלייה",הס 25,6538-327-8,דירה בבית קומות,3.0,שניה,62.0,1150000,,,1967.0,,3.0,8296319080,1,6538327,False,18% ב 3 שנים,הרצלייה,הס,6.0,6538-327-8,6538/327,18548.387096774197,32.1640852784,34.8418502691,2012
2012-08-06,2012-06-08,"כיבוש העבודה 13, הרצלייה",כיבוש העבודה 13,6536-260-7,קוטג' דו משפחתי,5.5,שלישית+גג,127.0,2500000,,,1990.0,,3.0,8296257512,1,6536260,False,,הרצלייה,כבוש העבודה,,6536-260-7,6536/260,19685.03937007874,32.1717997764,34.8434787005,2012
2012-08-06,2012-06-08,"אריה בן-אליעזר 36, הרצלייה",אריה בן-אליעזר 36,6668-954-1,דירה בבית קומות,6.0,,398.0,16304000,,,1984.0,,,8295281378,1,6668954,False,,הרצלייה,בן אליעזר אריה,,6668-954-1,6668/954,40964.82412060301,32.1752333296,34.8074037871,2012
2012-08-05,2012-05-08,"הרב קוק 29, הרצלייה",הרב קוק 29,6538-687-7,דירה בבית קומות,5.0,שלישית,111.98,1950000,,,2012.0,,4.0,8294587776,1,6538687,False,,הרצלייה,הרב קוק,,6538-687-7,6538/687,17413.823897124486,32.1612250089,34.8394787508,2012
2012-08-03,2012-03-08,"אליהו גולומב 66, הרצלייה",אליהו גולומב 66,6536-806-1,קוטג' דו משפחתי,5.0,מרתף+קרקע+ראשונה+שני,154.5,2900000,,,1980.0,,,8291836308,1,6536806,False,,הרצלייה,גולומב אליהו,,6536-806-1,6536/806,18770.22653721683,32.1735264098,34.8474399779,2012
2012-08-03,2012-03-08,"הנוטרים 10, הרצלייה",הנוטרים 10,6537-181-7,דירה בבית קומות,3.0,שניה,77.3,1095000,,,1980.0,,3.0,8293852068,1,6537181,False,,הרצלייה,הנוטרים,,6537-181-7,6537/181,14165.588615782666,32.1668317692,34.850402231,2012
2012-08-02,2012-02-08,"יל""ג 9, הרצלייה","יל""ג 9",6530-159-41,דירה בבית קומות,3.0,שלישית,71.0,1325000,,,2024.0,,6.0,8290332554,1,6530159,False,,הרצלייה,"יל""ג",,6530-159-41,6530/159,18661.97183098592,32.1688223282,34.8434662762,2012
2012-08-01,2012-01-08,"אליהו גולומב 69, הרצלייה",אליהו גולומב 69,6536-922-18,דירה בבית קומות,5.0,שניה,104.0,2550000,,,2000.0,,5.0,8288674954,1,6536922,False,,הרצלייה,גולומב אליהו,,6536-922-18,6536/922,24519.23076923077,32.174354203,34.8496004505,2012
2012-07-31,2012-07-31,"ברנר 10, הרצלייה",ברנר 10,6546-636-7,דירה בבית קומות,4.0,שניה,102.27,2080000,,,1995.0,,3.0,8297621332,1,6546636,False,,הרצלייה,ברנר,,6546-636-7,6546/636,20338.320132981324,32.1569618897,34.8433408318,2012
2012-07-31,2012-07-31,"שמאי 4, הרצלייה",שמאי 4,6535-96-16,דירה בבית קומות,3.0,רביעית,54.2,1075000,,,1970.0,,4.0,8297772070,1,653596,False,23% ב 3.8 שנים,הרצלייה,שמאי,6.05,6535-96-16,6535/96,19833.948339483395,32.1634380604,34.8367074142,2012
2012-07-31,2012-07-31,"כ""ט בנובמבר 6, הרצלייה","כ""ט בנובמבר 6",6530-102-5,דירה בבית קומות,4.0,רביעית,120.0,1970000,1.0,,1970.0,2012.0,5.0,8298446654,1,6530102,False,,הרצלייה,"כ""ט בנובמבר",,6530-102-5,6530/102,16416.666666666668,32.1701950163,34.8426316466,2012
2012-07-31,2012-07-31,"הרב גורן 3, הרצלייה",הרב גורן 3,6540-105-37,דירה בבית קומות,5.0,שלישית,124.0,2165000,,,1996.0,,7.0,8297768444,1,6540105,False,41% ב 2.9 שנים,הרצלייה,הרב גורן,14.14,6540-105-37,6540/105,17459.677419354837,32.1643659364,34.8522769622,2012
2012-07-31,2012-07-31,"הנוריות 29, הרצלייה",הנוריות 29,6518-91-1,קוטג' חד משפחתי,6.0,,300.0,6350000,,,1974.0,,,8297665288,1,651891,False,,הרצלייה,הנוריות,,6518-91-1,6518/91,21166.666666666668,32.166312795,34.8067978847,2012
2012-07-30,2012-07-30,"קהילת ציון 9, הרצלייה",קהילת ציון 9,6537-82-4,דירה בבית קומות,3.0,שניה,55.0,1330000,,,1960.0,,3.0,8297622516,1,653782,False,98% ב 12.7 שנים,הרצלייה,קהילת ציון,7.72,6537-82-4,6537/82,24181.81818181818,32.1659457172,34.8489290892,2012
2012-07-30,2012-07-30,"קהילת ציון 17, הרצלייה",קהילת ציון 17,6537-86-5,דירה בבית קומות,5.0,שלישית+גג,104.0,1550000,,,1970.0,,3.0,8297664696,1,653786,False,,הרצלייה,קהילת ציון,,6537-86-5,6537/86,14903.846153846154,32.1652967034,34.8489077198,2012
2012-07-30,2012-07-30,"אוריאל אופק 8, הרצלייה",אוריאל אופק 8,6524-89-6,דירה בבית קומות,5.0,ארבע עשרה,250.0,6275000,,,2012.0,,2.0,8298865568,1,652489,False,,הרצלייה,אופק אוריאל,,6524-89-6,6524/89,25100.0,32.1738246019,34.8310883665,2012
2012-07-30,2012-07-30,"אבן גבירול 42, הרצלייה",אבן גבירול 42,6527-374-11,דירה בבית קומות,4.0,שניה,72.5,1340000,,,1970.0,,4.0,8297923474,1,6527374,False,56% ב 4.1 שנים,הרצלייה,אבן גבירול,13.66,6527-374-11,6527/374,18482.758620689656,32.1644470995,34.8335409222,2012
2012-07-30,2012-07-30,"בית""ר 19, הרצלייה","בית""ר 19",6542-26-3,קוטג' דו משפחתי,8.0,,285.0,5850000,,,1985.0,,2.0,8298163974,1,654226,False,,הרצלייה,"בית""ר",,6542-26-3,6542/26,20526.315789473683,32.159032142,34.8508240688,2012
2012-07-29,2012-07-29,"הנדיב 59, הרצלייה",הנדיב 59,6527-308-32,דירה בבית קומות,3.0,רביעית,54.2,1143000,,,1970.0,,4.0,8297649452,1,6527308,False,47% ב 3.9 שנים,הרצלייה,הנדיב,12.05,6527-308-32,6527/308,21088.56088560885,32.1701482735,34.8342689393,2012
2012-07-27,2012-07-27,"האילנות 27, הרצלייה",האילנות 27,6663-295-18,דירה בבית קומות,5.0,רביעית,129.0,1921000,,,1970.0,2012.0,4.0,8298441844,1,6663295,False,,הרצלייה,האילנות,,6663-295-18,6663/295,14891.472868217052,32.1787958119,34.8436281917,2012
2012-07-26,2012-07-26,"יהודה הלוי 32, הרצלייה",יהודה הלוי 32,6527-290-6,דירה בבית קומות,4.0,שלישית,76.0,1450000,,,2020.0,,3.0,8297998584,1,6527290,False,125% ב 8.5 שנים,הרצלייה,יהודה הלוי,14.71,6527-290-6,6527/290,19078.947368421053,32.1675444723,34.8352018023,2012
2012-07-26,2012-07-26,"רחל המשוררת 2, הרצלייה",רחל המשוררת 2,6524-83-24,דירה בבית קומות,5.0,,125.0,2800000,,,2012.0,,6.0,8299258138,1,652483,False,,הרצלייה,רחל המשוררת,,6524-83-24,6524/83,22400.0,32.1735019699,34.8318399048,2012
2012-07-25,2012-07-25,"רחל המשוררת 2, הרצלייה",רחל המשוררת 2,6524-83-15,דירה,5.0,חמישית,133.0,2800000,1.0,מגדלי אפולוניה - בנין C,2012.0,,6.0,11181280097,1,652483,False,,הרצלייה,רחל המשוררת,,6524-83-15,6524/83,21052.63157894737,32.1735019699,34.8318399048,2012
2012-07-25,2012-07-25,"יבניאלי 2, הרצלייה",יבניאלי 2,6531-108-7,דירה בבית קומות,3.0,שניה,56.36,1272000,,,1970.0,,3.0,8298269054,1,6531108,False,,הרצלייה,יבניאלי,,6531-108-7,6531/108,22569.198012775018,32.1650752111,34.8447355788,2012
2012-07-24,2012-07-24,"צמרות 10, הרצלייה",צמרות 10,6545-38-36,דירה בבית קומות,4.5,שמינית,118.0,2650000,,,2000.0,,29.0,8298197718,1,654538,False,,הרצלייה,צמרות,,6545-38-36,6545/38,22457.627118644068,32.1514074582,34.8458200181,2012
2012-07-23,2012-07-23,"שמאי 6, הרצלייה",שמאי 6,6535-97-4,דירה בבית קומות,3.0,ראשונה,54.2,1275000,,,1970.0,,4.0,8297290478,1,653597,False,76% ב 9.7 שנים,הרצלייה,שמאי,7.84,6535-97-4,6535/97,23523.9852398524,32.1633691083,34.8364887987,2012
2012-07-22,2012-07-22,"רחל המשוררת 2, הרצלייה",רחל המשוררת 2,6524-83-25,דירה בבית קומות,5.0,ראשונה,125.0,3200000,,,2012.0,,6.0,8298401514,1,652483,False,,הרצלייה,רחל המשוררת,,6524-83-25,6524/83,25600.0,32.1735019699,34.8318399048,2012
2012-07-22,2012-07-22,"משה שמיר 2, הרצלייה",משה שמיר 2,6526-329-5,דירה בבית קומות,4.0,ראשונה,96.7,2650000,,,2010.0,,2.0,8297482138,1,6526329,False,22% ב 2.5 שנים,הרצלייה,שמיר משה,8.8,6526-329-5,6526/329,27404.343329886244,32.1754595396,34.8400257674,2012
2012-07-22,2012-07-22,"בן יהודה 70, הרצלייה",בן יהודה 70,6546-505-2,דירה בבית קומות,3.0,ראשונה,53.0,1175000,,,1970.0,,4.0,8297371064,1,6546505,False,,הרצלייה,בן יהודה,,6546-505-2,6546/505,22169.81132075472,32.1565310088,34.8450797051,2012
2012-07-22,2012-07-22,"הס 50, הרצלייה",הס 50,6538-665-56,חנות,,רביעית,39.81,550000,,,1995.0,,4.0,8297594470,1,6538665,False,,הרצלייה,הס,,6538-665-56,6538/665,13815.624215021351,32.1629578179,34.8420169278,2012
2012-07-21,2012-07-21,"ח""ן 4, הרצלייה","ח""ן 4",6531-74-8,דירה,4.0,,90.0,1780000,1.0,,2013.0,,,11181280486,1,653174,False,,הרצלייה,"ח""ן",,6531-74-8,6531/74,19777.777777777777,32.1682174173,34.8436911374,2012
2012-07-21,2012-07-21,"רחל המשוררת 2, הרצלייה",רחל המשוררת 2,6524-83-14,דירה,5.0,ראשונה,145.0,3200000,1.0,מגדלי אפולוניה - בנין C,2012.0,,6.0,11181280096,1,652483,False,,הרצלייה,רחל המשוררת,,6524-83-14,6524/83,22068.96551724138,32.1735019699,34.8318399048,2012
2012-07-20,2012-07-20,"בני בנימין 9, הרצלייה",בני בנימין 9,6528-61-5,דירה בבית קומות,3.0,שניה,71.0,1301000,,,1970.0,,3.0,8297681272,1,652861,False,79% ב 6.9 שנים,הרצלייה,בני בנימין,11.45,6528-61-5,6528/61,18323.943661971836,32.1712204206,34.8393104513,2012
2012-07-20,2012-07-20,"התנאים 1, הרצלייה",התנאים 1,6546-772-29,דירה בבית קומות,4.5,שמינית,119.0,2425000,,,1985.0,,9.0,8297598170,1,6546772,False,97% ב 9.9 שנים,הרצלייה,התנאים,9.8,6546-772-29,6546/772,20378.1512605042,32.1529614485,34.8408514756,2012
2012-07-19,2012-07-19,"משה שמיר 2, הרצלייה",משה שמיר 2,6526-329-15,דירה בבית קומות,5.0,שניה,142.6,3800000,,,2010.0,,2.0,8297740472,1,6526329,False,,הרצלייה,שמיר משה,,6526-329-15,6526/329,26647.96633941094,32.1754595396,34.8400257674,2012
2012-07-19,2012-07-19,"איילת חן 4, הרצלייה",איילת חן 4,6526-222-20,דירת גג,6.0,חמישית+גג,141.0,3550000,,,1997.0,,5.0,8297712352,1,6526222,False,,הרצלייה,איילת חן,,6526-222-20,6526/222,25177.30496453901,32.1709573017,34.8346417473,2012
2012-07-18,2012-07-18,"הרב קוק 33, הרצלייה",הרב קוק 33,6538-522-9,דירה בבית קומות,4.0,שלישית,82.0,1585000,,,1982.0,,4.0,8297289886,1,6538522,False,,הרצלייה,הרב קוק,,6538-522-9,6538/522,19329.26829268293,32.1613378452,34.8386820039,2012
2012-07-18,2012-07-18,"שוידלסון 5, הרצלייה",שוידלסון 5,6538-547-54,דירה בבית קומות,5.0,שישית,137.2,1650000,,,1985.0,,10.0,8297452242,1,6538547,False,67% ב 7.1 שנים,הרצלייה,שוידלסון,9.44,6538-547-54,6538/547,12026.239067055394,32.161491163,34.8429825762,2012
2012-07-18,2012-07-18,"אנפה 10, הרצלייה",אנפה 10,6540-83-10,דירה בבית קומות,5.5,רביעית,136.2,2400000,,,1988.0,,2.0,8297679940,1,654083,False,33% ב 2.1 שנים,הרצלייה,אנפה,15.71,6540-83-10,6540/83,17621.14537444934,32.164101333,34.8495011666,2012
2012-07-18,2012-07-18,"המדרון 11, הרצלייה",המדרון 11,6520-143-1,דירת גן,5.0,קרקע,108.2,2640000,,,2008.0,,3.0,8297527944,1,6520143,False,58% ב 5.9 שנים,הרצלייה,המדרון,9.83,6520-143-1,6520/143,24399.260628465803,32.1689204711,34.8150748158,2012
2012-07-17,2012-07-17,"הירדן 8, הרצלייה",הירדן 8,6536-547-4,דירה בבית קומות,3.0,שניה,63.56,1570000,,,1970.0,,3.0,8297946784,1,6536547,False,,הרצלייה,הירדן,,6536-547-4,6536/547,24701.069855254875,32.1700452397,34.8505568046,2012
2012-07-17,2012-07-17,"אוריאל אופק 3, הרצלייה",אוריאל אופק 3,6524-85-47,דירה בבית קומות,4.0,שישית,122.1,2873000,,,2006.0,,8.0,8297696960,1,652485,False,37% ב 4.4 שנים,הרצלייה,אופק אוריאל,8.41,6524-85-47,6524/85,23529.89352989353,32.174726604,34.8318566653,2012
2012-07-16,2012-07-16,"נתן אלתרמן 19, הרצלייה",נתן אלתרמן 19,6526-291-12,דירה בבית קומות,5.0,שלישית,111.6,2530000,,,2002.0,,6.0,8297084758,1,6526291,False,74% ב 9.2 שנים,הרצלייה,אלתרמן נתן,8.04,6526-291-12,6526/291,22670.25089605735,32.1741042103,34.8380769688,2012
2012-07-16,2012-07-16,"נורדאו 2, הרצלייה",נורדאו 2,6520-90-9,חנות,,קרקע,40.54,470000,,,1970.0,,10.0,8297241712,1,652090,False,23% ב 9.5 שנים,הרצלייה,נורדאו,2.42,6520-90-9,6520/90,11593.487913172175,32.1679979474,34.8155423986,2012
2012-07-15,2012-07-15,"כלנית 12, הרצלייה",כלנית 12,6544-90-2,קוטג' דו משפחתי,5.0,"מרתף,קרקע,ראשונה",185.61,3580000,,,1980.0,,3.0,8296803262,1,654490,False,,הרצלייה,כלנית,,6544-90-2,6544/90,19287.753892570443,32.1503419788,34.8479395933,2012
2012-07-14,2012-07-14,"לוי אשכול 2, הרצלייה",לוי אשכול 2,6668-1243-1,קוטג' חד משפחתי,5.0,,205.0,6000000,,,1980.0,,1.0,8297819134,1,66681243,False,,הרצלייה,לוי אשכול,,6668-1243-1,6668/1243,29268.29268292683,32.1723880865,34.8062421971,2012
2012-07-14,2012-07-14,"זוהר טל 37, הרצלייה",זוהר טל 37,6668-995-16,דירה בבית קומות,2.0,ראשונה,41.42,1100000,,,1972.0,,5.0,8296844776,1,6668995,False,,הרצלייה,זהר טל,,6668-995-16,6668/995,26557.21873491067,32.1707031396,34.8031405165,2012
2012-07-11,2012-11-07,"שרעבי 15, הרצלייה",שרעבי 15,6672-123-2,קוטג' דו משפחתי,3.0,קרקע,76.55,2635000,,,1948.0,,,8302157458,1,6672123,False,,הרצלייה,שרעבי,,6672-123-2,6672/123,34421.946440235144,32.1843334886,34.8373476813,2012
2012-07-11,2012-11-07,"כ""ט בנובמבר 6, הרצלייה","כ""ט בנובמבר 6",6530-102-9,דירה,4.0,רביעית,117.23,1940000,1.0,,1970.0,2012.0,5.0,8303078018,1,6530102,False,,הרצלייה,"כ""ט בנובמבר",,6530-102-9,6530/102,16548.66501748699,32.1701950163,34.8426316466,2012
2012-07-11,2012-11-07,"פלמ""ח 7, הרצלייה","פלמ""ח 7",6536-577-2,דירה בבית קומות,4.0,ראשונה,94.5,1535000,,,1970.0,,3.0,8303153054,1,6536577,False,,הרצלייה,"פלמ""ח",,6536-577-2,6536/577,16243.386243386243,32.1695673174,34.8447831252,2012
2012-07-10,2012-10-07,"הרצוג 3, הרצלייה",הרצוג 3,6532-271-10,דירה בבית קומות,4.0,שלישית,84.14,1000000,,,2020.0,,5.0,8300498674,1,6532271,False,,הרצלייה,הרצוג,,6532-271-10,6532/271,11884.95364868077,32.1684289805,34.847077324,2012
2012-07-08,2012-08-07,"כ""ט בנובמבר 6, הרצלייה","כ""ט בנובמבר 6",6530-102-11,דירת גג (פנטהאוז),5.0,חמישית,150.89,2980000,1.0,,1970.0,2012.0,5.0,8298449170,1,6530102,False,,הרצלייה,"כ""ט בנובמבר",,6530-102-11,6530/102,19749.48638080721,32.1701950163,34.8426316466,2012
2012-07-08,2012-08-07,"ברנר 3, הרצלייה",ברנר 3,6546-63-2,קוטג' דו משפחתי,7.0,,310.0,7520000,,,2010.0,,1.0,8298006502,1,654663,False,,הרצלייה,ברנר,,6546-63-2,6546/63,24258.064516129038,32.1573988936,34.8429681439,2012
2012-07-08,2012-08-07,"סוקולוב 78, הרצלייה",סוקולוב 78,6537-207-16,חנות,,שניה,56.0,520000,,,1970.0,,19.0,8298987594,1,6537207,False,,הרצלייה,סוקולוב,,6537-207-16,6537/207,9285.714285714286,32.1668987349,34.8497162102,2012
2012-07-08,2012-08-07,"הרב קוק 49, הרצלייה",הרב קוק 49,6535-152-14,דירה בבית קומות,5.0,שלישית+קומת גג,155.81,2300000,,,1989.0,,3.0,8298285630,1,6535152,False,,הרצלייה,הרב קוק,,6535-152-14,6535/152,14761.56857711315,32.1617023082,34.8356026502,2012
2012-07-08,2012-08-07,"בן-יהודה 68, הרצלייה",בן-יהודה 68,6546-504-6,דירה בבית קומות,3.0,שניה,53.0,1100000,,,1970.0,,4.0,8298033438,1,6546504,False,72% ב 8.2 שנים,הרצלייה,בן יהודה,8.78,6546-504-6,6546/504,20754.716981132075,32.1567254406,34.8453383455,2012
2012-07-06,2012-06-07,"זלמן שניאור 4, הרצלייה",זלמן שניאור 4,6529-235-4,דירה בבית קומות,4.0,שניה,101.36,2230000,,,1994.0,,4.0,8295264802,1,6529235,False,,הרצלייה,שניאור זלמן,,6529-235-4,6529/235,22000.78926598264,32.1705607265,34.8369344268,2012
2012-07-06,2012-06-07,"חנה סנש 25, הרצלייה",חנה סנש 25,6424-151-6,דירה בבית קומות,5.0,שניה,128.67,1935000,,,1998.0,,7.0,8296545520,1,6424151,False,68% ב 13.2 שנים,הרצלייה,סנש חנה,5.15,6424-151-6,6424/151,15038.470505945445,32.1586925243,34.8389299183,2012
2012-07-06,2012-06-07,"מרזוק 10, הרצלייה",מרזוק 10,6577-206-6,דירה בבית קומות,3.0,שניה,72.8,950000,,,1970.0,,4.0,8295365072,1,6577206,False,,הרצלייה,מרזוק,,6577-206-6,6577/206,13049.45054945055,32.177884438,34.8524542274,2012
2012-07-06,2012-06-07,"עולי בבל 1, הרצלייה",עולי בבל 1,6527-423-21,מחסנים,,קרקע+ראשונה,190.35,80000,,,1960.0,,2.0,8295432042,1,6527423,False,100% ב 0.9 שנים,הרצלייה,עולי בבל,111.11,6527-423-21,6527/423,420.2784344628316,32.168640304,34.8334734866,2012
2012-07-06,2012-06-07,"סוקולוב 63, הרצלייה",סוקולוב 63,6532-170-12,דירה בבית קומות,2.0,שניה,59.0,955000,,,1970.0,,4.0,8295362556,1,6532170,False,,הרצלייה,סוקולוב,,6532-170-12,6532/170,16186.440677966102,32.1673790608,34.8459286211,2012
2012-07-05,2012-05-07,"צמרות 10, הרצלייה",צמרות 10,6545-38-45,דירה בבית קומות,5.5,עשירית,143.8,3200000,,,2000.0,,29.0,8295814252,1,654538,False,,הרצלייה,צמרות,,6545-38-45,6545/38,22253.129346314323,32.1514074582,34.8458200181,2012
2012-07-05,2012-05-07,"יהודה הנשיא 73, הרצלייה",יהודה הנשיא 73,6544-21-4,קוטג' דו משפחתי,6.0,מרתף+קרקע+ראשונה,182.3,3537000,,,1984.0,,3.0,8294529168,1,654421,False,,הרצלייה,יהודה הנשיא,,6544-21-4,6544/21,19402.084476138232,32.1532225499,34.8479277598,2012
2012-07-03,2012-03-07,"שמעוני דוד 4, הרצלייה",שמעוני דוד 4,6526-190-29,דירה בבית קומות,5.0,ראשונה,116.0,2060000,,,1993.0,,5.0,8292280826,1,6526190,False,,הרצלייה,שמעוני דוד,,6526-190-29,6526/190,17758.620689655174,32.1706282161,34.8354181619,2012
2012-07-03,2012-03-07,"האתרוג 10, הרצלייה",האתרוג 10,6663-243-5,קוטג' דו משפחתי,5.0,מרתף+קרקע+ראשונה+גג,201.81,2880000,,,1979.0,,,8291287450,1,6663243,False,,הרצלייה,האתרוג,,6663-243-5,6663/243,14270.848818195333,32.1769179469,34.8492390574,2012
2012-07-03,2012-03-07,"אלכסנדר סולץ 12, הרצלייה",אלכסנדר סולץ 12,6536-597-1,דירה בבית קומות,3.0,ראשונה,68.5,1200000,,,1980.0,,4.0,8291527950,1,6536597,False,,הרצלייה,סולץ אלכסנדר,,6536-597-1,6536/597,17518.24817518248,32.1704827296,34.8471047398,2012
2012-07-03,2012-03-07,"זלמן שניאור 17, הרצלייה",זלמן שניאור 17,6526-296-12,דירה בבית קומות,5.0,ראשונה,116.9,2790000,,,2003.0,,5.0,8291755648,1,6526296,False,,הרצלייה,שניאור זלמן,,6526-296-12,6526/296,23866.552609067578,32.1725107119,34.8374712142,2012
2012-07-02,2012-02-07,"הזוהר 7, הרצלייה",הזוהר 7,6540-43-8,דירה בבית קומות,5.0,שלישית,125.0,3300000,,,1971.0,2009.0,3.0,8290231100,1,654043,False,,הרצלייה,הזוהר,,6540-43-8,6540/43,26400.0,32.1619057061,34.8521243745,2012
2012-07-02,2012-02-07,"העוגן 4, הרצלייה",העוגן 4,6516-16-153,דירת נופש,2.0,שנייה,56.3,1200000,,,2005.0,,6.0,8291581008,1,651616,False,,הרצלייה,העוגן,,6516-16-153,6516/16,21314.387211367677,32.1591960165,34.7947789632,2012
2012-06-28,2012-06-28,"הנדיב 11, הרצלייה",הנדיב 11,6529-185-1,דירה בבית קומות,4.0,ראשונה,87.0,1480000,,,1970.0,,3.0,8296035216,1,6529185,False,,הרצלייה,הנדיב,,6529-185-1,6529/185,17011.494252873563,32.1680152595,34.8396330371,2012
2012-06-28,2012-06-28,"סירקין 36, הרצלייה",סירקין 36,6532-286-6,דירה בבית קומות,3.0,שלישית,63.0,1200000,,,1970.0,,3.0,8296286224,1,6532286,False,,הרצלייה,סירקין,,6532-286-6,6532/286,19047.61904761905,32.1662133073,34.8479451012,2012
2012-06-28,2012-06-28,"מלכי ישראל 7, הרצלייה",מלכי ישראל 7,6528-36-1,דירה בבית קומות,4.0,ראשונה,106.0,1750000,,,1990.0,,3.0,8296735478,1,652836,False,,הרצלייה,מלכי ישראל,,6528-36-1,6528/36,16509.43396226415,32.1707823293,34.8411396026,2012
2012-06-28,2012-06-28,"מדינת היהודים 12, הרצלייה",מדינת היהודים 12,6517-14-52,דירה בבית קומות,4.0,"שמינית,תשיעית",90.2,7095000,,,1980.0,,9.0,8297186064,1,651714,False,101% ב 7.8 שנים,הרצלייה,מדינת היהודים,12.95,6517-14-52,6517/14,78658.53658536584,32.1682137039,34.8016998765,2012
2012-06-28,2012-06-28,"יבנאלי 4, הרצלייה",יבנאלי 4,6531-107-1,דירה בבית קומות,4.0,ראשונה,79.3,1290000,,,1970.0,,4.0,8296443622,1,6531107,False,,הרצלייה,יבניאלי,,6531-107-1,6531/107,16267.339218158892,32.1653092333,34.8447462124,2012
2012-06-28,2012-06-28,"יהושע בן-נון 48, הרצלייה",יהושע בן-נון 48,6419-53-49,דירה בבית קומות,5.0,רביעית,129.0,2580000,,,1970.0,,9.0,8296062744,1,641953,False,,הרצלייה,יהושע בן נון,,6419-53-49,6419/53,20000.0,32.1640161787,34.8047617843,2012
2012-06-28,2012-06-28,"הגבורה 11, הרצלייה",הגבורה 11,6668-509-2,קוטג' דו משפחתי,5.0,קרקע ראשונה,226.41,13205000,,,1996.0,,,8296460790,1,6668509,False,20% ב 5.2 שנים,הרצלייה,הגבורה,3.85,6668-509-2,6668/509,58323.39560973455,32.1718483223,34.8035640582,2012
2012-06-28,2012-06-28,"אבן שפרוט 27, הרצלייה",אבן שפרוט 27,6527-220-1,דירה בבית קומות,3.0,ראשונה,52.0,870000,,,1960.0,,3.0,8296667620,1,6527220,False,61% ב 12.5 שנים,הרצלייה,אבן שפרוט,4.88,6527-220-1,6527/220,16730.76923076923,32.1661109295,34.8329940444,2012
2012-06-27,2012-06-27,"ברנר 1, הרצלייה",ברנר 1,6546-64-2,חנות,,ראשונה,41.15,300000,,,1960.0,,2.0,8297239788,1,654664,False,,הרצלייה,ברנר,,6546-64-2,6546/64,7290.400972053463,32.1573276143,34.842651277,2012
2012-06-27,2012-06-27,"ברוך 57, הרצלייה",ברוך 57,6536-609-6,דירה בבית קומות,5.0,שלישית,105.5,2200000,,,1978.0,,3.0,8296663920,1,6536609,False,,הרצלייה,ברוך,,6536-609-6,6536/609,20853.08056872038,32.1694344957,34.845583764,2012
2012-06-26,2012-06-26,"שמואל הנגיד 11, הרצלייה",שמואל הנגיד 11,6534-201-53,דירה בבית קומות,5.0,חמישית,150.45,3940000,,,2008.0,,5.0,8295988892,1,6534201,False,,הרצלייה,שמואל הנגיד,,6534-201-53,6534/201,26188.102359587905,32.1654487776,34.8350582116,2012
2012-06-26,2012-06-26,"קדושי השואה 51, הרצלייה",קדושי השואה 51,6517-376-1,קוטג' חד משפחתי,7.0,,220.0,16277000,,,1983.0,,,8297866198,1,6517376,False,,הרצלייה,קדושי השואה,,6517-376-1,6517/376,73986.36363636363,32.1697832081,34.8050361842,2012
2012-06-26,2012-06-26,"העוגן 2, הרצלייה",העוגן 2,6516-56-58,מחסנים,,ראשונה,,80000,,,2000.0,,12.0,8296836858,1,651656,False,,הרצלייה,העוגן,,6516-56-58,6516/56,,32.15935782,34.795784469,2012
2012-06-26,2012-06-26,"הרב קוק 38, הרצלייה",הרב קוק 38,6535-135-62,דירה בבית קומות,3.0,רביעית,67.2,1055000,,,1970.0,,4.0,8295825278,1,6535135,False,,הרצלייה,הרב קוק,,6535-135-62,6535/135,15699.40476190476,32.1623134155,34.8370836541,2012
2012-06-26,2012-06-26,"הגדוד העברי 23, הרצלייה",הגדוד העברי 23,6536-745-2,דירה בבית קומות,5.0,"מרתף,קרקע,ראשונה",175.52,3725000,,,1981.0,,3.0,8295953446,1,6536745,False,,הרצלייה,הגדוד העברי,,6536-745-2,6536/745,21222.652689152237,32.1743653559,34.8442817161,2012
2012-06-26,2012-06-26,"פנחס רוזן 32, הרצלייה",פנחס רוזן 32,6521-51-8,דירת גן,6.0,קרקע תחתו ראשו ושניה,198.89,1760000,,,1985.0,,2.0,8297056046,1,652151,False,30% ב 9.7 שנים,הרצלייה,רוזן פנחס,3.09,6521-51-8,6521/51,8849.112574790086,32.1656760648,34.8166283306,2012
2012-06-26,2012-06-26,"אריה לייב יפה 47, הרצלייה",אריה לייב יפה 47,6536-761-9,דירה בבית קומות,5.0,חמישית,130.0,2600000,1.0,לייב יפה 47 הרצליה,2013.0,,4.0,8295891212,1,6536761,False,280% ב 9.2 שנים,הרצלייה,יפה אריה לייב,30.43,6536-761-9,6536/761,20000.0,32.171055234,34.8490836875,2012
2012-06-25,2012-06-25,"ברוך 21, הרצלייה",ברוך 21,6536-445-6,דירה בבית קומות,4.0,שניה,81.0,1800000,,,1975.0,,3.0,8295748984,1,6536445,False,94% ב 5.5 שנים,הרצלייה,ברוך,17.09,6536-445-6,6536/445,22222.222222222223,32.1694286913,34.8505908552,2012
2012-06-24,2012-06-24,"רמב""ם 8, הרצלייה","רמב""ם 8",6538-105-6,דירה בבית קומות,2.0,שניה,45.0,970000,,,1960.0,,2.0,8295916816,1,6538105,False,,הרצלייה,"רמב""ם",,6538-105-6,6538/105,21555.555555555555,32.1633234128,34.8434245534,2012
2012-06-24,2012-06-24,"מלכי יהודה 26, הרצלייה",מלכי יהודה 26,6536-896-10,דירה בבית קומות,3.0,שלישית,97.39,1790000,,,1992.0,,4.0,8295804410,1,6536896,False,,הרצלייה,מלכי יהודה,,6536-896-10,6536/896,18379.71044255057,32.1728484691,34.8428429225,2012
2012-06-21,2012-06-21,"רביבים 15, הרצלייה",רביבים 15,6577-54-40,דירה בבית קומות,2.0,שניה,39.83,820000,,,1960.0,,3.0,8295887512,1,657754,False,,הרצלייה,רביבים,,6577-54-40,6577/54,20587.496861662064,32.1726079137,34.8526548833,2012
2012-06-21,2012-06-21,"סוקולוב 78, הרצלייה",סוקולוב 78,6537-207-18,חנות,,שניה,28.0,490000,,,1970.0,,19.0,8296925954,1,6537207,False,100% ב 0.4 שנים,הרצלייה,סוקולוב,250.0,6537-207-18,6537/207,17500.0,32.1668987349,34.8497162102,2012
2012-06-21,2012-06-21,"מלכי יהודה 24, הרצלייה",מלכי יהודה 24,6536-894-21,דירה בבית קומות,4.0,שניה,113.39,2270000,,,1994.0,,4.0,8296196388,1,6536894,False,,הרצלייה,מלכי יהודה,,6536-894-21,6536/894,20019.40206367405,32.1721008542,34.8427769301,2012
2012-06-21,2012-06-21,"פנחס רוזן 3, הרצלייה",פנחס רוזן 3,6521-29-5,דירה בבית קומות,5.0,רביעית+חמישית,183.29,3000000,,,1995.0,,3.0,8295620742,1,652129,False,,הרצלייה,רוזן פנחס,,6521-29-5,6521/29,16367.50504664739,32.1649309334,34.8156736874,2012
2012-06-20,2012-06-20,"האשל 51, הרצלייה",האשל 51,6669-58-2,קוטג' דו משפחתי,9.0,,900.0,45721000,,,1970.0,2009.0,2.0,8296034624,1,666958,False,,הרצלייה,האשל,,6669-58-2,6669/58,50801.11111111111,32.1849179735,34.8104273291,2012
2012-06-20,2012-06-20,"העלייה השנייה 12, הרצלייה",העלייה השנייה 12,6536-281-1,קוטג' טורי,5.0,"קומה ‎-1‏, קומה ‎0‏",191.35,3350000,,,2009.0,,3.0,8295689784,1,6536281,False,,הרצלייה,העליה השניה,,6536-281-1,6536/281,17507.18578521035,32.1721676789,34.844968556,2012
2012-06-20,2012-06-20,"קיבוץ גלויות 76, הרצלייה",קיבוץ גלויות 76,6558-608-3,קוטג' דו משפחתי,5.0,ראשונה,170.0,2860000,,,1950.0,2010.0,1.0,8296170784,1,6558608,False,,הרצלייה,קבוץ גלויות,,6558-608-3,6558/608,16823.529411764706,32.1702019662,34.8626267037,2012
2012-06-20,2012-06-20,"משה 5, הרצלייה",משה 5,6545-33-5,קוטג' דו משפחתי,6.0,"קרקע ,מרתף,ראשונה,גג",159.04,3640000,,,1980.0,,,8295489466,1,654533,False,,הרצלייה,משה,,6545-33-5,6545/33,22887.323943661973,32.1534254205,34.8467580465,2012
2012-06-20,2012-06-20,"רביבים 35, הרצלייה",רביבים 35,6577-45-6,דירה בבית קומות,3.0,קרקע,48.83,800000,,,1960.0,,2.0,8295822762,1,657745,False,,הרצלייה,רביבים,,6577-45-6,6577/45,16383.370878558264,32.1738908093,34.8525500929,2012
2012-06-20,2012-06-20,"אוטו ורבורג 10, הרצלייה",אוטו ורבורג 10,6546-643-2,דירה בבית קומות,4.0,שניה,113.85,1600000,,,1980.0,,5.0,8295716572,1,6546643,False,31% ב 6.2 שנים,הרצלייה,ורבורג אוטו,5.0,6546-643-2,6546/643,14053.579270970577,32.156109232,34.844001804,2012
2012-06-18,2012-06-18,"הרב קוק 23, הרצלייה",הרב קוק 23,6538-620-7,דירה בבית קומות,4.0,רביעית,116.72,1830000,,,1984.0,,4.0,8295678166,1,6538620,False,139% ב 13.2 שנים,הרצלייה,הרב קוק,10.53,6538-620-7,6538/620,15678.54694996573,32.1611402758,34.8400143868,2012
2012-06-18,2012-06-18,"התנאים 1, הרצלייה",התנאים 1,6546-772-20,דירה בבית קומות,4.0,חמישית,119.0,2300000,,,1985.0,,9.0,8296492536,1,6546772,False,,הרצלייה,התנאים,,6546-772-20,6546/772,19327.73109243697,32.1529614485,34.8408514756,2012
2012-06-18,2012-06-18,"טנא 4, הרצלייה",טנא 4,6558-845-11,דירה בבית קומות,4.0,שניה,73.55,1275000,,,1998.0,,2.0,8296186620,1,6558845,False,,הרצלייה,טנא,,6558-845-11,6558/845,17335.14615907546,32.1710091153,34.8576774195,2012
2012-06-18,2012-06-18,"אלי לנדאו 50, הרצלייה",אלי לנדאו 50,6668-1364-43,דירה בבית קומות,2.0,שמינית,40.0,3856000,,,1993.0,,14.0,8296248854,1,66681364,False,,הרצלייה,רמת ים,,6668-1364-43,6668/1364,96400.0,32.1729217818,34.8010746527,2012
2012-06-17,2012-06-17,"רמב""ם 1, הרצלייה","רמב""ם 1",6538-111-1,מחסנים,,,59.0,134000,,,2012.0,,,8296918628,1,6538111,False,,הרצלייה,"רמב""ם",,6538-111-1,6538/111,2271.186440677966,32.1637248462,34.8430553074,2012
2012-06-14,2012-06-14,"הפיוס 5, הרצלייה",הפיוס 5,6541-220-13,דירה בבית קומות,5.0,רביעית,103.56,2100000,,,1990.0,,7.0,8295908898,1,6541220,False,,הרצלייה,הפיוס,,6541-220-13,6541/220,20278.099652375437,32.1594450689,34.8476860073,2012
2012-06-14,2012-06-14,"האילנות 27, הרצלייה",האילנות 27,6663-295-20,דירה בבית קומות,5.0,חמישית,129.0,1921000,,,1970.0,2012.0,4.0,8295619558,1,6663295,False,,הרצלייה,האילנות,,6663-295-20,6663/295,14891.472868217052,32.1787958119,34.8436281917,2012
2012-06-14,2012-06-14,"אח""י דקר 21, הרצלייה","אח""י דקר 21",6667-529-1,קוטג' דו משפחתי,6.0,,215.0,5050000,,,1982.0,,,8295420424,1,6667529,False,,הרצלייה,"אח""י דקר",,6667-529-1,6667/529,23488.372093023256,32.1726672973,34.8098161105,2012
2012-06-14,2012-06-14,"סוקולוב 29, הרצלייה",סוקולוב 29,6533-7-18,דירה בבית קומות,4.0,שניה,65.5,1200000,,,1970.0,,3.0,8295589514,1,65337,False,105% ב 6.2 שנים,הרצלייה,סוקולוב,16.94,6533-7-18,6533/7,18320.6106870229,32.1676904115,34.8417219445,2012
2012-06-14,2012-06-14,"העצמאות 1, הרצלייה",העצמאות 1,6535-119-11,דירה בבית קומות,2.0,שניה,44.8,1000000,,,1950.0,,2.0,8295540156,1,6535119,False,,הרצלייה,העצמאות,,6535-119-11,6535/119,22321.42857142857,32.16295508,34.8378125126,2012
2012-06-13,2012-06-13,"הרב קוק 1, הרצלייה",הרב קוק 1,6546-136-14,דירה בבית קומות,4.0,שלישית,73.5,1500000,,,1970.0,,3.0,8297556582,1,6546136,False,153% ב 5.5 שנים,הרצלייה,הרב קוק,27.82,6546-136-14,6546/136,20408.163265306124,32.1607882526,34.8422009527,2012
2012-06-13,2012-06-13,"השופטים 4, הרצלייה",השופטים 4,6546-554-1,דירה בבית קומות,5.0,ראשונה,115.0,2100000,,,1980.0,,9.0,8295365664,1,6546554,False,,הרצלייה,השופטים,,6546-554-1,6546/554,18260.869565217392,32.1539614987,34.8407078581,2012
2012-06-13,2012-06-13,"השופטים 5, הרצלייה",השופטים 5,6546-540-110,דירה בבית קומות,4.0,עשירית,102.0,2000000,,,1990.0,,18.0,8295462678,1,6546540,False,,הרצלייה,השופטים,,6546-540-110,6546/540,19607.843137254906,32.1527364016,34.8416486065,2012
2012-06-13,2012-06-13,"התנאים 5, הרצלייה",התנאים 5,6546-722-29,דירה בבית קומות,4.5,שמינית,118.0,2450000,,,1980.0,,9.0,8295265394,1,6546722,False,,הרצלייה,התנאים,,6546-722-29,6546/722,20762.71186440678,32.1529823085,34.8398946166,2012
2012-06-13,2012-06-13,"האתרוג 1, הרצלייה",האתרוג 1,6663-240-3,קוטג' דו משפחתי,5.0,קרקע+ראשונה+גג,174.82,2345000,,,1971.0,,,8296049868,1,6663240,False,,הרצלייה,האתרוג,,6663-240-3,6663/240,13413.797048392633,32.1763901103,34.8497041726,2012
2012-06-12,2012-12-06,"הצנחנים 12, הרצלייה",הצנחנים 12,7291-150-3,דירה בבית קומות,2.5,ראשונה,34.1,1020000,,,1960.0,,2.0,8303486942,1,7291150,False,,הרצלייה,הצנחנים,,7291-150-3,7291/150,29912.02346041056,32.1580960411,34.8399648472,2012
2012-06-12,2012-12-06,"הרב קוק 63, הרצלייה",הרב קוק 63,6527-33-2,קוטג' טורי,5.0,קרקע+א+ב,109.38,2200000,,,1980.0,,3.0,8303486350,1,652733,False,,הרצלייה,הרב קוק,,6527-33-2,6527/33,20113.366246114463,32.1621649355,34.8332313387,2012
2012-06-11,2012-11-06,"קהילת ציון 15, הרצלייה",קהילת ציון 15,6537-85-3,דירה בבית קומות,5.0,שניה,104.9,1529000,,,1973.0,,3.0,8301750828,1,653785,False,,הרצלייה,קהילת ציון,,6537-85-3,6537/85,14575.786463298378,32.1654617749,34.8489198625,2012
2012-06-11,2012-11-06,"פעמונית 4, הרצלייה",פעמונית 4,6560-102-5,דירה בבית קומות,4.0,שניה,72.3,1600000,,,1993.0,,2.0,8301989552,1,6560102,False,,הרצלייה,פעמונית,,6560-102-5,6560/102,22130.01383125865,32.1595883322,34.8642037326,2012
2012-06-11,2012-11-06,"מעפילי מרוקו 2, הרצלייה",מעפילי מרוקו 2,6577-62-11,דירה בבית קומות,2.0,שניה,40.8,800000,,,1960.0,,2.0,8301745426,1,657762,False,,הרצלייה,מעפילי מרוקו,,6577-62-11,6577/62,19607.843137254906,32.175628711,34.8528894355,2012
2012-06-09,2012-09-06,"אבן גבירול 16, הרצלייה",אבן גבירול 16,6527-264-26,דירה בבית קומות,5.0,שלישית וגג,119.14,1900000,,,1970.0,,3.0,8299305720,1,6527264,False,,הרצלייה,אבן גבירול,,6527-264-26,6527/264,15947.624643276817,32.167121784,34.8363754587,2012
2012-06-09,2012-09-06,"יבנאלי 7, הרצלייה",יבנאלי 7,6531-174-3,דירה בבית קומות,5.0,שניה,100.01,1950000,,,2012.0,,5.0,8299261172,1,6531174,False,,הרצלייה,יבניאלי,,6531-174-3,6531/174,19498.0501949805,32.165799843,34.8443496216,2012
2012-06-08,2012-08-06,"מוהליבר 9, הרצלייה",מוהליבר 9,6537-223-2,דירה בבית קומות,5.0,ראשונה,116.0,1855000,,,1980.0,,3.0,8297817950,1,6537223,False,,הרצלייה,מוהליבר,,6537-223-2,6537/223,15991.379310344828,32.1658378512,34.8505642907,2012
2012-06-08,2012-08-06,"בר-כוכבא 127, הרצלייה",בר-כוכבא 127,6546-901-5,דירה בבית קומות,5.0,קומה ‎2‏,133.59,2550000,,,2009.0,,5.0,8297703102,1,6546901,False,,הרצלייה,בר כוכבא,,6546-901-5,6546/901,19088.25510891534,32.1572757148,34.8416502397,2012
2012-06-08,2012-08-06,"בר-אילן 11, הרצלייה",בר-אילן 11,6533-126-5,דירה בבית קומות,3.0,שלישית,67.49,1435000,,,2005.0,,4.0,8297978604,1,6533126,False,43% ב 6.7 שנים,הרצלייה,בר אילן,6.42,6533-126-5,6533/126,21262.4092458142,32.1658461981,34.8418019521,2012
2012-06-07,2012-07-06,"הפרטיזנים 14, הרצלייה",הפרטיזנים 14,6558-780-10,דירה בבית קומות,3.0,שניה,59.1,800000,,,2023.0,,3.0,8296498752,1,6558780,False,51% ב 9.5 שנים,הרצלייה,הפרטיזנים,5.37,6558-780-10,6558/780,13536.37901861252,32.1681630022,34.8590416279,2012
2012-06-07,2012-07-06,"הבנים 69, הרצלייה",הבנים 69,6540-85-1,דירה בבית קומות,5.0,קרקע,129.8,2480000,,,1991.0,,4.0,8296433336,1,654085,False,,הרצלייה,הבנים,,6540-85-1,6540/85,19106.31741140216,32.1634791566,34.8506010791,2012
2012-06-07,2012-07-06,"מלכי ישראל 5, הרצלייה",מלכי ישראל 5,6528-37-1,דירה בבית קומות,4.0,ראשונה,88.03,1750000,,,1977.0,,3.0,8296454056,1,652837,False,,הרצלייה,מלכי ישראל,,6528-37-1,6528/37,19879.586504600706,32.1706779021,34.8409478202,2012
