DEALDATE,DEALDATETIME,FULLADRESS,DISPLAYADRESS,GUSH,DEALNATUREDESCRIPTION,ASSETROOMNUM,FLOORNO,DEALNATURE,DEALAMOUNT,NEWPROJECTTEXT,PROJECTNAME,BUILDINGYEAR,YEARBUILT,BUILDINGFLOORS,KEYVALUE,TYPE,POLYGON_ID,TREND_IS_NEGATIVE,TREND_FORMAT,city_name,street,presentage per year,GUSH - Copy,Gush_Helka,Price per sqm,lat,lon,Year
2007-12-31,2007-12-31,"רבינדרנת טאגור 40, תל אביב -יפו",רבינדרנת טאגור 40,6629-147-130,דירה בבית קומות,5.0,חמישית,160.8,2884000,,,1978.0,,15.0,5400120550,1,6629147,False,,תל אביב -יפו,טאגור רבינדרנארט,,6629-147-130,6629/147,17935.323383084575,32.1174356098,34.7985788122,2007
2007-12-31,2007-12-31,"דיזנגוף 195, תל אביב -יפו",דיזנגוף 195,6902-149-13,דירה בבית קומות,2.0,שלישית,65.93,750000,,,2003.0,,5.0,5401686950,1,6902149,False,2% ב 4.5 שנים,תל אביב -יפו,דיזנגוף,0.44,6902-149-13,6902/149,11375.701501592595,32.0868051279,34.7746517928,2007
2007-12-31,2007-12-31,"יחיא קאפח 27, תל אביב -יפו",יחיא קאפח 27,7001-19-2,חנות,,ראשונה,58.0,273000,,,1930.0,,1.0,5400007100,1,700119,False,,תל אביב -יפו,קפאח יחיה,,7001-19-2,7001/19,4706.896551724138,32.0691422693,34.7679805738,2007
2007-12-31,2007-12-31,"סמדר 1, תל אביב -יפו",סמדר 1,6135-51-77,דירה בבית קומות,1.0,,30.0,142222000,,,1950.0,,2.0,5400058250,1,613551,False,,תל אביב -יפו,סמדר,,6135-51-77,6135/51,4740733.333333333,32.0494270929,34.7908026769,2007
2007-12-31,2007-12-31,"עמק ברכה 40, תל אביב -יפו",עמק ברכה 40,7093-282-7,דירה בבית קומות,2.0,ראשונה,36.01,636000,,,1960.0,,3.0,5400551200,1,7093282,False,,תל אביב -יפו,עמק ברכה,,7093-282-7,7093/282,17661.76062204943,32.0755310638,34.7997802406,2007
2007-12-31,2007-12-31,"רופא המחתרות 1, תל אביב -יפו",רופא המחתרות 1,6798-34-2,קוטג' דו משפחתי,6.0,"מרתף,קרקע,ראשנה,שניה",257.1,4384000,,,1995.0,,,5400480700,1,679834,False,,תל אביב -יפו,רופא המחתרות,,6798-34-2,6798/34,17051.73084402956,32.099578721,34.7842903415,2007
2007-12-31,2007-12-31,"יערי מאיר 28, תל אביב -יפו",יערי מאיר 28,7186-11-23,דירה בבית קומות,4.0,שמינית,102.69,2226000,,,2007.0,,10.0,5401660900,1,718611,False,,תל אביב -יפו,יערי מאיר,,7186-11-23,7186/11,21676.89161554192,32.099597439,34.7891844242,2007
2007-12-31,2007-12-31,"נצח ישראל 28, תל אביב -יפו",נצח ישראל 28,6951-82-4,דירה בבית קומות,4.0,ראשונה,88.0,1695000,,,1949.0,,3.0,5400519000,1,695182,False,,תל אביב -יפו,נצח ישראל,,6951-82-4,6951/82,19261.36363636364,32.0773587017,34.7809599615,2007
2007-12-31,2007-12-31,"דניאל פריש 4, תל אביב -יפו",דניאל פריש 4,6111-564-25,דירה בבית קומות,2.0,שלישית,48.63,1000000,,,1950.0,,3.0,5400300400,1,6111564,False,62% ב 7.1 שנים,תל אביב -יפו,פריש דניאל,8.73,6111-564-25,6111/564,20563.438206868188,32.0740897502,34.782317109,2007
2007-12-31,2007-12-31,"סהרון 28, תל אביב -יפו",סהרון 28,7075-54-34,דירה בבית קומות,3.0,ראשונה,62.6,360000,,,1970.0,,4.0,5401482300,1,707554,False,,תל אביב -יפו,סהרון,,7075-54-34,7075/54,5750.7987220447285,32.034804763,34.7489103556,2007
2007-12-31,2007-12-31,"הפרטיזן היהודי 28, תל אביב -יפו",הפרטיזן היהודי 28,6978-2-12,דירה בבית קומות,3.0,שניה,60.0,540000,,,1950.0,,3.0,5400298800,1,69782,False,,תל אביב -יפו,הפרטיזן היהודי,,6978-2-12,6978/2,9000.0,32.0550054885,34.7895333106,2007
2007-12-31,2007-12-31,"שלמה המלך 80, תל אביב -יפו",שלמה המלך 80,6953-6-5,משרד,,,40.0,446000,,,1950.0,,1.0,5403163200,1,69536,False,,תל אביב -יפו,שלמה,,6953-6-5,6953/6,11150.0,32.0836263894,34.7786733077,2007
2007-12-31,2007-12-31,"בארי 15, תל אביב -יפו",בארי 15,6217-619-14,דירה בבית קומות,4.0,שלישית,73.0,1466000,,,1960.0,,4.0,5401459500,1,6217619,False,,תל אביב -יפו,בארי,,6217-619-14,6217/619,20082.19178082192,32.0834955139,34.7871377791,2007
2007-12-31,2007-12-31,"הפרדס 2, תל אביב -יפו",הפרדס 2,6953-76-7,דירה בבית קומות,3.0,רביעית,73.0,1640000,,,1950.0,,5.0,5400509500,1,695376,False,2% ב 0.9 שנים,תל אביב -יפו,הפרדס,2.22,6953-76-7,6953/76,22465.75342465753,32.083254234,34.7806686206,2007
2007-12-31,2007-12-31,"חיים ואלישע 11, תל אביב -יפו",חיים ואלישע 11,6904-165-7,דירה בבית קומות,2.0,שלישית,50.14,615000,,,1940.0,,3.0,5400589200,1,6904165,False,,תל אביב -יפו,חיים ואלישע,,6904-165-7,6904/165,12265.656162744315,32.0718664624,34.7778292821,2007
2007-12-31,2007-12-31,"לוי אשכול 106, תל אביב -יפו",לוי אשכול 106,6630-802-22,דירה בבית קומות,5.0,שישית,113.4,2260000,,,2004.0,,9.0,5400380000,1,6630802,False,,תל אביב -יפו,אשכול לוי,,6630-802-22,6630/802,19929.4532627866,32.1194884462,34.7915248096,2007
2007-12-31,2007-12-31,"הרב שלמה גורן 6, תל אביב -יפו",הרב שלמה גורן 6,6108-724-172,דירה בבית קומות,5.0,עשרים ואחת,130.0,4396000,,,2010.0,,21.0,5400452550,1,6108724,False,,תל אביב -יפו,הרב גורן שלמה,,6108-724-172,6108/724,33815.38461538462,32.0903929233,34.797592682,2007
2007-12-31,2007-12-31,"ראב""ד 28, תל אביב -יפו","ראב""ד 28",7060-2-4,דירה בבית קומות,2.0,ראשונה,57.0,664000,,,1940.0,,1.0,5401788750,1,70602,False,,תל אביב -יפו,"ראב""ד",,7060-2-4,7060/2,11649.122807017544,32.0539464744,34.7815808784,2007
2007-12-31,2007-12-31,"דוד רמז 42, תל אביב -יפו",דוד רמז 42,6213-117-12,דירה בבית קומות,2.0,רביעית,42.0,1070000,,,1964.0,,4.0,5401254950,1,6213117,False,,תל אביב -יפו,רמז דוד,,6213-117-12,6213/117,25476.19047619048,32.0899463927,34.7868215263,2007
2007-12-31,2007-12-31,"ראב""ד 28, תל אביב -יפו","ראב""ד 28",7060-2-1,חנות,,קרקע,338.44,980000,,,1940.0,,1.0,5401798250,1,70602,False,,תל אביב -יפו,"ראב""ד",,7060-2-1,7060/2,2895.6388133790333,32.0539464744,34.7815808784,2007
2007-12-31,2007-12-31,"דב האוזנר 2, תל אביב -יפו",דב האוזנר 2,7221-18-116,דירה בבית קומות,3.0,שניה,102.76,1690000,,,1998.0,,9.0,5400089650,1,722118,False,,תל אביב -יפו,האוזנר דב,,7221-18-116,7221/18,16446.08797197353,32.1097537255,34.7899006439,2007
2007-12-31,2007-12-31,"ראב""ד 28, תל אביב -יפו","ראב""ד 28",7060-2-2,דירה בבית קומות,3.0,ראשונה,93.0,692000,,,1940.0,,1.0,5401792050,1,70602,False,,תל אביב -יפו,"ראב""ד",,7060-2-2,7060/2,7440.860215053764,32.0539464744,34.7815808784,2007
2007-12-31,2007-12-31,"ראב""ד 28, תל אביב -יפו","ראב""ד 28",7060-2-3,דירה בבית קומות,3.0,ראשונה,57.0,542000,,,1940.0,,1.0,5401796600,1,70602,False,,תל אביב -יפו,"ראב""ד",,7060-2-3,7060/2,9508.77192982456,32.0539464744,34.7815808784,2007
2007-12-31,2007-12-31,"מקס זליגמן 1, תל אביב -יפו",מקס זליגמן 1,6332-152-45,דירה בבית קומות,5.0,ראשונה,160.0,2511000,,,2007.0,,4.0,5401647700,1,6332152,False,,תל אביב -יפו,זליגמן מקס,,6332-152-45,6332/152,15693.75,32.1264258998,34.8342762508,2007
2007-12-31,2007-12-31,"י""ל גורדון 73, תל אביב -יפו","י""ל גורדון 73",6952-4-5,דירה בבית קומות,4.0,שלישית,93.0,2255000,,,1960.0,,4.0,5400837100,1,69524,False,,תל אביב -יפו,גורדון י ל,,6952-4-5,6952/4,24247.31182795699,32.081172063,34.7782508368,2007
2007-12-31,2007-12-31,"החשמל 5, תל אביב -יפו",החשמל 5,7442-13-1,משרד,,מרתף,,307000,,,1940.0,,3.0,5401721100,1,744213,False,,תל אביב -יפו,החשמל,,7442-13-1,7442/13,,32.061137283,34.7746082457,2007
2007-12-31,2007-12-31,"שלמה המלך 80, תל אביב -יפו",שלמה המלך 80,6953-6-5,משרד,,,40.0,446000,,,1950.0,,1.0,5403163200,1,69536,False,,תל אביב -יפו,שלמה המלך,,6953-6-5,6953/6,11150.0,32.0836263894,34.7786733077,2007
2007-12-30,2007-12-30,"דיין משה 96, תל אביב -יפו",דיין משה 96,6133-685-2,דירה בבית קומות,4.0,קרקע,87.8,1100000,,,2008.0,,5.0,5401600200,1,6133685,False,,תל אביב -יפו,דיין משה,,6133-685-2,6133/685,12528.473804100227,32.0630140268,34.8000608213,2007
2007-12-30,2007-12-30,"נרדור 6, תל אביב -יפו",נרדור 6,6997-168-16,דירה בבית קומות,3.0,רביעית,48.98,352000,,,1960.0,,4.0,5401534250,1,6997168,False,,תל אביב -יפו,נרדור,,6997-168-16,6997/168,7186.606778276848,32.0342070466,34.7578427874,2007
2007-12-30,2007-12-30,"הרבי מבכרך 24, תל אביב -יפו",הרבי מבכרך 24,7016-156-13,דירה בבית קומות,2.0,שישית,61.0,1157000,,,2008.0,,7.0,5400293850,1,7016156,False,,תל אביב -יפו,הרבי מבכרך,,7016-156-13,7016/156,18967.213114754097,32.0571688485,34.7639565498,2007
2007-12-30,2007-12-30,"אריה דה-מודינה 14, תל אביב -יפו",אריה דה-מודינה 14,6973-44-4,דירה בבית קומות,2.0,,70.0,1000000,,,1950.0,,1.0,5400299600,1,697344,False,,תל אביב -יפו,דה מודינה אריה,,6973-44-4,6973/44,14285.714285714286,32.0529985237,34.7805835415,2007
2007-12-30,2007-12-30,"סנפיר 10, תל אביב -יפו",סנפיר 10,7244-62-2,חנות,,,39.0,640000,,,1970.0,,1.0,5401112600,1,724462,False,,תל אביב -יפו,סנפיר,,7244-62-2,7244/62,16410.25641025641,32.0531545511,34.8100653469,2007
2007-12-30,2007-12-30,"טלמון 1, תל אביב -יפו",טלמון 1,6979-3-137,דירה בבית קומות,2.0,שלישית,50.0,252000,,,1950.0,,3.0,5400071950,1,69793,False,,תל אביב -יפו,טלמון,,6979-3-137,6979/3,5040.0,32.0511594895,34.789256638,2007
2007-12-30,2007-12-30,"הרב שלמה גורן 6, תל אביב -יפו",הרב שלמה גורן 6,6108-724-173,דירה בבית קומות,5.0,רביעית,,3400000,,,2010.0,,21.0,5400214200,1,6108724,False,,תל אביב -יפו,הרב גורן שלמה,,6108-724-173,6108/724,,32.0903929233,34.797592682,2007
2007-12-30,2007-12-30,,,7103-88-2,משרד,,שישית,7086.0,55020000,,,1960.0,,,5400731500,2,710388,False,,תל אביב -יפו,לינקולן,,7103-88-2,7103/88,7764.606265876376,32.067358722,34.7801193422,2007
2007-12-30,2007-12-30,"לבנון חיים 87, תל אביב -יפו",לבנון חיים 87,6630-385-7,דירה בבית קומות,4.0,שניה,92.02,1900000,,,1970.0,,9.0,5400179550,1,6630385,False,,תל אביב -יפו,לבנון חיים,,6630-385-7,6630/385,20647.685285807434,32.1190197162,34.8014060503,2007
2007-12-30,2007-12-30,"אריה דה-מודינה 12, תל אביב -יפו",אריה דה-מודינה 12,6973-45-2,דירה בבית קומות,3.0,,80.0,617000,,,1950.0,,1.0,5401969850,1,697345,False,,תל אביב -יפו,דה מודינה אריה,,6973-45-2,6973/45,7712.5,32.0529994371,34.7806544082,2007
2007-12-30,2007-12-30,"גרץ 3, תל אביב -יפו",גרץ 3,6902-136-8,דירה בבית קומות,3.0,שניה,86.0,1775000,,,1948.0,,5.0,5400388700,1,6902136,False,226% ב 3.2 שנים,תל אביב -יפו,גרץ,70.62,6902-136-8,6902/136,20639.53488372093,32.0851087053,34.7735419181,2007
2007-12-30,2007-12-30,"דיזנגוף 263, תל אביב -יפו",דיזנגוף 263,6961-56-16,דירה בבית קומות,2.0,שלישית,35.0,1080000,,,1960.0,,5.0,5400471200,1,696156,False,60% ב 8.9 שנים,תל אביב -יפו,דיזנגוף,6.74,6961-56-16,6961/56,30857.14285714286,32.0944286234,34.776357971,2007
2007-12-30,2007-12-30,"סלע יעקב 4, תל אביב -יפו",סלע יעקב 4,6146-335-31,דירה בבית קומות,4.0,ראשונה,81.0,769000,,,1992.0,,7.0,5400349100,1,6146335,False,,תל אביב -יפו,סלע יעקב,,6146-335-31,6146/335,9493.827160493827,32.0477174311,34.8105047854,2007
2007-12-30,2007-12-30,"שפינוזה 25, תל אביב -יפו",שפינוזה 25,6215-428-3,דירה בבית קומות,4.0,שניה,69.5,1780000,,,1956.0,,4.0,5400236500,1,6215428,False,,תל אביב -יפו,שפינוזה,,6215-428-3,6215/428,25611.510791366905,32.0818181686,34.7762133924,2007
2007-12-30,2007-12-30,"עובדיה מברטנורה 22, תל אביב -יפו",עובדיה מברטנורה 22,6957-164-4,דירה בבית קומות,4.0,,,1200000,,,1950.0,,1.0,5400685350,1,6957164,False,,תל אביב -יפו,עובדיה מברטנורה,,6957-164-4,6957/164,,32.091206255,34.780617384,2007
2007-12-30,2007-12-30,"עובדיה מברטנורה 16, תל אביב -יפו",עובדיה מברטנורה 16,6957-195-5,דירה בבית קומות,2.5,שלישית,72.0,1080000,,,1940.0,,2.0,5400095900,1,6957195,False,,תל אביב -יפו,עובדיה מברטנורה,,6957-195-5,6957/195,15000.0,32.0912551755,34.7797962319,2007
2007-12-30,2007-12-30,"עין זיתים 1, תל אביב -יפו",עין זיתים 1,7093-341-30,דירה בבית קומות,3.0,שישית,79.9,1294100,,,2007.0,,25.0,5400297150,1,7093341,False,,תל אביב -יפו,עין זיתים,,7093-341-30,7093/341,16196.495619524405,32.0743723442,34.7973011192,2007
2007-12-30,2007-12-30,"ישעיהו ברלין 8, תל אביב -יפו",ישעיהו ברלין 8,6970-101-174,דירה בבית קומות,3.0,חמישית,100.0,758000,,,2001.0,,10.0,5400573050,1,6970101,False,,תל אביב -יפו,ברלין ישעיהו,,6970-101-174,6970/101,7580.0,32.0467117785,34.7781616174,2007
2007-12-30,2007-12-30,"קול משה 1, תל אביב -יפו",קול משה 1,6615-284-55,דירה בבית קומות,2.0,שביעית,63.55,920000,,,2003.0,,10.0,5400887850,1,6615284,False,,תל אביב -יפו,קול משה,,6615-284-55,6615/284,14476.789929189616,32.1275548568,34.8300390085,2007
2007-12-30,2007-12-30,,,7103-88-1,משרד,,ראשונה,99.99,38510000,,,1950.0,,,5406779550,2,710388,False,,תל אביב -יפו,לינקולן,,7103-88-1,7103/88,385138.5138513852,32.067358722,34.7801193422,2007
2007-12-30,2007-12-30,"מודיליאני 14, תל אביב -יפו",מודיליאני 14,6217-191-7,דירה בבית קומות,2.0,שניה,60.0,925000,,,1950.0,,2.0,5401365050,1,6217191,False,,תל אביב -יפו,מודיליאני,,6217-191-7,6217/191,15416.666666666666,32.0806319563,34.7838812412,2007
2007-12-30,2007-12-30,"אריה דה-מודינה 10, תל אביב -יפו",אריה דה-מודינה 10,6973-46-2,דירה בבית קומות,3.0,,80.0,617000,,,1950.0,,,5401950850,1,697346,False,,תל אביב -יפו,דה מודינה אריה,,6973-46-2,6973/46,7712.5,32.0529909284,34.7807261281,2007
2007-12-30,2007-12-30,"אריה דה-מודינה 10, תל אביב -יפו",אריה דה-מודינה 10,6973-47-2,דירה בבית קומות,3.0,,80.0,617000,,,1950.0,,,5401950450,1,697347,False,,תל אביב -יפו,דה מודינה אריה,,6973-47-2,6973/47,7712.5,32.0529900544,34.7808021833,2007
2007-12-30,2007-12-30,"חיות-פרץ 23, תל אביב -יפו",חיות-פרץ 23,6904-92-11,דירה בבית קומות,4.0,רביעית+גג,98.67,2304000,,,1950.0,,4.0,5400588400,1,690492,False,,תל אביב -יפו,חיות פרץ,,6904-92-11,6904/92,23350.56248099726,32.0724178794,34.7752332902,2007
2007-12-30,2007-12-30,"רינגלבלום 6, תל אביב -יפו",רינגלבלום 6,6986-255-4,דירה בבית קומות,4.0,ראשונה,98.0,848000,,,1950.0,,1.0,5400071050,1,6986255,False,,תל אביב -יפו,רינגלבלום,,6986-255-4,6986/255,8653.061224489797,32.0401222492,34.7795946908,2007
2007-12-30,2007-12-30,,,6212-655-12,דירה בבית קומות,2.0,שניה,67.0,2207000,,,1999.0,,,5401541300,2,6212655,False,,תל אביב -יפו,ויצמן,,6212-655-12,6212/655,32940.298507462685,32.0916216795,34.7902612817,2007
2007-12-28,2007-12-28,"הגלבוע 1, תל אביב -יפו",הגלבוע 1,7438-28-2,משרד,,שלישית,370.0,3900000,,,1940.0,,2.0,5401666250,1,743828,False,,תל אביב -יפו,הגלבוע,,7438-28-2,7438/28,10540.54054054054,32.0682372592,34.7786079093,2007
2007-12-28,2007-12-28,"הגלבוע 1, תל אביב -יפו",הגלבוע 1,7438-28-12,משרד,,,350.0,6657000,,,1940.0,,2.0,5401672000,1,743828,False,,תל אביב -יפו,הגלבוע,,7438-28-12,7438/28,19020.0,32.0682372592,34.7786079093,2007
2007-12-28,2007-12-28,"הגלבוע 1, תל אביב -יפו",הגלבוע 1,7438-28-3,משרד,,,205.0,3979000,,,1940.0,,2.0,5401671600,1,743828,False,,תל אביב -יפו,הגלבוע,,7438-28-3,7438/28,19409.75609756097,32.0682372592,34.7786079093,2007
2007-12-27,2007-12-27,"סטימצקי 8, תל אביב -יפו",סטימצקי 8,6886-56-124,דירה בבית קומות,4.0,ראשונה,98.0,1842000,,,1999.0,,22.0,5400089250,1,688656,False,,תל אביב -יפו,סטימצקי,,6886-56-124,6886/56,18795.918367346934,32.1129214537,34.7908782982,2007
2007-12-27,2007-12-27,"רפידים 20, תל אביב -יפו",רפידים 20,6627-351-229,דירה בבית קומות,4.0,שלישית,67.0,1372000,,,1950.0,,3.0,5400063600,1,6627351,False,,תל אביב -יפו,רפידים,,6627-351-229,6627/351,20477.611940298502,32.1128176786,34.8131040477,2007
2007-12-27,2007-12-27,"הגדוד העברי 26, תל אביב -יפו",הגדוד העברי 26,8942-24-5,חנות,,קרקע,32.5,250000,,,1930.0,,3.0,5400197400,1,894224,False,,תל אביב -יפו,עברי,,8942-24-5,8942/24,7692.307692307692,32.0595473872,34.7764299162,2007
2007-12-27,2007-12-27,"ג'ורג' אליוט 14, תל אביב -יפו",ג'ורג' אליוט 14,7431-8-15,דירה בבית קומות,2.0,,40.0,638000,,,1940.0,,4.0,5401577500,1,74318,False,,תל אביב -יפו,אליוט ג'ורג',,7431-8-15,7431/8,15950.0,32.0679380725,34.7748460614,2007
2007-12-27,2007-12-27,"שפרינצק 5, תל אביב -יפו",שפרינצק 5,7099-55-4,דירה בבית קומות,2.0,שניה,,1065000,,,1956.0,,,5362643800,1,709955,False,,תל אביב -יפו,שפרינצק,,7099-55-4,7099/55,,32.0711287864,34.7829045335,2007
2007-12-27,2007-12-27,"שלמה אבן גבירול 71, תל אביב -יפו",שלמה אבן גבירול 71,6953-91-123,דירת גג,6.0,עשרים ושלוש ו-,331.57,30968000,,,1988.0,,23.0,5400882900,1,695391,False,,תל אביב -יפו,אבן גבירול,,6953-91-123,6953/91,93398.0758210936,32.082493208,34.7805085662,2007
2007-12-27,2007-12-27,"התבור 33, תל אביב -יפו",התבור 33,6919-19-14,דירה בבית קומות,3.0,שלישית,60.0,800000,,,1950.0,,4.0,5400056600,1,691919,False,,תל אביב -יפו,התבור,,6919-19-14,6919/19,13333.333333333334,32.0671302283,34.7683941423,2007
2007-12-27,2007-12-27,"דוד בלוך 1, תל אביב -יפו",דוד בלוך 1,6217-569-9,דירה בבית קומות,2.0,ראשונה,70.0,1045000,,,1950.0,,3.0,5400243100,1,6217569,False,,תל אביב -יפו,בלוך דוד,,6217-569-9,6217/569,14928.57142857143,32.0817741195,34.7815738966,2007
2007-12-27,2007-12-27,"משה הס 15, תל אביב -יפו",משה הס 15,6913-15-9,דירה בבית קומות,3.0,רביעית וחמישית,67.01,1974000,,,2006.0,,5.0,5400699800,1,691315,False,39% ב 1.3 שנים,תל אביב -יפו,הס משה,30.0,6913-15-9,6913/15,29458.289807491416,32.0731398781,34.7697278304,2007
2007-12-27,2007-12-27,"אבן גבירול 23, תל אביב -יפו",אבן גבירול 23,7111-108-11,דירה בבית קומות,3.0,רביעית,76.2,1260000,,,1950.0,,4.0,5400302850,1,7111108,False,99% ב 6.2 שנים,תל אביב -יפו,אבן גבירול,15.97,7111-108-11,7111/108,16535.43307086614,32.0738522669,34.7815779054,2007
2007-12-27,2007-12-27,"השופטים 36, תל אביב -יפו",השופטים 36,6111-197-6,דירה בבית קומות,3.0,שניה,78.0,1700000,,,1950.0,,4.0,5362636400,1,6111197,False,,תל אביב -יפו,השופטים,,6111-197-6,6111/197,21794.871794871797,32.0761029603,34.7823576678,2007
2007-12-27,2007-12-27,"נתן 58, תל אביב -יפו",נתן 58,6135-69-40,דירה בבית קומות,6.0,,120.0,679000,,,1950.0,,3.0,5400117650,1,613569,False,,תל אביב -יפו,נתן,,6135-69-40,6135/69,5658.333333333333,32.0492782548,34.790115711,2007
2007-12-27,2007-12-27,"גליצנשטיין 6, תל אביב -יפו",גליצנשטיין 6,6217-202-1,דירה בבית קומות,3.5,שניה,93.0,1840000,,,1950.0,,1.0,5400971550,1,6217202,False,,תל אביב -יפו,גליצנשטין,,6217-202-1,6217/202,19784.94623655914,32.0812037079,34.783961006,2007
2007-12-27,2007-12-27,"רב אשי 9, תל אביב -יפו",רב אשי 9,6630-548-27,דירה בבית קומות,5.0,שביעית,135.0,1800000,,,1975.0,,8.0,5402432650,1,6630548,False,,תל אביב -יפו,רב אשי,,6630-548-27,6630/548,13333.333333333334,32.121084069,34.798677753,2007
2007-12-27,2007-12-27,"בושם 34, תל אביב -יפו",בושם 34,7242-68-20,דירה בבית קומות,3.0,שניה,61.0,472000,,,1970.0,,3.0,5400061150,1,724268,False,,תל אביב -יפו,בושם,,7242-68-20,7242/68,7737.704918032787,32.0446769855,34.8053241878,2007
2007-12-27,2007-12-27,"הגדוד העברי 26, תל אביב -יפו",הגדוד העברי 26,8942-24-5,חנות,,קרקע,32.5,250000,,,1930.0,,3.0,5400197400,1,894224,False,,תל אביב -יפו,הגדוד העברי,,8942-24-5,8942/24,7692.307692307692,32.0595473872,34.7764299162,2007
2007-12-27,2007-12-27,"קמואל 42, תל אביב -יפו",קמואל 42,6135-49-10,דירה בבית קומות,1.0,,200.0,1103000,,,1950.0,,2.0,5401463250,1,613549,False,,תל אביב -יפו,קמואל,,6135-49-10,6135/49,5515.0,32.0494802736,34.7912281792,2007
2007-12-27,2007-12-27,"בבלי 20, תל אביב -יפו",בבלי 20,6107-274-32,דירה בבית קומות,4.0,שמינית,77.0,1450000,,,1970.0,,9.0,5362663100,1,6107274,False,,תל אביב -יפו,בבלי,,6107-274-32,6107/274,18831.16883116883,32.0950779009,34.7988705766,2007
2007-12-27,2007-12-27,"סרלין יוסף 9, תל אביב -יפו",סרלין יוסף 9,6131-65-67,דירה בבית קומות,3.0,ראשונה,59.3,590000,,,1970.0,,8.0,5362580250,1,613165,False,7% ב 4.6 שנים,תל אביב -יפו,סרלין יוסף,1.52,6131-65-67,6131/65,9949.409780775715,32.0502423571,34.8003438962,2007
2007-12-27,2007-12-27,"יהודה הימית 53, תל אביב -יפו",יהודה הימית 53,7023-6-12,דירה בבית קומות,5.0,שלישית,136.0,1019000,,,1950.0,,5.0,5362661950,1,70236,False,30% ב 0.2 שנים,תל אביב -יפו,יהודה הימית,150.0,7023-6-12,7023/6,7492.64705882353,32.0497589029,34.7544616489,2007
2007-12-27,2007-12-27,"אורי 4, תל אביב -יפו",אורי 4,6111-837-14,דירה בבית קומות,5.0,רביעית,138.3,2903000,,,1970.0,,17.0,5400211350,1,6111837,False,,תל אביב -יפו,אורי,,6111-837-14,6111/837,20990.60014461316,32.0807366118,34.7856048936,2007
2007-12-27,2007-12-27,"אדוארד ברנשטיין 19, תל אביב -יפו",אדוארד ברנשטיין 19,6902-32-1,דירה בבית קומות,2.5,קרקע,,1480000,,,1962.0,,3.0,5400996800,1,690232,False,,תל אביב -יפו,ברנשטיין אדוארד,,6902-32-1,6902/32,,32.0871632188,34.7722190377,2007
2007-12-27,2007-12-27,"המסגר 28, תל אביב -יפו",המסגר 28,7067-1-22,משרד,,שניה,100.0,474000,,,1990.0,,5.0,5401515650,1,70671,False,,תל אביב -יפו,המסגר,,7067-1-22,7067/1,4740.0,32.0631486934,34.7865627039,2007
2007-12-27,2007-12-27,"נחל עוז 2, תל אביב -יפו",נחל עוז 2,7074-39-27,דירה בבית קומות,2.0,שלישית,43.0,250000,,,1970.0,,4.0,5400266150,1,707439,False,,תל אביב -יפו,נחל עוז,,7074-39-27,7074/39,5813.953488372093,32.0388191416,34.7590542025,2007
2007-12-26,2007-12-26,"אלנבי 113, תל אביב -יפו",אלנבי 113,6937-47-32,משרד,,קרקע,25.0,215000,,,1960.0,,5.0,5400284350,1,693747,False,,תל אביב -יפו,אלנבי,,6937-47-32,6937/47,8600.0,32.0628419222,34.7737292147,2007
2007-12-26,2007-12-26,"מקס זליגמן 1, תל אביב -יפו",מקס זליגמן 1,6332-152-46,דירה בבית קומות,5.0,רביעית,180.0,4769000,,,2007.0,,4.0,5401683550,1,6332152,False,,תל אביב -יפו,זליגמן מקס,,6332-152-46,6332/152,26494.444444444445,32.1264258998,34.8342762508,2007
2007-12-26,2007-12-26,"קדושי השואה 18, תל אביב -יפו",קדושי השואה 18,6632-473-9,דירה בבית קומות,5.0,שלישית,107.5,2400000,,,2007.0,,7.0,5400076900,1,6632473,False,,תל אביב -יפו,קדושי השואה,,6632-473-9,6632/473,22325.58139534884,32.1268412255,34.7927726929,2007
2007-12-26,2007-12-26,"ביל""ו 31, תל אביב -יפו","ביל""ו 31",7085-101-4,חנות,,ראשונה,,215000,,,1930.0,,4.0,5400998450,1,7085101,False,,תל אביב -יפו,"ביל""ו",,7085-101-4,7085/101,,32.0708684145,34.7804660553,2007
2007-12-26,2007-12-26,"בלפור 33, תל אביב -יפו",בלפור 33,7431-17-15,דירה בבית קומות,4.0,שניה,67.44,1293000,,,1950.0,,4.0,5362662350,1,743117,False,,תל אביב -יפו,בלפור,,7431-17-15,7431/17,19172.59786476868,32.067727255,34.7745523355,2007
2007-12-26,2007-12-26,"יערי מאיר 14, תל אביב -יפו",יערי מאיר 14,7186-18-34,דירה בבית קומות,3.0,שישית,78.75,1300000,,,2004.0,,8.0,5400382950,1,718618,False,,תל אביב -יפו,יערי מאיר,,7186-18-34,7186/18,16507.93650793651,32.0992492814,34.7859769068,2007
2007-12-26,2007-12-26,"השלום 101, תל אביב -יפו",השלום 101,6164-40-1,חנות,,ראשונה,24.37,239000,,,1950.0,,5.0,5401519400,1,616440,False,,תל אביב -יפו,השלום,,6164-40-1,6164/40,9807.139926138694,32.062067002,34.8051100121,2007
2007-12-26,2007-12-26,"עודד 18, תל אביב -יפו",עודד 18,6163-18-2,דירה בבית קומות,2.0,ראשונה,45.98,548000,,,1950.0,,3.0,5362667300,1,616318,False,,תל אביב -יפו,עודד,,6163-18-2,6163/18,11918.225315354504,32.0556178556,34.810391069,2007
2007-12-26,2007-12-26,"מרגולין 29, תל אביב -יפו",מרגולין 29,7098-22-7,דירה בבית קומות,3.0,שלישית,60.0,338000,,,1950.0,,2.0,5400339600,1,709822,False,,תל אביב -יפו,מרגולין,,7098-22-7,7098/22,5633.333333333333,32.0588205132,34.7935203953,2007
2007-12-26,2007-12-26,"עודד 20, תל אביב -יפו",עודד 20,6163-18-26,דירה בבית קומות,2.0,שניה,45.98,594000,,,1953.0,,3.0,5362551350,1,616318,False,,תל אביב -יפו,עודד,,6163-18-26,6163/18,12918.66028708134,32.0556178556,34.810391069,2007
2007-12-26,2007-12-26,"עזה 1, תל אביב -יפו",עזה 1,7089-1-78,דירה בבית קומות,3.0,שניה,71.0,484000,,,1970.0,,7.0,5362651550,1,70891,False,5% ב 9.4 שנים,תל אביב -יפו,עזה,0.53,7089-1-78,7089/1,6816.901408450704,32.0491477887,34.7603889593,2007
2007-12-26,2007-12-26,"אליעזר קשאני 5, תל אביב -יפו",אליעזר קשאני 5,6628-633-188,דירה בבית קומות,4.0,שמינית,62.0,1668000,,,1970.0,,8.0,5400693550,1,6628633,False,50% ב 8.5 שנים,תל אביב -יפו,קשאני אליעזר,5.88,6628-633-188,6628/633,26903.225806451614,32.1263954996,34.8047256872,2007
2007-12-26,2007-12-26,"התבור 22, תל אביב -יפו",התבור 22,7228-13-5,דירה בבית קומות,3.5,"רביעית, חמישית",78.35,3000000,,,2007.0,,5.0,5400334650,1,722813,False,,תל אביב -יפו,התבור,,7228-13-5,7228/13,38289.72559029994,32.0659264407,34.767681754,2007
2007-12-26,2007-12-26,"מל""ן 24, תל אביב -יפו","מל""ן 24",7001-17-2,חנות,,,,252000,,,1930.0,,1.0,5401695150,1,700117,False,,תל אביב -יפו,"מל""ן",,7001-17-2,7001/17,,32.0692132516,34.7677539624,2007
2007-12-26,2007-12-26,"קהילת לודג' 48, תל אביב -יפו",קהילת לודג' 48,6636-374-7,דירה בבית קומות,2.0,שניה,22.5,760000,,,1950.0,,2.0,5400222900,1,6636374,False,,תל אביב -יפו,קהילת לודג',,6636-374-7,6636/374,33777.77777777778,32.1068322818,34.8184823468,2007
2007-12-26,2007-12-26,"יונה הנביא 17, תל אביב -יפו",יונה הנביא 17,6914-92-7,דירה בבית קומות,4.0,שניה,92.48,1352000,,,1950.0,,3.0,5362591450,1,691492,False,,תל אביב -יפו,יונה הנביא,,6914-92-7,6914/92,14619.377162629757,32.0727608122,34.7666784827,2007
2007-12-26,2007-12-26,"הנגרים 2, תל אביב -יפו",הנגרים 2,7051-152-1,דירה בבית קומות,4.0,רביעית,100.0,1377000,,,2008.0,,2.0,5400073100,1,7051152,False,,תל אביב -יפו,הנגרים,,7051-152-1,7051/152,13770.0,32.05592148,34.7662222342,2007
2007-12-26,2007-12-26,"קהילת בודפסט 11, תל אביב -יפו",קהילת בודפסט 11,6636-68-1,קוטג' טורי,6.0,"מרתף,קרקע,ראשונה ושנייה",169.58,2193000,,,2007.0,,,5401460400,1,663668,False,,תל אביב -יפו,קהילת בודפסט,,6636-68-1,6636/68,12931.949522349332,32.1112233833,34.8233182941,2007
2007-12-26,2007-12-26,"התבור 22, תל אביב -יפו",התבור 22,7228-13-2,דירה בבית קומות,2.0,שניה,55.42,2880000,,,2007.0,,5.0,5400345450,1,722813,False,,תל אביב -יפו,התבור,,7228-13-2,7228/13,51966.79898953447,32.0659264407,34.767681754,2007
2007-12-26,2007-12-26,"הכנסת הגדולה 17, תל אביב -יפו",הכנסת הגדולה 17,6106-591-14,דירה בבית קומות,3.0,רביעית,50.0,1125000,,,1970.0,,5.0,5401500400,1,6106591,False,,תל אביב -יפו,הכנסת הגדולה,,6106-591-14,6106/591,22500.0,32.0982157066,34.8000586522,2007
2007-12-26,2007-12-26,"איתיאל 25, תל אביב -יפו",איתיאל 25,6135-225-1,דירה בבית קומות,4.0,קרקע,76.78,620000,,,2000.0,,3.0,5400226200,1,6135225,True,-4% ב 8.5 שנים,תל אביב -יפו,איתיאל,-0.47,6135-225-1,6135/225,8075.019536337588,32.0488753411,34.7971927665,2007
2007-12-26,2007-12-26,"דיזנגוף 201, תל אביב -יפו",דיזנגוף 201,6901-80-6,חנות,,קרקע,21.7,407000,,,1930.0,,3.0,5400971150,1,690180,False,,תל אביב -יפו,דיזנגוף,,6901-80-6,6901/80,18755.7603686636,32.0874956202,34.7748589668,2007
2007-12-26,2007-12-26,"התבור 22, תל אביב -יפו",התבור 22,7228-13-4,דירה בבית קומות,4.0,שלישית,97.29,2636300,,,2007.0,,5.0,5400344150,1,722813,False,,תל אביב -יפו,התבור,,7228-13-4,7228/13,27097.337855894744,32.0659264407,34.767681754,2007
2007-12-26,2007-12-26,"הרבי מבכרך 24, תל אביב -יפו",הרבי מבכרך 24,7016-156-3,דירה בבית קומות,2.0,ראשונה,62.0,1299000,,,2008.0,,7.0,5400342950,1,7016156,False,,תל אביב -יפו,הרבי מבכרך,,7016-156-3,7016/156,20951.612903225807,32.0571688485,34.7639565498,2007
2007-12-26,2007-12-26,"שבטי ישראל 41, תל אביב -יפו",שבטי ישראל 41,7024-214-11,דירה בבית קומות,2.0,שלישית,50.0,450000,,,1950.0,,3.0,5362584400,1,7024214,False,,תל אביב -יפו,שבטי ישראל,,7024-214-11,7024/214,9000.0,32.0470782358,34.7563059708,2007
2007-12-26,2007-12-26,"יחזקאל קויפמן 6, תל אביב -יפו",יחזקאל קויפמן 6,7003-9-30,חנות,,קרקע,45.6,274000,,,1970.0,,40.0,5400225400,1,70039,False,,תל אביב -יפו,קויפמן יחזקאל,,7003-9-30,7003/9,6008.771929824561,32.0638013718,34.7625542215,2007
2007-12-26,2007-12-26,,,6213-827-2,דירה בבית קומות,2.0,קרקע,32.0,700000,,,1960.0,,,5400059950,2,6213827,False,,תל אביב -יפו,מוזיר יעקב,,6213-827-2,6213/827,21875.0,32.0890060227,34.785859804,2007
2007-12-26,2007-12-26,"דבורה הנביאה 44, תל אביב -יפו",דבורה הנביאה 44,6623-909-2,דירה בבית קומות,7.0,"מרתף,קרקע,ראשונה",210.41,1715000,,,1998.0,,,5401227750,1,6623909,False,,תל אביב -יפו,דבורה הנביאה,,6623-909-2,6623/909,8150.753291193384,32.1185445434,34.8332480477,2007
2007-12-26,2007-12-26,"שפרינצק 7, תל אביב -יפו",שפרינצק 7,7099-43-2,דירה בבית קומות,3.0,,75.0,595000,,,1950.0,,2.0,5400997550,1,709943,False,,תל אביב -יפו,שפרינצק,,7099-43-2,7099/43,7933.333333333333,32.0712469699,34.7830533274,2007
2007-12-26,2007-12-26,"נהריים 3, תל אביב -יפו",נהריים 3,6335-307-13,דירה בבית קומות,4.0,רביעית,89.8,790000,,,1970.0,,4.0,5400030650,1,6335307,False,,תל אביב -יפו,נהריים,,6335-307-13,6335/307,8797.327394209355,32.1206917895,34.8389488812,2007
2007-12-26,2007-12-26,"צבי ברוק 6, תל אביב -יפו",צבי ברוק 6,6911-83-4,דירה בבית קומות,2.0,ראשונה,41.3,975000,,,1930.0,,3.0,5400771050,1,691183,False,43% ב 9 שנים,תל אביב -יפו,ברוק צבי,4.78,6911-83-4,6911/83,23607.74818401937,32.0736957074,34.771817052,2007
2007-12-26,2007-12-26,"מעפילי אגוז 60, תל אביב -יפו",מעפילי אגוז 60,7244-50-17,דירה בבית קומות,3.0,ראשונה,66.5,392000,,,1960.0,,4.0,5400075200,1,724450,False,,תל אביב -יפו,מעפילי אגוז,,7244-50-17,7244/50,5894.736842105263,32.053047368,34.8117759227,2007
2007-12-26,2007-12-26,"מבצע קדש 8, תל אביב -יפו",מבצע קדש 8,6627-351-259,דירה בבית קומות,3.0,שניה,71.32,883000,,,1950.0,,3.0,5401619200,1,6627351,False,,תל אביב -יפו,מבצע קדש,,6627-351-259,6627/351,12380.81884464386,32.1128176786,34.8131040477,2007
2007-12-25,2007-12-25,"שלום עליכם 35, תל אביב -יפו",שלום עליכם 35,6906-160-6,דירה בבית קומות,4.0,רביעית+גג,82.79,1879000,,,1992.0,,3.0,5362532450,1,6906160,False,,תל אביב -יפו,שלום עליכם,,6906-160-6,6906/160,22695.97777509361,32.0778739037,34.7699576743,2007
2007-12-25,2007-12-25,"ויצמן 105, תל אביב -יפו",ויצמן 105,6212-659-3,דירה בבית קומות,3.0,קרקע,59.0,1136000,,,1961.0,,3.0,5402526750,1,6212659,False,,תל אביב -יפו,ויצמן,,6212-659-3,6212/659,19254.237288135595,32.0922735124,34.7902409495,2007
2007-12-25,2007-12-25,"לואי ליפסקי 22, תל אביב -יפו",לואי ליפסקי 22,6213-1172-14,דירה בבית קומות,5.0,חמישית,97.2,2073000,,,1960.0,,7.0,5400312400,1,62131172,False,,תל אביב -יפו,ליפסקי לואי,,6213-1172-14,6213/1172,21327.16049382716,32.0904344697,34.787471113,2007
2007-12-25,2007-12-25,"ויצמן 14, תל אביב -יפו",ויצמן 14,6111-860-27,משרד,,שתים עשרה,115.0,1777000,,,2007.0,,8.0,5362658550,1,6111860,False,,תל אביב -יפו,ויצמן,,6111-860-27,6111/860,15452.173913043478,32.0815970253,34.789751068,2007
2007-12-25,2007-12-25,"מאנה 22, תל אביב -יפו",מאנה 22,6111-642-41,דירה בבית קומות,3.0,ראשונה,72.1,1511000,,,1950.0,,4.0,5400319400,1,6111642,False,33% ב 8.5 שנים,תל אביב -יפו,מאנה,3.88,6111-642-41,6111/642,20957.004160887656,32.0780638712,34.7822385899,2007
2007-12-25,2007-12-25,"מארק שאגאל 6, תל אביב -יפו",מארק שאגאל 6,6883-16-39,דירה בבית קומות,5.0,רביעית,110.55,2220000,,,2005.0,,7.0,5400922050,1,688316,False,,תל אביב -יפו,שגאל מרק,,6883-16-39,6883/16,20081.41112618725,32.1178034376,34.7883421671,2007
2007-12-25,2007-12-25,"הר ציון 28, תל אביב -יפו",הר ציון 28,6975-35-2,דירה בבית קומות,2.0,שלישית,62.0,397000,,,1960.0,,3.0,5362483700,1,697535,False,,תל אביב -יפו,הר ציון,,6975-35-2,6975/35,6403.225806451613,32.0564339829,34.7759910706,2007
2007-12-25,2007-12-25,"ויקטור הוגו 25, תל אביב -יפו",ויקטור הוגו 25,7024-107-2,משרד,,קרקע,32.4,905000,,,1960.0,,3.0,5401597450,1,7024107,False,138% ב 4.5 שנים,תל אביב -יפו,ויקטור הוגו,30.67,7024-107-2,7024/107,27932.0987654321,32.047616128,34.7582656428,2007
2007-12-25,2007-12-25,"גאולה 2, תל אביב -יפו",גאולה 2,6914-30-2,דירה בבית קומות,4.0,,,7752000,,,1991.0,,11.0,5401165000,1,691430,False,,תל אביב -יפו,גאולה,,6914-30-2,6914/30,,32.0722624385,34.7648214393,2007
2007-12-25,2007-12-25,"רוני 43, תל אביב -יפו",רוני 43,6135-47-8,דירה בבית קומות,1.0,,29.0,128000,,,1950.0,,2.0,5401302400,1,613547,False,,תל אביב -יפו,רוני,,6135-47-8,6135/47,4413.793103448276,32.049398985,34.7916183447,2007
2007-12-25,2007-12-25,"סטימצקי 12, תל אביב -יפו",סטימצקי 12,6886-55-4,דירה בבית קומות,5.0,ראשונה,104.86,1850000,,,2008.0,,12.0,5362528650,1,688655,False,,תל אביב -יפו,סטימצקי,,6886-55-4,6886/55,17642.571047110432,32.1133161067,34.7918677427,2007
2007-12-25,2007-12-25,"יאשה חפץ 6, תל אביב -יפו",יאשה חפץ 6,6884-45-19,דירה בבית קומות,5.0,קומה ‎6‏,135.3,3849000,,,2007.0,,12.0,5362644200,1,688445,False,,תל אביב -יפו,חפץ ישה,,6884-45-19,6884/45,28447.893569844786,32.1156979218,34.7878541072,2007
2007-12-25,2007-12-25,"סטימצקי 12, תל אביב -יפו",סטימצקי 12,6886-55-8,דירה בבית קומות,5.0,שניה,104.86,1950000,,,2008.0,,12.0,5362529050,1,688655,False,,תל אביב -יפו,סטימצקי,,6886-55-8,6886/55,18596.22353614343,32.1133161067,34.7918677427,2007
2007-12-24,2007-12-24,"אלעזר בן-עזריה 4, תל אביב -יפו",אלעזר בן-עזריה 4,7071-126-2,דירה בבית קומות,4.0,שניה,100.0,906000,,,2010.0,,4.0,5400343750,1,7071126,False,,תל אביב -יפו,אלעזר בן עזריה,,7071-126-2,7071/126,9060.0,32.0537081746,34.7573862852,2007
2007-12-24,2007-12-24,"העלייה 62, תל אביב -יפו",העלייה 62,7084-289-187,דירה בבית קומות,2.0,תשיעית,56.81,780000,,,2005.0,,10.0,5401185700,1,7084289,False,11% ב 3 שנים,תל אביב -יפו,העליה,3.67,7084-289-187,7084/289,13729.977116704806,32.0555923922,34.7722104301,2007
2007-12-24,2007-12-24,"אפשטיין 4, תל אביב -יפו",אפשטיין 4,6213-820-4,דירה בבית קומות,4.0,ראשונה,80.0,2192000,,,1958.0,,3.0,5400062450,1,6213820,False,48% ב 3.7 שנים,תל אביב -יפו,אפשטיין,12.97,6213-820-4,6213/820,27400.0,32.0888372777,34.7843322674,2007
2007-12-24,2007-12-24,"נחמני 16, תל אביב -יפו",נחמני 16,7451-34-16,משרד,,שניה,341.5,2950000,,,1960.0,,10.0,5401570100,1,745134,False,42% ב 0.4 שנים,תל אביב -יפו,נחמני,105.0,7451-34-16,7451/34,8638.360175695461,32.0659925155,34.7739477725,2007
2007-12-24,2007-12-24,"ברכיה 16, תל אביב -יפו",ברכיה 16,6979-10-69,דירה בבית קומות,2.0,,50.0,352260,,,1950.0,,4.0,5362489050,1,697910,False,,תל אביב -יפו,ברכיה,,6979-10-69,6979/10,7045.2,32.0529239552,34.7892835444,2007
2007-12-24,2007-12-24,"דם המכבים 1, תל אביב -יפו",דם המכבים 1,6150-724-2,דירה בבית קומות,2.0,שניה,55.0,682000,,,1950.0,,1.0,5362530750,1,6150724,False,,תל אביב -יפו,דם המכבים,,6150-724-2,6150/724,12400.0,32.0660211963,34.7996466142,2007
2007-12-24,2007-12-24,"יעקב עמדן 3, תל אביב -יפו",יעקב עמדן 3,6957-129-4,דירה בבית קומות,2.0,ראשונה,50.05,1448000,,,1957.0,,3.0,5401215800,1,6957129,False,58% ב 2.8 שנים,תל אביב -יפו,עמדן יעקב,20.71,6957-129-4,6957/129,28931.06893106893,32.0909446148,34.778519496,2007
2007-12-24,2007-12-24,"ליברמן 7, תל אביב -יפו",ליברמן 7,6215-155-8,דירה בבית קומות,4.0,שניה,81.7,1700000,,,1960.0,,4.0,5362694100,1,6215155,False,54% ב 1 שנים,תל אביב -יפו,ליברמן,54.0,6215-155-8,6215/155,20807.833537331702,32.0855728629,34.7784480613,2007
2007-12-24,2007-12-24,"בארי 18, תל אביב -יפו",בארי 18,6217-337-1,דירה בבית קומות,2.0,מרתף,36.6,546000,,,1950.0,,3.0,5400151050,1,6217337,False,,תל אביב -יפו,בארי,,6217-337-1,6217/337,14918.032786885246,32.0830422929,34.7872340452,2007
2007-12-24,2007-12-24,"בעל העקידה 1, תל אביב -יפו",בעל העקידה 1,6971-3-38,דירה בבית קומות,4.0,,82.0,1788696,,,1950.0,,3.0,5401125000,1,69713,False,,תל אביב -יפו,בעל העקידה,,6971-3-38,6971/3,21813.36585365853,32.0510469672,34.7774829049,2007
2007-12-24,2007-12-24,"הירקון 65, תל אביב -יפו",הירקון 65,6907-11-3,דירה בבית קומות,3.5,ראשונה,70.0,1640000,,,1949.0,,3.0,5401449300,1,690711,False,,תל אביב -יפו,הירקון,,6907-11-3,6907/11,23428.571428571428,32.0760169021,34.7665497472,2007
2007-12-24,2007-12-24,"דם המכבים 37, תל אביב -יפו",דם המכבים 37,6150-531-10,דירה בבית קומות,3.0,שניה,67.0,870000,,,1950.0,,1.0,5362569050,1,6150531,False,,תל אביב -יפו,דם המכבים,,6150-531-10,6150/531,12985.074626865671,32.0693870069,34.7997784781,2007
2007-12-24,2007-12-24,"מלכי ישראל 17, תל אביב -יפו",מלכי ישראל 17,6952-159-51,דירה בבית קומות,2.0,רביעית,49.0,3023000,,,1960.0,,8.0,5400096700,1,6952159,False,,תל אביב -יפו,מלכי ישראל,,6952-159-51,6952/159,61693.87755102041,32.0811545979,34.7796455307,2007
2007-12-24,2007-12-24,"הרבי מבכרך 24, תל אביב -יפו",הרבי מבכרך 24,7016-156-10,דירה בבית קומות,3.0,חמישית,74.0,1046000,,,2008.0,,7.0,5400718300,1,7016156,False,,תל אביב -יפו,הרבי מבכרך,,7016-156-10,7016/156,14135.135135135137,32.0571688485,34.7639565498,2007
2007-12-24,2007-12-24,"דיזנגוף 322, תל אביב -יפו",דיזנגוף 322,6963-11-4,דירה בבית קומות,3.0,ראשונה,50.7,1160000,,,2007.0,,6.0,5403565450,1,696311,True,-10% ב 0.2 שנים,תל אביב -יפו,דיזנגוף,-50.0,6963-11-4,6963/11,22879.68441814596,32.0958083154,34.7763399293,2007
2007-12-24,2007-12-24,"זלוציסטי 8, תל אביב -יפו",זלוציסטי 8,6108-605-4,דירה בבית קומות,3.0,שניה,61.39,1525000,,,1970.0,,4.0,5401381600,1,6108605,False,,תל אביב -יפו,זלוציסטי,,6108-605-4,6108/605,24841.17934517022,32.0833231699,34.7936705746,2007
2007-12-24,2007-12-24,"ז'אן ז'ורס 8, תל אביב -יפו",ז'אן ז'ורס 8,7078-52-10,דירה בבית קומות,2.0,ראשונה,,1275000,,,1930.0,,2.0,5400138750,1,707852,False,,תל אביב -יפו,ז'ורס ז'אן,,7078-52-10,7078/52,,32.0830031722,34.7728730413,2007
2007-12-23,2007-12-23,"מעפילי אגוז 48, תל אביב -יפו",מעפילי אגוז 48,7241-54-13,דירה בבית קומות,4.0,רביעית,78.3,645000,,,1970.0,,8.0,5400200550,1,724154,False,,תל אביב -יפו,מעפילי אגוז,,7241-54-13,7241/54,8237.547892720308,32.0523379576,34.8123570124,2007
2007-12-23,2007-12-23,"הרב צירלסון 14, תל אביב -יפו",הרב צירלסון 14,6106-387-12,דירה בבית קומות,2.5,שניה,59.0,1160000,,,1960.0,,3.0,5362472500,1,6106387,False,,תל אביב -יפו,הרב צירלסון,,6106-387-12,6106/387,19661.01694915254,32.0936486226,34.7939593696,2007
2007-12-23,2007-12-23,"שבע השקמים 6, תל אביב -יפו",שבע השקמים 6,6904-81-5,דירה בבית קומות,4.5,שלישית,119.6,2200000,,,1935.0,,3.0,5400936100,1,690481,False,250% ב 0.8 שנים,תל אביב -יפו,שבע השקמים,312.5,6904-81-5,6904/81,18394.64882943144,32.0724762293,34.7750509077,2007
2007-12-23,2007-12-23,"לילינבלום 28, תל אביב -יפו",לילינבלום 28,6924-2-3,משרד,,,,405000,,,1950.0,,1.0,5400918350,1,69242,False,,תל אביב -יפו,לילינבלום,,6924-2-3,6924/2,,32.062029966,34.77061823,2007
2007-12-23,2007-12-23,"לילינבלום 28, תל אביב -יפו",לילינבלום 28,6924-2-2,משרד,,,,350000,,,1950.0,,1.0,5400917100,1,69242,False,,תל אביב -יפו,לילינבלום,,6924-2-2,6924/2,,32.062029966,34.77061823,2007
2007-12-23,2007-12-23,"איתן לבני 63, תל אביב -יפו",איתן לבני 63,6137-112-98,דירה בבית קומות,4.0,עשירית,93.37,990000,,,2000.0,,14.0,5400609400,1,6137112,False,,תל אביב -יפו,לבני איתן,,6137-112-98,6137/112,10602.977401735032,32.0441955975,34.8010810918,2007
2007-12-23,2007-12-23,"קורדובירו 18, תל אביב -יפו",קורדובירו 18,7084-30-5,דירה בבית קומות,3.0,ראשונה,69.12,945000,,,1950.0,,6.0,5362507200,1,708430,False,,תל אביב -יפו,קורדובירו,,7084-30-5,7084/30,13671.875,32.0565894784,34.7689893572,2007
2007-12-23,2007-12-23,"מנדלי מוכר ספרים 28, תל אביב -יפו",מנדלי מוכר ספרים 28,6906-84-7,דירה בבית קומות,4.0,רביעית,73.8,1697000,,,1997.0,,5.0,5362569950,1,690684,False,,תל אביב -יפו,מנדלי מוכר ספרים,,6906-84-7,6906/84,22994.579945799454,32.0789208091,34.7714518282,2007
2007-12-23,2007-12-23,"שלמה בן-יוסף 24, תל אביב -יפו",שלמה בן-יוסף 24,6631-215-152,דירה בבית קומות,4.0,שישית,124.0,2160000,,,1985.0,,8.0,5400667500,1,6631215,False,,תל אביב -יפו,בן יוסף שלמה,,6631-215-152,6631/215,17419.354838709678,32.1267703565,34.7987910509,2007
2007-12-23,2007-12-23,"הלסינקי 19, תל אביב -יפו",הלסינקי 19,6108-391-16,משרד,,,107.0,1342000,,,1960.0,,5.0,5400266550,1,6108391,False,,תל אביב -יפו,הלסינקי,,6108-391-16,6108/391,12542.056074766357,32.0853148373,34.7921843867,2007
2007-12-23,2007-12-23,"משה זטורי 3, תל אביב -יפו",משה זטורי 3,6107-392-7,דירה בבית קומות,3.0,שניה,67.0,1235000,,,1970.0,,4.0,5400486950,1,6107392,False,,תל אביב -יפו,זטורי משה,,6107-392-7,6107/392,18432.83582089552,32.0921391411,34.7946674564,2007
2007-12-23,2007-12-23,"יפת 171, תל אביב -יפו",יפת 171,7075-4-70,דירה בבית קומות,3.0,חמישית,63.2,289000,,,1970.0,,5.0,5362397100,1,70754,False,,תל אביב -יפו,יפת,,7075-4-70,7075/4,4572.784810126582,32.0363083487,34.7496543905,2007
2007-12-23,2007-12-23,"לואי ליפסקי 8, תל אביב -יפו",לואי ליפסקי 8,6213-495-5,דירה בבית קומות,3.0,שניה,60.0,1588000,,,1960.0,,4.0,5362469650,1,6213495,False,84% ב 3.5 שנים,תל אביב -יפו,ליפסקי לואי,24.0,6213-495-5,6213/495,26466.666666666668,32.0888645434,34.7886043905,2007
2007-12-23,2007-12-23,"גלוסקין 4, תל אביב -יפו",גלוסקין 4,6108-362-12,דירה בבית קומות,3.0,שלישית,64.0,1358000,,,1955.0,,3.0,5400764000,1,6108362,False,72% ב 2.3 שנים,תל אביב -יפו,גלוסקין,31.3,6108-362-12,6108/362,21218.75,32.0865104581,34.7937689807,2007
2007-12-23,2007-12-23,"סירקין 10, תל אביב -יפו",סירקין 10,6906-155-4,דירה בבית קומות,2.5,ראשונה,60.0,1515000,,,1960.0,,4.0,5400123000,1,6906155,False,,תל אביב -יפו,סירקין,,6906-155-4,6906/155,25250.0,32.0778802789,34.7695877467,2007
2007-12-21,2007-12-21,"ברגסון 13, תל אביב -יפו",ברגסון 13,6649-303-8,דירה בבית קומות,2.0,שלישית,50.3,829000,,,1960.0,,4.0,5400526950,1,6649303,False,,תל אביב -יפו,ברגסון,,6649-303-8,6649/303,16481.113320079523,32.1133418181,34.7939606076,2007
2007-12-21,2007-12-21,"יעקב יוסף כ""ץ 14, תל אביב -יפו","יעקב יוסף כ""ץ 14",7047-110-5,דירה בבית קומות,3.5,שניה,70.3,525000,,,1970.0,,2.0,5362365700,1,7047110,False,,תל אביב -יפו,"כ""ץ יעקב יוסף",,7047-110-5,7047/110,7467.994310099573,32.0399393871,34.7516423643,2007
2007-12-20,2007-12-20,"אוהלי יעקב 11, תל אביב -יפו",אוהלי יעקב 11,6992-39-30,דירה בבית קומות,3.0,שמינית,65.0,440000,,,1983.0,,8.0,5403677600,1,699239,False,,תל אביב -יפו,אהלי יעקב,,6992-39-30,6992/39,6769.2307692307695,32.0424523499,34.7627924292,2007
2007-12-20,2007-12-20,"המעפילים 21, תל אביב -יפו",המעפילים 21,7068-227-1,דירה בבית קומות,3.0,,84.0,1250000,,,1950.0,,,5400119350,1,7068227,False,,תל אביב -יפו,המעפילים,,7068-227-1,7068/227,14880.952380952382,32.0572382074,34.7891735569,2007
2007-12-20,2007-12-20,"לובטקין צביה 40, תל אביב -יפו",לובטקין צביה 40,6146-447-21,דירה בבית קומות,4.0,שישית,89.41,810000,,,2002.0,,9.0,5362446600,1,6146447,False,,תל אביב -יפו,לובטקין צביה,,6146-447-21,6146/447,9059.389330052569,32.0488689452,34.8076700929,2007
2007-12-20,2007-12-20,"הוז דב 2, תל אביב -יפו",הוז דב 2,7091-44-14,דירה בבית קומות,3.0,רביעית,86.33,2527000,,,1950.0,,4.0,5401084200,1,709144,False,,תל אביב -יפו,הוז דב,,7091-44-14,7091/44,29271.40044017144,32.078839799,34.7722313275,2007
2007-12-20,2007-12-20,"שלום עליכם 48, תל אביב -יפו",שלום עליכם 48,6906-74-2,דירה בבית קומות,3.0,ראשונה,68.0,1620000,,,1970.0,,4.0,5362532800,1,690674,False,,תל אביב -יפו,שלום עליכם,,6906-74-2,6906/74,23823.529411764703,32.0780076351,34.7706037099,2007
2007-12-20,2007-12-20,"בר יוחאי 11, תל אביב -יפו",בר יוחאי 11,7061-232-11,משרד,,ראשונה,38.6,400000,,,1970.0,,4.0,5401296250,1,7061232,False,,תל אביב -יפו,בר יוחאי,,7061-232-11,7061/232,10362.694300518137,32.0535271819,34.771949777,2007
2007-12-20,2007-12-20,"קהילת ריגה 1, תל אביב -יפו",קהילת ריגה 1,6625-863-10,דירה בבית קומות,3.0,שלישית,41.32,1104000,,,1960.0,,3.0,5362550950,1,6625863,False,,תל אביב -יפו,קהילת ריגא,,6625-863-10,6625/863,26718.296224588576,32.1137575954,34.8198196209,2007
2007-12-20,2007-12-20,"ג'ורג' אליוט 8, תל אביב -יפו",ג'ורג' אליוט 8,7431-4-5,דירה בבית קומות,4.0,שלישית,68.22,1813000,,,1970.0,,6.0,5362370250,1,74314,False,,תל אביב -יפו,אליוט ג'ורג',,7431-4-5,7431/4,26575.78422749927,32.0680534883,34.7743999615,2007
2007-12-20,2007-12-20,"נחל הבשור 23, תל אביב -יפו",נחל הבשור 23,7074-24-35,דירה בבית קומות,3.0,שלישית,51.2,386000,,,1960.0,,4.0,5400529800,1,707424,False,,תל אביב -יפו,נחל הבשור,,7074-24-35,7074/24,7539.0625,32.0389185708,34.7581705078,2007
2007-12-20,2007-12-20,"חפר 23, תל אביב -יפו",חפר 23,6979-10-68,דירה בבית קומות,1.0,ראשונה,,140000,,,1950.0,,4.0,5401067650,1,697910,False,,תל אביב -יפו,חפר,,6979-10-68,6979/10,,32.0529239552,34.7892835444,2007
2007-12-20,2007-12-20,"צרעה 2, תל אביב -יפו",צרעה 2,7242-24-14,דירה בבית קומות,1.0,ראשונה,28.0,228000,,,1960.0,,5.0,5400117300,1,724224,False,,תל אביב -יפו,צרעה,,7242-24-14,7242/24,8142.857142857143,32.0472838871,34.8096740901,2007
2007-12-20,2007-12-20,"ירמיהו 35, תל אביב -יפו",ירמיהו 35,6963-23-1,דירה בבית קומות,2.0,קרקע,46.6,942000,,,1947.0,,3.0,5362388850,1,696323,False,76% ב 9.9 שנים,תל אביב -יפו,ירמיהו,7.68,6963-23-1,6963/23,20214.59227467811,32.0951041608,34.7771720405,2007
2007-12-20,2007-12-20,"רב צעיר 10, תל אביב -יפו",רב צעיר 10,6212-1190-8,דירה בבית קומות,2.0,ראשונה,55.2,1320000,,,1950.0,,3.0,5400202250,1,62121190,False,55% ב 4.3 שנים,תל אביב -יפו,רב צעיר,12.79,6212-1190-8,6212/1190,23913.043478260868,32.0930165998,34.7915001796,2007
2007-12-20,2007-12-20,"יצחק שדה 34, תל אביב -יפו",יצחק שדה 34,7067-44-123,משרד,,שלישית,31.0,217000,,,1960.0,,6.0,5362398750,1,706744,True,-15% ב 7.6 שנים,תל אביב -יפו,יצחק שדה,-1.97,7067-44-123,7067/44,7000.0,32.0646081967,34.7875935388,2007
2007-12-20,2007-12-20,"מעפילי אגוז 92, תל אביב -יפו",מעפילי אגוז 92,7244-7-16,דירה בבית קומות,3.0,רביעית,60.0,465000,,,1970.0,,4.0,5362650750,1,72447,False,,תל אביב -יפו,מעפילי אגוז,,7244-7-16,7244/7,7750.0,32.0553500024,34.8085631192,2007
2007-12-20,2007-12-20,"לכיש 3, תל אביב -יפו",לכיש 3,6952-48-11,משרד,,,66.0,630000,,,1970.0,,3.0,5401184900,1,695248,False,,תל אביב -יפו,לכיש,,6952-48-11,6952/48,9545.454545454546,32.0799188274,34.7789513533,2007
2007-12-20,2007-12-20,"הברזל 38, תל אביב -יפו",הברזל 38,6639-102-6,מחסנים,,ראשונה,206.25,2341000,,,1999.0,,6.0,5401251200,1,6639102,False,,תל אביב -יפו,הברזל,,6639-102-6,6639/102,11350.30303030303,32.1103658763,34.842655031,2007
2007-12-20,2007-12-20,"השומר 6, תל אביב -יפו",השומר 6,6918-20-12,דירה בבית קומות,2.0,ראשונה,41.9,762000,,,2003.0,,3.0,5400056200,1,691820,False,27% ב 3.6 שנים,תל אביב -יפו,השומר,7.5,6918-20-12,6918/20,18186.157517899763,32.0683876602,34.769385097,2007
2007-12-20,2007-12-20,"מח""ל 62, תל אביב -יפו","מח""ל 62",6146-448-21,דירה בבית קומות,4.0,קומה ‎5‏,93.55,850000,,,1998.0,,12.0,5362363600,1,6146448,False,,תל אביב -יפו,"מח""ל",,6146-448-21,6146/448,9086.050240513096,32.0488476586,34.8087380241,2007
2007-12-20,2007-12-20,"באר טובייה 12, תל אביב -יפו",באר טובייה 12,6954-83-4,דירה בבית קומות,3.0,שלישית,64.6,1695000,,,1960.0,,3.0,5400718700,1,695483,False,33% ב 0.7 שנים,תל אביב -יפו,באר טוביה,47.14,6954-83-4,6954/83,26238.39009287926,32.0845297634,34.7753832461,2007
2007-12-20,2007-12-20,"שמעון רוקח 5, תל אביב -יפו",שמעון רוקח 5,6929-123-1,בית בודד,5.0,ראשונה,188.0,6600000,,,1940.0,,2.0,5362502250,1,6929123,False,,תל אביב -יפו,רוקח שמעון,,6929-123-1,6929/123,35106.382978723406,32.0605272724,34.7655286892,2007
2007-12-20,2007-12-20,"בן-יהודה 51, תל אביב -יפו",בן-יהודה 51,6905-61-16,דירה בבית קומות,3.0,שלישית,55.8,1180000,,,1994.0,,6.0,5401342850,1,690561,False,,תל אביב -יפו,בן יהודה,,6905-61-16,6905/61,21146.95340501792,32.0786883017,34.7686355367,2007
2007-12-20,2007-12-20,"שלמה בן-יוסף 27, תל אביב -יפו",שלמה בן-יוסף 27,6631-209-112,דירה בבית קומות,4.0,ארבע עשרה,107.0,2858000,,,1984.0,,15.0,5400060350,1,6631209,False,56% ב 4.8 שנים,תל אביב -יפו,בן יוסף שלמה,11.67,6631-209-112,6631/209,26710.28037383177,32.126868412,34.7973753388,2007
2007-12-20,2007-12-20,"שמחה 31, תל אביב -יפו",שמחה 31,6135-45-18,דירה בבית קומות,1.0,ראשונה,25.0,44736000,,,1950.0,,2.0,5405066900,1,613545,False,,תל אביב -יפו,שמחה,,6135-45-18,6135/45,1789440.0,32.0493803687,34.7920520168,2007
2007-12-20,2007-12-20,"הרב קוק 35, תל אביב -יפו",הרב קוק 35,6915-55-7,משרד,,,35.0,86000,,,1940.0,,1.0,5401388200,1,691555,False,,תל אביב -יפו,הרב קוק,,6915-55-7,6915/55,2457.1428571428573,32.0709399493,34.7682557795,2007
2007-12-20,2007-12-20,"מעפילי אגוז 49, תל אביב -יפו",מעפילי אגוז 49,7241-17-1,דירה בבית קומות,3.0,ראשונה,58.0,500000,,,1970.0,,4.0,5362301750,1,724117,False,16% ב 9.8 שנים,תל אביב -יפו,מעפילי אגוז,1.63,7241-17-1,7241/17,8620.689655172413,32.0521805458,34.8106953177,2007
2007-12-20,2007-12-20,"שמחה 31, תל אביב -יפו",שמחה 31,6135-45-17,דירה בבית קומות,2.0,ראשונה,50.0,290000,,,1950.0,,2.0,5400329300,1,613545,False,,תל אביב -יפו,שמחה,,6135-45-17,6135/45,5800.0,32.0493803687,34.7920520168,2007
2007-12-20,2007-12-20,"שמואל רודנסקי 10, תל אביב -יפו",שמואל רודנסקי 10,6630-759-35,דירה בבית קומות,5.0,שישית,116.4,2365000,,,1998.0,,8.0,5362662700,1,6630759,False,,תל אביב -יפו,רודנסקי שמואל,,6630-759-35,6630/759,20317.86941580756,32.1201361835,34.7932577135,2007
2007-12-20,2007-12-20,"הברון הירש 5, תל אביב -יפו",הברון הירש 5,6768-11-63,דירה בבית קומות,2.0,שלישית,42.9,1070000,,,1959.0,,4.0,5362375600,1,676811,False,46% ב 9.1 שנים,תל אביב -יפו,הברון הירש,5.05,6768-11-63,6768/11,24941.724941724944,32.1101080009,34.7960882888,2007
2007-12-20,2007-12-20,"רופין 18, תל אביב -יפו",רופין 18,6968-97-17,דירה בבית קומות,3.0,שלישית,88.3,1951000,,,1950.0,,4.0,5401282200,1,696897,False,,תל אביב -יפו,רופין,,6968-97-17,6968/97,22095.1302378256,32.0825941358,34.7707351476,2007
2007-12-20,2007-12-20,"המסגר 26, תל אביב -יפו",המסגר 26,7067-1-21,משרד,,שניה,476.0,4030000,,,1990.0,,5.0,5400331400,1,70671,False,,תל אביב -יפו,המסגר,,7067-1-21,7067/1,8466.38655462185,32.0631486934,34.7865627039,2007
2007-12-19,2007-12-19,"בורוכוב 20, תל אביב -יפו",בורוכוב 20,7448-5-1,דירה בבית קומות,3.0,ראשונה,78.0,983000,,,2001.0,,5.0,5401258600,1,74485,True,-30% ב 3.4 שנים,תל אביב -יפו,בורוכוב,-8.82,7448-5-1,7448/5,12602.564102564103,32.071604379,34.7759243774,2007
2007-12-19,2007-12-19,"יחזקאל 42, תל אביב -יפו",יחזקאל 42,6959-19-5,דירה בבית קומות,4.0,שלישית,108.21,1895000,,,1960.0,,5.0,5362438350,1,695919,False,,תל אביב -יפו,יחזקאל,,6959-19-5,6959/19,17512.24470936143,32.0944796355,34.7773140115,2007
2007-12-19,2007-12-19,"הקשת 44, תל אביב -יפו",הקשת 44,7065-88-4,דירה בבית קומות,5.0,ראשונה,109.0,650000,,,1960.0,,1.0,5400236100,1,706588,False,,תל אביב -יפו,הקשת,,7065-88-4,7065/88,5963.302752293578,32.0428886825,34.7754477541,2007
2007-12-19,2007-12-19,"משה דיין 55, תל אביב -יפו",משה דיין 55,6130-226-46,דירה בבית קומות,2.5,רביעית,46.4,560000,,,1970.0,,4.0,5362403600,1,6130226,False,,תל אביב -יפו,דיין משה,,6130-226-46,6130/226,12068.96551724138,32.055540267,34.7999034531,2007
2007-12-19,2007-12-19,"סירקין 19, תל אביב -יפו",סירקין 19,6906-138-9,דירה בבית קומות,2.0,מרתף,46.97,729000,,,1935.0,,4.0,5400742300,1,6906138,False,264% ב 8.9 שנים,תל אביב -יפו,סירקין,29.66,6906-138-9,6906/138,15520.54502874175,32.0785802962,34.7696693525,2007
2007-12-19,2007-12-19,"השופטים 31, תל אביב -יפו",השופטים 31,6111-234-3,חנות,,קרקע,,540000,,,1970.0,,4.0,5400376350,1,6111234,False,15% ב 2.6 שנים,תל אביב -יפו,השופטים,5.77,6111-234-3,6111/234,,32.0764294337,34.7817681372,2007
2007-12-19,2007-12-19,"זיגלבוים 9, תל אביב -יפו",זיגלבוים 9,6986-72-4,דירה בבית קומות,2.0,ראשונה,43.0,750000,,,1950.0,,1.0,5362406500,1,698672,False,,תל אביב -יפו,זיגלבוים,,6986-72-4,6986/72,17441.86046511628,32.040176988,34.7774097212,2007
2007-12-19,2007-12-19,"דוש 1, תל אביב -יפו",דוש 1,6108-725-16,דירה בבית קומות,4.0,ראשונה,,3100000,,,2010.0,,24.0,5400525250,1,6108725,False,,תל אביב -יפו,דוש,,6108-725-16,6108/725,,32.0897079403,34.7973806673,2007
2007-12-19,2007-12-19,"משה דיין 55, תל אביב -יפו",משה דיין 55,6130-226-45,דירה בבית קומות,4.5,רביעית,46.4,690000,,,1970.0,,4.0,5362256400,1,6130226,False,,תל אביב -יפו,דיין משה,,6130-226-45,6130/226,14870.689655172417,32.055540267,34.7999034531,2007
2007-12-19,2007-12-19,"האמוראים 1, תל אביב -יפו",האמוראים 1,6649-571-33,דירה בבית קומות,5.0,שמינית,140.0,2172000,,,1970.0,,9.0,5362487000,1,6649571,False,,תל אביב -יפו,האמוראים,,6649-571-33,6649/571,15514.285714285714,32.1135295805,34.7933386663,2007
2007-12-19,2007-12-19,"יהודה המכבי 22, תל אביב -יפו",יהודה המכבי 22,6212-308-1,דירה בבית קומות,3.0,ראשונה,61.93,1330000,,,1960.0,,3.0,5400314450,1,6212308,False,,תל אביב -יפו,יהודה המכבי,,6212-308-1,6212/308,21475.85984175682,32.093601011,34.7883790312,2007
2007-12-19,2007-12-19,"צלילי חנינא 19, תל אביב -יפו",צלילי חנינא 19,6146-320-122,דירה בבית קומות,3.0,שמינית,73.11,770000,,,2000.0,,11.0,5362241600,1,6146320,False,15% ב 7.5 שנים,תל אביב -יפו,צלילי חנינא,2.0,6146-320-122,6146/320,10532.074955546435,32.0487555179,34.8116326093,2007
2007-12-19,2007-12-19,"חברה חדשה 13, תל אביב -יפו",חברה חדשה 13,6213-1305-13,דירה בבית קומות,5.0,רביעית,162.0,2330000,,,1970.0,,5.0,5400833800,1,62131305,False,,תל אביב -יפו,חברה חדשה,,6213-1305-13,6213/1305,14382.716049382716,32.0854362911,34.7904550679,2007
2007-12-19,2007-12-19,"אברבנאל 45, תל אביב -יפו",אברבנאל 45,7051-108-41,דירה בבית קומות,2.0,,50.0,426000,,,2006.0,,9.0,5407608700,1,7051108,False,,תל אביב -יפו,אברבנאל,,7051-108-41,7051/108,8520.0,32.0556294591,34.7672773398,2007
2007-12-19,2007-12-19,"אברבנאל 45, תל אביב -יפו",אברבנאל 45,7051-108-6,חנות,,,,99000,,,2006.0,,9.0,5407609500,1,7051108,False,,תל אביב -יפו,אברבנאל,,7051-108-6,7051/108,,32.0556294591,34.7672773398,2007
2007-12-19,2007-12-19,"תקוע 1, תל אביב -יפו",תקוע 1,7242-12-9,דירה בבית קומות,3.0,שניה,49.0,360000,,,1960.0,,5.0,5362657400,1,724212,False,,תל אביב -יפו,תקוע,,7242-12-9,7242/12,7346.938775510204,32.0466442573,34.8079817055,2007
2007-12-19,2007-12-19,"רמברנדט 8, תל אביב -יפו",רמברנדט 8,6217-47-6,דירה בבית קומות,2.0,ראשונה,55.5,580000,,,1951.0,,3.0,5401354750,1,621747,False,,תל אביב -יפו,רמברנדט,,6217-47-6,6217/47,10450.450450450451,32.0821404772,34.7822131517,2007
2007-12-19,2007-12-19,"חברה חדשה 4, תל אביב -יפו",חברה חדשה 4,6213-608-4,דירה בבית קומות,3.0,ראשונה,65.0,1420000,,,1960.0,,4.0,5362232100,1,6213608,False,,תל אביב -יפו,חברה חדשה,,6213-608-4,6213/608,21846.153846153848,32.0845319863,34.7911174429,2007
2007-12-19,2007-12-19,"משה פרלוק 10, תל אביב -יפו",משה פרלוק 10,6886-48-7,דירה בבית קומות,5.0,שלישית,116.1,1788000,,,2000.0,,7.0,5362485400,1,688648,False,2% ב 8 שנים,תל אביב -יפו,פרלוק משה,0.25,6886-48-7,6886/48,15400.516795865631,32.1151929055,34.7919803815,2007
2007-12-19,2007-12-19,"כפר יונה 21, תל אביב -יפו",כפר יונה 21,6769-30-2,דירה בבית קומות,3.0,ראשונה,51.6,1400000,,,1950.0,,3.0,5362498150,1,676930,False,,תל אביב -יפו,כפר יונה,,6769-30-2,6769/30,27131.782945736435,32.1099592102,34.801053488,2007
2007-12-18,2007-12-18,"חובבי ציון 3, תל אביב -יפו",חובבי ציון 3,6910-10-4,דירה בבית קומות,2.0,שניה,60.0,1306000,,,1960.0,,4.0,5362369450,1,691010,False,,תל אביב -יפו,חובבי ציון,,6910-10-4,6910/10,21766.666666666668,32.0744601834,34.7685850554,2007
2007-12-18,2007-12-18,"שרון אריה אדר' 4, תל אביב -יפו",שרון אריה אדר' 4,6623-932-10,דירה בבית קומות,4.0,קרקע,114.0,2520000,,,2003.0,,5.0,5362535300,1,6623932,False,69% ב 4.1 שנים,תל אביב -יפו,שרון אריה,16.83,6623-932-10,6623/932,22105.263157894737,32.1147098834,34.8281211952,2007
2007-12-18,2007-12-18,"משה אבן עזרא 10, תל אביב -יפו",משה אבן עזרא 10,6215-292-9,דירה בבית קומות,1.0,ראשונה,,276000,,,1950.0,,3.0,5362362800,1,6215292,False,,תל אביב -יפו,בן עזרא,,6215-292-9,6215/292,,32.0845695987,34.7804422704,2007
2007-12-18,2007-12-18,"שיק 3, תל אביב -יפו",שיק 3,6993-62-6,דירה בבית קומות,4.0,קרקע,80.17,743000,,,1960.0,,2.0,5400113100,1,699362,False,,תל אביב -יפו,שיק,,6993-62-6,6993/62,9267.805912436072,32.0407656992,34.764707447,2007
2007-12-18,2007-12-18,"קדושי השואה 28, תל אביב -יפו",קדושי השואה 28,6632-467-11,דירה בבית קומות,5.0,רביעית,112.12,2720000,,,2003.0,,7.0,5362483300,1,6632467,False,39% ב 2.7 שנים,תל אביב -יפו,קדושי השואה,14.44,6632-467-11,6632/467,24259.721726721367,32.1284348901,34.7930776226,2007
2007-12-18,2007-12-18,"אליעזר קשאני 3, תל אביב -יפו",אליעזר קשאני 3,6628-798-221,דירה בבית קומות,5.0,ארבע עשרה וחמש עשרה,139.35,3560000,,,1980.0,,14.0,5362407400,1,6628798,False,,תל אביב -יפו,קשאני אליעזר,,6628-798-221,6628/798,25547.18335127377,32.1254294991,34.8040013349,2007
2007-12-18,2007-12-18,"רבי חנינא 3, תל אביב -יפו",רבי חנינא 3,7079-12-4,משרד,,,37.0,302000,,,1960.0,,,5401094100,1,707912,False,,תל אביב -יפו,רבי חנינא,,7079-12-4,7079/12,8162.162162162162,32.0531226096,34.7558245992,2007
2007-12-18,2007-12-18,"שארית ישראל 37, תל אביב -יפו",שארית ישראל 37,7087-171-39,משרד,,שלישית,182.65,1700000,,,2000.0,,5.0,5400591700,1,7087171,False,,תל אביב -יפו,שארית ישראל,,7087-171-39,7087/171,9307.4185600876,32.0523037049,34.7643089372,2007
2007-12-18,2007-12-18,"יהודה הלוי 25, תל אביב -יפו",יהודה הלוי 25,6924-4-2,משרד,,עשרים ושבע,1052.0,16542000,,,2007.0,,3.0,5401232350,1,69244,False,,תל אביב -יפו,יהודה הלוי,,6924-4-2,6924/4,15724.334600760456,32.0618639354,34.7709646872,2007
2007-12-18,2007-12-18,"הרצל 36, תל אביב -יפו",הרצל 36,6930-52-11,דירה בבית קומות,2.0,ראשונה,25.58,198000,,,1950.0,,3.0,5400997200,1,693052,False,,תל אביב -יפו,הרצל,,6930-52-11,6930/52,7740.422204847538,32.0598364281,34.7704520138,2007
2007-12-18,2007-12-18,"סלע יעקב 6, תל אביב -יפו",סלע יעקב 6,6146-336-5,דירה בבית קומות,5.0,שניה,108.22,970000,,,1992.0,,6.0,5401366350,1,6146336,False,,תל אביב -יפו,סלע יעקב,,6146-336-5,6146/336,8963.223064128628,32.0478052679,34.8109976992,2007
2007-12-18,2007-12-18,"פנחס רוזן 11, תל אביב -יפו",פנחס רוזן 11,6636-800-1,קוטג' דו משפחתי,8.0,,180.0,4200000,,,1970.0,,,5362194550,1,6636800,False,,תל אביב -יפו,רוזן פנחס,,6636-800-1,6636/800,23333.33333333333,32.1083746793,34.8266286436,2007
2007-12-18,2007-12-18,"שיינקין 67, תל אביב -יפו",שיינקין 67,7441-9-2,דירה בבית קומות,4.0,קרקע,85.7,1674000,,,1950.0,,4.0,5362290650,1,74419,False,,תל אביב -יפו,שיינקין,,7441-9-2,7441/9,19533.255542590432,32.068181925,34.7789261506,2007
2007-12-18,2007-12-18,"רבי פנחס 13, תל אביב -יפו",רבי פנחס 13,7079-15-18,דירה בבית קומות,3.0,שניה,57.3,670000,,,1950.0,2008.0,2.0,5362667650,1,707915,False,,תל אביב -יפו,רבי פנחס,,7079-15-18,7079/15,11692.844677137871,32.0530353024,34.7563889231,2007
2007-12-18,2007-12-18,"השחקנים 2, תל אביב -יפו",השחקנים 2,6624-510-4,דירה בבית קומות,5.0,ראשונה+שניה,116.64,1887000,,,1997.0,,1.0,5362227150,1,6624510,False,,תל אביב -יפו,השחקנים,,6624-510-4,6624/510,16177.98353909465,32.1206308835,34.8291450753,2007
2007-12-18,2007-12-18,"השיטה 2, תל אביב -יפו",השיטה 2,7069-118-1,דירה בבית קומות,2.0,ראשונה,70.0,520000,,,1945.0,,1.0,5400247300,1,7069118,False,,תל אביב -יפו,השיטה,,7069-118-1,7069/118,7428.571428571428,32.0519672618,34.785675782,2007
2007-12-18,2007-12-18,"עבד א-ראוף אל-ביטאר 16, תל אביב -יפו",עבד א-ראוף אל-ביטאר 16,7022-113-2,חנות,,,61.0,1002000,,,1972.0,,1.0,5400861850,1,7022113,False,,תל אביב -יפו,אלביטר עבדאלראוף,,7022-113-2,7022/113,16426.22950819672,32.0494139141,34.7514194386,2007
2007-12-18,2007-12-18,"נהרדעא 5, תל אביב -יפו",נהרדעא 5,6217-676-151,דירה בבית קומות,1.0,תשע עשרה,,280000,,,2003.0,,24.0,5400624650,1,6217676,False,,תל אביב -יפו,נהרדעא,,6217-676-151,6217/676,,32.0830461668,34.786571371,2007
2007-12-18,2007-12-18,"בן צבי 115, תל אביב -יפו",בן צבי 115,6986-175-16,דירה בבית קומות,3.0,רביעית,57.0,329000,,,2021.0,,4.0,5362390050,1,6986175,True,-4% ב 5.3 שנים,תל אביב -יפו,בן צבי,-0.75,6986-175-16,6986/175,5771.929824561404,32.0402244369,34.7761752333,2007
2007-12-18,2007-12-18,"זלמן שניאור 2, תל אביב -יפו",זלמן שניאור 2,6910-52-13,דירה בבית קומות,3.0,ראשונה,64.0,953000,,,1970.0,,9.0,5362655300,1,691052,False,,תל אביב -יפו,שניאור זלמן,,6910-52-13,6910/52,14890.625,32.0741208701,34.7703228978,2007
2007-12-18,2007-12-18,"מארק שאגאל 10, תל אביב -יפו",מארק שאגאל 10,6883-15-40,דירה בבית קומות,4.0,שלישית,130.0,2057000,,,2008.0,,7.0,5400039350,1,688315,False,,תל אביב -יפו,שגאל מרק,,6883-15-40,6883/15,15823.076923076924,32.1172338833,34.788798767,2007
2007-12-18,2007-12-18,"החרמון 19, תל אביב -יפו",החרמון 19,6926-97-1,דירה בבית קומות,3.0,קרקע,47.04,1033000,,,1930.0,,2.0,5401126300,1,692697,False,,תל אביב -יפו,החרמון,,6926-97-1,6926/97,21960.034013605444,32.0631867186,34.7661570443,2007
2007-12-17,2007-12-17,"שפרינצק 5, תל אביב -יפו",שפרינצק 5,7099-55-5,דירה בבית קומות,3.0,שלישית,70.0,1432000,,,1956.0,,,5362585600,1,709955,False,,תל אביב -יפו,שפרינצק,,7099-55-5,7099/55,20457.14285714286,32.0711287864,34.7829045335,2007
2007-12-17,2007-12-17,"ארלוזורוב 184, תל אביב -יפו",ארלוזורוב 184,6110-263-5,דירה בבית קומות,3.0,ראשונה,73.13,1186000,,,1957.0,,4.0,5362393400,1,6110263,False,,תל אביב -יפו,ארלוזורוב,,6110-263-5,6110/263,16217.69451661425,32.0828846898,34.7913431022,2007
2007-12-17,2007-12-17,"פלטיאל 1, תל אביב -יפו",פלטיאל 1,6135-69-195,דירה בבית קומות,2.0,,22.0,204000,,,1950.0,,3.0,5362542700,1,613569,False,,תל אביב -יפו,פלטיאל,,6135-69-195,6135/69,9272.727272727272,32.0492782548,34.790115711,2007
2007-12-17,2007-12-17,"בן-יהודה 211, תל אביב -יפו",בן-יהודה 211,6961-43-6,דירה בבית קומות,2.0,שניה,57.5,981000,,,1960.0,,4.0,5400472850,1,696143,False,,תל אביב -יפו,בן יהודה,,6961-43-6,6961/43,17060.869565217392,32.0937228297,34.7748673716,2007
2007-12-17,2007-12-17,"חסידי האומות 7, תל אביב -יפו",חסידי האומות 7,7046-34-5,דירה בבית קומות,2.0,,44.0,101000,,,1960.0,,,5362309550,1,704634,False,,תל אביב -יפו,חסידי האומות,,7046-34-5,7046/34,2295.454545454545,32.0439382035,34.7589667131,2007
2007-12-17,2007-12-17,"משה בריל בר-כוכבא 1, תל אביב -יפו",משה בריל בר-כוכבא 1,7423-21-6,דירה בבית קומות,5.0,ראשונה,116.0,761000,,,1950.0,,6.0,5362406100,1,742321,False,,תל אביב -יפו,משה בריל בר-כוכבא,,7423-21-6,7423/21,6560.344827586207,32.0468813352,34.8028503529,2007
2007-12-17,2007-12-17,"רמה 13, תל אביב -יפו",רמה 13,7321-129-19,דירה בבית קומות,1.5,ראשונה,28.6,490000,,,1960.0,,5.0,5400761150,1,7321129,False,,תל אביב -יפו,רמה,,7321-129-19,7321/129,17132.867132867133,32.1206177062,34.8416480914,2007
2007-12-17,2007-12-17,"אפרים קישון 83, תל אביב -יפו",אפרים קישון 83,7084-138-1,דירה בבית קומות,4.0,,83.0,3571000,,,1950.0,,15.0,5401197650,1,7084138,False,,תל אביב -יפו,הקישון,,7084-138-1,7084/138,43024.096385542165,32.0552009991,34.7703668849,2007
2007-12-17,2007-12-17,"נתן 69, תל אביב -יפו",נתן 69,6135-69-39,דירה בבית קומות,3.0,שניה,65.0,475000,,,1950.0,,3.0,5400103600,1,613569,False,,תל אביב -יפו,נתן,,6135-69-39,6135/69,7307.692307692308,32.0492782548,34.790115711,2007
2007-12-17,2007-12-17,"פיקוס 24, תל אביב -יפו",פיקוס 24,7075-12-108,דירה בבית קומות,2.0,חמישית,41.5,268000,,,1970.0,,5.0,5401938050,1,707512,True,-36% ב 9.5 שנים,תל אביב -יפו,פיקוס,-3.79,7075-12-108,7075/12,6457.831325301205,32.0360286254,34.7522677212,2007
2007-12-17,2007-12-17,"מלצ'ט 2, תל אביב -יפו",מלצ'ט 2,7453-11-5,משרד,,,1145.0,15230000,,,1940.0,,2.0,5400049250,1,745311,False,,תל אביב -יפו,מלצ'ט,,7453-11-5,7453/11,13301.310043668122,32.0660976298,34.7750608032,2007
2007-12-17,2007-12-17,"מלצ'ט 2, תל אביב -יפו",מלצ'ט 2,7453-11-2,דירה בבית קומות,3.0,שלישית,75.0,1162000,,,1940.0,,2.0,5400048450,1,745311,False,,תל אביב -יפו,מלצ'ט,,7453-11-2,7453/11,15493.333333333334,32.0660976298,34.7750608032,2007
2007-12-17,2007-12-17,"אח""י דקר 30, תל אביב -יפו","אח""י דקר 30",7321-115-10,דירה בבית קומות,3.5,ראשונה,65.8,650000,,,1960.0,,4.0,5362367400,1,7321115,False,,תל אביב -יפו,"אח""י דקר",,7321-115-10,7321/115,9878.419452887538,32.1193400949,34.8385929551,2007
2007-12-17,2007-12-17,"ילקוט הרועים 1, תל אביב -יפו",ילקוט הרועים 1,7093-457-2,דירה בבית קומות,4.0,ראשונה,79.0,980000,,,1981.0,,4.0,5362368150,1,7093457,False,,תל אביב -יפו,ילקוט הרועים,,7093-457-2,7093/457,12405.06329113924,32.0744769842,34.7995847654,2007
2007-12-17,2007-12-17,"הרב דוד פרידמן 35, תל אביב -יפו",הרב דוד פרידמן 35,6212-772-1,חנות,,,272.0,6225000,,,1940.0,,,5401387800,1,6212772,False,,תל אביב -יפו,הרב פרידמן,,6212-772-1,6212/772,22886.029411764703,32.0942732596,34.7928742105,2007
2007-12-17,2007-12-17,"ברודצקי 39, תל אביב -יפו",ברודצקי 39,6768-5-76,דירה בבית קומות,2.0,ראשונה,39.2,1032000,,,1960.0,,3.0,5362489950,1,67685,False,23% ב 2 שנים,תל אביב -יפו,ברודצקי,11.5,6768-5-76,6768/5,26326.530612244896,32.1105125853,34.7977339904,2007
2007-12-17,2007-12-17,"הרב צירלסון 5, תל אביב -יפו",הרב צירלסון 5,6107-180-20,דירה בבית קומות,2.0,שלישית,43.0,920000,,,1960.0,,3.0,5400932450,1,6107180,False,,תל אביב -יפו,הרב צירלסון,,6107-180-20,6107/180,21395.3488372093,32.0930300545,34.7936435916,2007
2007-12-17,2007-12-17,"מרחביה 7, תל אביב -יפו",מרחביה 7,8983-15-1,דירה בבית קומות,1.0,שלישית,23.0,472000,,,1950.0,,3.0,5362488650,1,898315,False,,תל אביב -יפו,מרחביה,,8983-15-1,8983/15,20521.739130434784,32.0601033837,34.7722938141,2007
2007-12-17,2007-12-17,"מעפילי אגוז 114, תל אביב -יפו",מעפילי אגוז 114,6163-190-13,דירה בבית קומות,3.0,שלישית,55.86,580000,,,1970.0,,4.0,5402425250,1,6163190,False,,תל אביב -יפו,מעפילי אגוז,,6163-190-13,6163/190,10383.10060866452,32.0561761301,34.8067444257,2007
2007-12-16,2007-12-16,"הרצל רוזנבלום 12, תל אביב -יפו",הרצל רוזנבלום 12,6621-10-147,דירה בבית קומות,2.0,חמישית,60.0,2058000,,,2009.0,,10.0,5400678700,1,662110,False,,תל אביב -יפו,רוזנבלום הרצל,,6621-10-147,6621/10,34300.0,32.1393095532,34.7911385186,2007
2007-12-16,2007-12-16,"ארלוזורוב 151, תל אביב -יפו",ארלוזורוב 151,6108-575-2,דירה בבית קומות,2.5,ראשונה,55.0,960000,,,1960.0,,4.0,5362591850,1,6108575,False,17% ב 0.4 שנים,תל אביב -יפו,ארלוזורוב,42.5,6108-575-2,6108/575,17454.545454545456,32.083129553,34.7931567996,2007
2007-12-16,2007-12-16,"דיזנגוף 196, תל אביב -יפו",דיזנגוף 196,6954-25-24,דירה בבית קומות,2.0,רביעית,31.4,913000,,,2007.0,,6.0,5362441250,1,695425,False,,תל אביב -יפו,דיזנגוף,,6954-25-24,6954/25,29076.43312101911,32.0861152454,34.774987901,2007
2007-12-16,2007-12-16,"אפשטיין 8, תל אביב -יפו",אפשטיין 8,6213-956-157,דירה בבית קומות,2.0,שלישית,58.0,1429000,,,1960.0,,8.0,5362364900,1,6213956,False,,תל אביב -יפו,אפשטיין,,6213-956-157,6213/956,24637.93103448276,32.08928906,34.7848513104,2007
2007-12-16,2007-12-16,"שלמה מימון 6, תל אביב -יפו",שלמה מימון 6,6974-43-2,דירה בבית קומות,2.0,קרקע,42.0,460000,,,1970.0,,1.0,5362344700,1,697443,False,,תל אביב -יפו,מימון שלמה,,6974-43-2,6974/43,10952.380952380952,32.0489769892,34.7774114101,2007
2007-12-16,2007-12-16,"אנטוקולסקי 3, תל אביב -יפו",אנטוקולסקי 3,6217-678-9,דירה בבית קומות,3.0,קומה ‎3‏,101.0,3255000,,,2008.0,,10.0,5400453450,1,6217678,False,,תל אביב -יפו,אנטוקולסקי,,6217-678-9,6217/678,32227.72277227723,32.0845480053,34.7824011016,2007
2007-12-16,2007-12-16,"אסתר המלכה 8, תל אביב -יפו",אסתר המלכה 8,6903-94-8,דירה בבית קומות,3.0,ראשונה,82.0,1176000,,,1901.0,,4.0,5362285700,1,690394,False,,תל אביב -יפו,אסתר המלכה,,6903-94-8,6903/94,14341.463414634149,32.0789288617,34.7751509087,2007
2007-12-16,2007-12-16,"יונה הנביא 34, תל אביב -יפו",יונה הנביא 34,6915-20-4,דירה בבית קומות,2.0,ראשונה,30.25,880000,,,1992.0,,4.0,5401198950,1,691520,False,6% ב 1.5 שנים,תל אביב -יפו,יונה הנביא,4.0,6915-20-4,6915/20,29090.90909090909,32.0719982193,34.768065203,2007
2007-12-16,2007-12-16,"אריה דולצ'ין 5, תל אביב -יפו",אריה דולצ'ין 5,6630-809-8,דירה בבית קומות,4.5,קומה ‎3‏,99.25,2000000,,,2009.0,,5.0,5362657750,1,6630809,False,,תל אביב -יפו,דולצ'ין אריה,,6630-809-8,6630/809,20151.133501259446,32.118714155,34.7921599307,2007
2007-12-16,2007-12-16,"ביל""ו 64, תל אביב -יפו","ביל""ו 64",7085-32-10,דירה בבית קומות,4.5,שלישית,121.5,2200000,,,1955.0,,3.0,5362586900,1,708532,False,,תל אביב -יפו,"ביל""ו",,7085-32-10,7085/32,18106.995884773663,32.0721884028,34.781212159,2007
2007-12-16,2007-12-16,"עובדיה מברטנורה 4, תל אביב -יפו",עובדיה מברטנורה 4,6957-126-9,דירה בבית קומות,3.0,שניה,59.0,1400000,,,1960.0,,3.0,5362167700,1,6957126,False,63% ב 4.5 שנים,תל אביב -יפו,עובדיה מברטנורה,14.0,6957-126-9,6957/126,23728.813559322032,32.0913679646,34.7784715627,2007
2007-12-16,2007-12-16,"סוקולוב 69, תל אביב -יפו",סוקולוב 69,6956-38-11,דירה בבית קומות,2.0,ראשונה,40.0,986000,,,1948.0,,2.0,5400146600,1,695638,False,,תל אביב -יפו,סוקולוב,,6956-38-11,6956/38,24650.0,32.091405223,34.7778701657,2007
2007-12-16,2007-12-16,"ששת הימים 24, תל אביב -יפו",ששת הימים 24,6146-284-12,דירה בבית קומות,3.0,שלישית,75.0,516000,,,1970.0,,3.0,5362163550,1,6146284,False,,תל אביב -יפו,ששת הימים,,6146-284-12,6146/284,6880.0,32.0494760024,34.8104881944,2007
2007-12-16,2007-12-16,"ילקוט הרועים 12, תל אביב -יפו",ילקוט הרועים 12,7093-453-7,דירה בבית קומות,4.5,"רביעית,חמישית",86.51,1410000,,,1970.0,,4.0,5362243650,1,7093453,False,,תל אביב -יפו,ילקוט הרועים,,7093-453-7,7093/453,16298.693792625128,32.0751891952,34.7996451201,2007
2007-12-16,2007-12-16,"אלון יגאל 153, תל אביב -יפו",אלון יגאל 153,7110-10-3,משרד,,קרקע,227.1,1786000,,,1990.0,,4.0,5400166800,1,711010,False,,תל אביב -יפו,אלון יגאל,,7110-10-3,7110/10,7864.376926464113,32.0783522353,34.7970521091,2007
2007-12-16,2007-12-16,"פיקוס 4, תל אביב -יפו",פיקוס 4,7075-68-4,דירה בבית קומות,2.0,ראשונה,49.67,243000,,,1960.0,,4.0,5362162400,1,707568,False,,תל אביב -יפו,פיקוס,,7075-68-4,7075/68,4892.289108113549,32.0346236608,34.7517239381,2007
2007-12-16,2007-12-16,"ירושלים 26, תל אביב -יפו",ירושלים 26,7072-16-48,חנות,,ראשונה,,400000,,,1960.0,,5.0,5401244700,1,707216,False,,תל אביב -יפו,ירושלים,,7072-16-48,7072/16,,32.0531084533,34.7589614529,2007
2007-12-16,2007-12-16,"גלית 3, תל אביב -יפו",גלית 3,6624-381-2,דירה בבית קומות,3.5,ראשונה,95.22,1590000,,,1974.0,,2.0,5362242850,1,6624381,False,,תל אביב -יפו,גילת,,6624-381-2,6624/381,16698.172652804034,32.1211150324,34.8273550975,2007
2007-12-16,2007-12-16,"יערי מאיר 14, תל אביב -יפו",יערי מאיר 14,7186-18-4,דירה בבית קומות,3.0,ראשונה,77.85,1298000,,,2004.0,,8.0,5400093800,1,718618,False,,תל אביב -יפו,יערי מאיר,,7186-18-4,7186/18,16673.089274245343,32.0992492814,34.7859769068,2007
2007-12-14,2007-12-14,"יצחק לויטן 2, תל אביב -יפו",יצחק לויטן 2,6630-294-80,דירה בבית קומות,4.0,שביעית,100.0,2330000,,,1960.0,,12.0,5362101300,1,6630294,False,,תל אביב -יפו,לויטן יצחק,,6630-294-80,6630/294,23300.0,32.11831951,34.7967880913,2007
2007-12-14,2007-12-14,"ויצמן 21, תל אביב -יפו",ויצמן 21,6111-719-5,דירה בבית קומות,3.0,שלישית,69.43,1390000,,,1965.0,,4.0,5362530350,1,6111719,False,,תל אביב -יפו,ויצמן,,6111-719-5,6111/719,20020.16419415238,32.0814343705,34.7885538568,2007
2007-12-14,2007-12-14,"דקל 8, תל אביב -יפו",דקל 8,6991-36-5,דירה בבית קומות,2.0,שניה,26.46,220000,,,1962.0,,4.0,5362260950,1,699136,True,-12% ב 2.3 שנים,תל אביב -יפו,דקל,-5.22,6991-36-5,6991/36,8314.436885865456,32.0397087303,34.7686724113,2007
2007-12-13,2007-12-13,"צייטלין 7, תל אביב -יפו",צייטלין 7,6111-597-3,דירה בבית קומות,2.0,ביניים,48.4,1276000,,,1951.0,,4.0,5362435000,1,6111597,False,25% ב 0.9 שנים,תל אביב -יפו,צייטלין,27.78,6111-597-3,6111/597,26363.636363636364,32.079627858,34.7823321377,2007
2007-12-13,2007-12-13,"ברודצקי 35, תל אביב -יפו",ברודצקי 35,6768-5-45,דירה בבית קומות,2.0,שלישית,39.2,970000,,,1957.0,,3.0,5362166950,1,67685,False,55% ב 2.7 שנים,תל אביב -יפו,ברודצקי,20.37,6768-5-45,6768/5,24744.897959183672,32.1105125853,34.7977339904,2007
2007-12-13,2007-12-13,"ברנר 12, תל אביב -יפו",ברנר 12,6933-91-3,משרד,,,38.0,3938000,,,1920.0,,2.0,5362400750,1,693391,False,,תל אביב -יפו,ברנר,,6933-91-3,6933/91,103631.57894736844,32.0687488285,34.7720450252,2007
2007-12-13,2007-12-13,"אח""י דקר 26, תל אביב -יפו","אח""י דקר 26",7321-113-13,דירה בבית קומות,2.5,שלישית,50.4,710000,,,1970.0,,4.0,5362535700,1,7321113,False,29% ב 8.3 שנים,תל אביב -יפו,"אח""י דקר",3.49,7321-113-13,7321/113,14087.301587301588,32.119779071,34.8386211944,2007
2007-12-13,2007-12-13,"פילון 3, תל אביב -יפו",פילון 3,6215-81-1,דירה בבית קומות,2.0,קרקע,43.71,976000,,,1945.0,,4.0,5362268750,1,621581,False,,תל אביב -יפו,פילון,,6215-81-1,6215/81,22328.986501944637,32.0820823421,34.7769257783,2007
2007-12-13,2007-12-13,"דוד אבידן 17, תל אביב -יפו",דוד אבידן 17,6615-304-80,דירה בבית קומות,4.5,קרקע,93.3,1840000,,,1999.0,,8.0,5362251450,1,6615304,False,34% ב 8 שנים,תל אביב -יפו,אבידן דוד,4.25,6615-304-80,6615/304,19721.32904608789,32.1276742616,34.8309738682,2007
2007-12-13,2007-12-13,"פרנקפורט 13, תל אביב -יפו",פרנקפורט 13,6901-105-5,דירה בבית קומות,4.0,שלישית,93.0,2159000,,,1950.0,,4.0,5362584800,1,6901105,False,28% ב 3.5 שנים,תל אביב -יפו,פרנקפורט,8.0,6901-105-5,6901/105,23215.05376344086,32.0892614703,34.774745075,2007
2007-12-13,2007-12-13,"קהילת סאלוניקי 4, תל אביב -יפו",קהילת סאלוניקי 4,6625-1209-62,דירה בבית קומות,5.0,שמינית,198.0,3200000,,,1998.0,,8.0,5401172050,1,66251209,False,,תל אביב -יפו,קהילת סאלוניקי,,6625-1209-62,6625/1209,16161.61616161616,32.1136420308,34.8233418625,2007
2007-12-13,2007-12-13,"בית הלל 24, תל אביב -יפו",בית הלל 24,7109-415-3,דירה בבית קומות,3.0,ראשונה,75.0,759000,,,2006.0,,,5408643750,1,7109415,False,,תל אביב -יפו,בית הלל,,7109-415-3,7109/415,10120.0,32.0691718902,34.791373635,2007
2007-12-13,2007-12-13,"סמולנסקין 3, תל אביב -יפו",סמולנסקין 3,7113-13-19,דירה בבית קומות,2.0,שלישית+גג,68.41,1295000,,,1936.0,,3.0,5362263400,1,711313,False,,תל אביב -יפו,סמולנסקין,,7113-13-19,7113/13,18929.980996930277,32.0816249774,34.7714158805,2007
2007-12-13,2007-12-13,"סמולנסקין 3, תל אביב -יפו",סמולנסקין 3,7113-13-20,דירה בבית קומות,3.0,שלישית+גג,61.77,1570000,,,1936.0,,3.0,5362262150,1,711313,False,,תל אביב -יפו,סמולנסקין,,7113-13-20,7113/13,25416.8690302736,32.0816249774,34.7714158805,2007
2007-12-13,2007-12-13,"הלמ""ד ה""א 45, תל אביב -יפו","הלמ""ד ה""א 45",6336-532-1,דירה בבית קומות,2.0,קרקע,43.22,2000000,,,1980.0,,,5362312050,1,6336532,False,,תל אביב -יפו,הלמד הא,,6336-532-1,6336/532,46274.87274409996,32.1164540029,34.8374405075,2007
2007-12-13,2007-12-13,"בית אל 2, תל אביב -יפו",בית אל 2,6882-31-9,דירה בבית קומות,3.0,ראשונה,56.3,800000,,,1970.0,,4.0,5362110400,1,688231,False,,תל אביב -יפו,בית אל,,6882-31-9,6882/31,14209.591474245117,32.1173933867,34.838385877,2007
2007-12-13,2007-12-13,"הרב שלמה גורן 2, תל אביב -יפו",הרב שלמה גורן 2,6108-717-196,דירה בבית קומות,1.0,שלושים ואחת,810.0,28156000,,,2008.0,,28.0,5401149850,1,6108717,False,,תל אביב -יפו,הרב גורן שלמה,,6108-717-196,6108/717,34760.49382716049,32.090639897,34.7960318578,2007
2007-12-13,2007-12-13,"עמינדב 44, תל אביב -יפו",עמינדב 44,6150-804-20,דירה בבית קומות,3.0,שלישית,49.5,700000,,,1960.0,,3.0,5362282450,1,6150804,False,,תל אביב -יפו,עמינדב,,6150-804-20,6150/804,14141.41414141414,32.06457288,34.7976693214,2007
2007-12-12,2007-12-12,"שלמה אבן גבירול 160, תל אביב -יפו",שלמה אבן גבירול 160,6213-457-9,דירה בבית קומות,2.5,ראשונה,47.0,970000,,,1950.0,,3.0,5362008000,1,6213457,False,,תל אביב -יפו,אבן גבירול,,6213-457-9,6213/457,20638.297872340427,32.0903712111,34.7830743533,2007
2007-12-12,2007-12-12,"מנדלסון 1, תל אביב -יפו",מנדלסון 1,6215-373-2,דירה בבית קומות,2.0,שניה,58.0,1103000,,,1947.0,,3.0,5362304200,1,6215373,False,,תל אביב -יפו,מנדלסון,,6215-373-2,6215/373,19017.241379310344,32.0819798674,34.7766319961,2007
2007-12-12,2007-12-12,"בן-יהודה 35, תל אביב -יפו",בן-יהודה 35,6907-38-1,תעשיה,,מרתף,314.0,1575000,,,1935.0,,5.0,5401106000,1,690738,False,24% ב 0.7 שנים,תל אביב -יפו,בן יהודה,34.29,6907-38-1,6907/38,5015.923566878981,32.0772262399,34.7679893791,2007
2007-12-12,2007-12-12,"טרפון 25, תל אביב -יפו",טרפון 25,6979-5-24,דירה בבית קומות,2.0,,35.0,607755000,,,1950.0,,3.0,5362045250,1,69795,False,,תל אביב -יפו,טרפון,,6979-5-24,6979/5,17364428.57142857,32.0511089979,34.7880002518,2007
2007-12-12,2007-12-12,"בעלי התוספות 13, תל אביב -יפו",בעלי התוספות 13,7081-35-2,דירה בבית קומות,2.0,ראשונה,65.0,497000,,,1950.0,,2.0,5400393650,1,708135,False,,תל אביב -יפו,בעלי התוספות,,7081-35-2,7081/35,7646.153846153846,32.0507031871,34.7577491705,2007
2007-12-12,2007-12-12,"בן יהודה 30, תל אביב -יפו",בן יהודה 30,6907-80-13,דירה בבית קומות,4.0,רביעית וחמישית,84.0,2362000,,,1953.0,,4.0,5401049150,1,690780,False,28% ב 0.7 שנים,תל אביב -יפו,בן יהודה,40.0,6907-80-13,6907/80,28119.04761904762,32.0760229145,34.7683709159,2007
2007-12-12,2007-12-12,"בית שמאי 7, תל אביב -יפו",בית שמאי 7,7109-319-7,דירה בבית קומות,2.0,שלישית,30.34,118000,,,2006.0,,5.0,5400053700,1,7109319,False,,תל אביב -יפו,בית שמאי,,7109-319-7,7109/319,3889.255108767304,32.0694330982,34.7887041848,2007
2007-12-12,2007-12-12,"דיזנגוף 196, תל אביב -יפו",דיזנגוף 196,6954-25-30,דירה בבית קומות,2.0,חמישית,31.7,952000,,,2007.0,,6.0,5362440450,1,695425,False,,תל אביב -יפו,דיזנגוף,,6954-25-30,6954/25,30031.54574132492,32.0861152454,34.774987901,2007
2007-12-12,2007-12-12,"אמזלג 24, תל אביב -יפו",אמזלג 24,6929-166-4,דירה בבית קומות,3.0,ראשונה ושניה,76.97,2599000,,,1996.0,,1.0,5402035000,1,6929166,False,,תל אביב -יפו,אמזלג,,6929-166-4,6929/166,33766.40249447837,32.0603009579,34.766215295,2007
2007-12-12,2007-12-12,"הילדסהיימר 25, תל אביב -יפו",הילדסהיימר 25,6212-747-6,דירה בבית קומות,3.0,שניה,58.7,1319000,,,1940.0,,5.0,5362114050,1,6212747,False,,תל אביב -יפו,הילדסהיימר,,6212-747-6,6212/747,22470.187393526405,32.0940639424,34.7916641978,2007
2007-12-12,2007-12-12,"נחמני 16, תל אביב -יפו",נחמני 16,7451-34-1,משרד,,ראה בהערות,2070.0,6836000,,,1960.0,,10.0,5400998850,1,745134,False,,תל אביב -יפו,נחמני,,7451-34-1,7451/34,3302.415458937198,32.0659925155,34.7739477725,2007
2007-12-12,2007-12-12,"ז'בוטינסקי 69, תל אביב -יפו",ז'בוטינסקי 69,6214-480-7,דירה בבית קומות,3.0,שלישית,54.0,1295000,,,1955.0,,2.0,5362415200,1,6214480,False,,תל אביב -יפו,ז'בוטינסקי,,6214-480-7,6214/480,23981.48148148148,32.0885869788,34.7808917555,2007
2007-12-12,2007-12-12,"הרב קוק 36, תל אביב -יפו",הרב קוק 36,7467-4-2,דירה בבית קומות,2.0,קרקע,53.1,886000,,,1950.0,,4.0,5362363200,1,74674,False,,תל אביב -יפו,הרב קוק,,7467-4-2,7467/4,16685.499058380414,32.0707571947,34.767403953,2007
2007-12-12,2007-12-12,"אשכול לוי 24, תל אביב -יפו",אשכול לוי 24,7222-46-4,דירה בבית קומות,4.5,שניה,102.82,1600000,,,1978.0,,7.0,5362044450,1,722246,False,24% ב 8.8 שנים,תל אביב -יפו,אשכול לוי,2.73,7222-46-4,7222/46,15561.174868702588,32.1040921395,34.7892353631,2007
2007-12-12,2007-12-12,"עליית הנוער 14, תל אביב -יפו",עליית הנוער 14,7110-211-21,דירה בבית קומות,3.0,שלישית,69.0,1050000,,,1970.0,,10.0,5362257550,1,7110211,False,27% ב 4.6 שנים,תל אביב -יפו,עלית הנוער,5.87,7110-211-21,7110/211,15217.391304347826,32.0766563043,34.8018312371,2007
2007-12-12,2007-12-12,"הרמן כהן 7, תל אביב -יפו",הרמן כהן 7,6903-30-13,דירה בבית קומות,2.0,שלישית,55.0,1045000,,,1940.0,,2.0,5362044850,1,690330,False,,תל אביב -יפו,כהן הרמן,,6903-30-13,6903/30,19000.0,32.0803396468,34.7764145562,2007
2007-12-12,2007-12-12,"יונה הנביא 35, תל אביב -יפו",יונה הנביא 35,6915-13-1,דירה בבית קומות,2.0,,35.0,738000,,,2007.0,,1.0,5400701800,1,691513,False,,תל אביב -יפו,יונה הנביא,,6915-13-1,6915/13,21085.714285714286,32.0723038381,34.7683632206,2007
2007-12-12,2007-12-12,"האומנים 14, תל אביב -יפו",האומנים 14,7094-39-1,משרד,,שלישית,554.0,2244000,,,1990.0,,1.0,5401107300,1,709439,False,,תל אביב -יפו,האומנים,,7094-39-1,7094/39,4050.541516245488,32.0716451145,34.7951939613,2007
2007-12-12,2007-12-12,"הפלמ""ח 43, תל אביב -יפו","הפלמ""ח 43",6133-497-5,דירה בבית קומות,2.0,שלישית,44.0,480000,,,1950.0,,3.0,5400859350,1,6133497,True,-4% ב 0.5 שנים,תל אביב -יפו,"הפלמ""ח",-8.0,6133-497-5,6133/497,10909.09090909091,32.0634735937,34.7980744497,2007
2007-12-11,2007-11-12,"נחמני 16, תל אביב -יפו",נחמני 16,7451-34-5,משרד,,מרתף אמצעי,,2575000,,,1960.0,,10.0,5361793550,1,745134,False,,תל אביב -יפו,נחמני,,7451-34-5,7451/34,,32.0659925155,34.7739477725,2007
2007-12-11,2007-11-12,"אצ""ל 1, תל אביב -יפו","אצ""ל 1",6135-90-13,חנות,,,168.0,832020,,,1950.0,,3.0,5361565000,1,613590,False,,תל אביב -יפו,"אצ""ל",,6135-90-13,6135/90,4952.5,32.0531072259,34.7917380508,2007
2007-12-11,2007-11-12,"רציף הרברט סמואל 42, תל אביב -יפו",רציף הרברט סמואל 42,6916-120-52,דירה בבית קומות,4.0,שתים עשרה,125.5,5051000,,,2000.0,,19.0,5362138900,1,6916120,False,32% ב 5.8 שנים,תל אביב -יפו,רציף הרברט סמואל,5.52,6916-120-52,6916/120,40247.01195219124,32.0714847036,34.7645941475,2007
2007-12-11,2007-11-12,"בית צורי אליהו 10, תל אביב -יפו",בית צורי אליהו 10,6631-220-33,דירה בבית קומות,4.0,שלישית,103.2,1331000,,,1980.0,,7.0,5360991700,1,6631220,False,,תל אביב -יפו,בית צורי אליהו,,6631-220-33,6631/220,12897.286821705426,32.1223053823,34.7994016208,2007
2007-12-11,2007-11-12,"זיכרון יעקב 11, תל אביב -יפו",זיכרון יעקב 11,6213-596-26,דירה בבית קומות,4.0,שניה,62.0,1331000,,,2022.0,,7.0,5360894350,1,6213596,False,,תל אביב -יפו,זכרון יעקב,,6213-596-26,6213/596,21467.74193548387,32.0842290797,34.7911906323,2007
2007-12-11,2007-11-12,"בלפור 42, תל אביב -יפו",בלפור 42,7435-20-36,דירה בבית קומות,3.0,רביעית,77.96,2674000,,,2004.0,,6.0,5361255200,1,743520,False,120% ב 3.9 שנים,תל אביב -יפו,בלפור,30.77,7435-20-36,7435/20,34299.64084145716,32.0665773726,34.777219287,2007
2007-12-11,2007-11-12,"אלפסי 20, תל אביב -יפו",אלפסי 20,7052-36-2,תעשיה,,,508.0,4915000,,,1953.0,,1.0,5361792400,1,705236,False,,תל אביב -יפו,אלפסי,,7052-36-2,7052/36,9675.1968503937,32.0529421242,34.7671020148,2007
2007-12-11,2007-11-12,"המלך ג'ורג' 42, תל אביב -יפו",המלך ג'ורג' 42,6904-76-11,דירה בבית קומות,3.0,שניה,62.0,1218000,,,1960.0,,3.0,5360904150,1,690476,False,21% ב 0.4 שנים,תל אביב -יפו,המלך ג'ורג',52.5,6904-76-11,6904/76,19645.16129032258,32.0731710145,34.775139672,2007
2007-12-11,2007-11-12,"עבד א-ראוף אל-ביטאר 16, תל אביב -יפו",עבד א-ראוף אל-ביטאר 16,7022-113-3,חנות,,,26.0,475000,,,1972.0,,1.0,5400448500,1,7022113,False,,תל אביב -יפו,אלביטר עבדאלראוף,,7022-113-3,7022/113,18269.23076923077,32.0494139141,34.7514194386,2007
2007-12-11,2007-11-12,"לוי אשכול 102, תל אביב -יפו",לוי אשכול 102,6630-805-23,דירה בבית קומות,5.0,קומה ‎6‏,106.78,512000,,,2005.0,,9.0,5362413100,1,6630805,False,,תל אביב -יפו,אשכול לוי,,6630-805-23,6630/805,4794.905412998689,32.1187952031,34.7914331,2007
2007-12-11,2007-11-12,"ברדיצ'בסקי 23, תל אביב -יפו",ברדיצ'בסקי 23,7085-79-4,דירה בבית קומות,2.0,שניה,43.46,1090000,,,1934.0,,4.0,5361278350,1,708579,False,,תל אביב -יפו,ברדיצ'בסקי,,7085-79-4,7085/79,25080.53382420617,32.0709878873,34.7810248625,2007
2007-12-11,2007-11-12,"מונטיפיורי 21, תל אביב -יפו",מונטיפיורי 21,7460-19-1,משרד,,,1301.0,14001000,,,1930.0,,4.0,5360997900,1,746019,False,,תל אביב -יפו,מונטיפיורי,,7460-19-1,7460/19,10761.72175249808,32.0653372975,34.771608091,2007
2007-12-11,2007-11-12,"בר-כוכבא 47, תל אביב -יפו",בר-כוכבא 47,7091-81-12,דירה בבית קומות,3.0,ראשונה,79.0,1400000,,,1950.0,,5.0,5361932550,1,709181,False,,תל אביב -יפו,בר כוכבא,,7091-81-12,7091/81,17721.518987341773,32.0768319868,34.7737789743,2007
2007-12-11,2007-11-12,"פלטיאל 1, תל אביב -יפו",פלטיאל 1,6135-69-196,דירה בבית קומות,2.0,שניה,50.0,190000,,,1950.0,,3.0,5362593900,1,613569,False,,תל אביב -יפו,פלטיאל,,6135-69-196,6135/69,3800.0,32.0492782548,34.790115711,2007
2007-12-11,2007-11-12,"שלמה אבן גבירול 76, תל אביב -יפו",שלמה אבן גבירול 76,6217-179-14,משרד,,שישית,69.7,2027000,,,1960.0,,10.0,5361110900,1,6217179,False,,תל אביב -יפו,אבן גבירול,,6217-179-14,6217/179,29081.779053084647,32.0811421655,34.7815761102,2007
2007-12-11,2007-11-12,"ארלוזורוב 192, תל אביב -יפו",ארלוזורוב 192,6110-220-17,דירה בבית קומות,3.0,---------,80.37,1120000,,,1950.0,,1.0,5361057600,1,6110220,False,2% ב 0.6 שנים,תל אביב -יפו,ארלוזורוב,3.33,6110-220-17,6110/220,13935.548090083365,32.0825537586,34.792663948,2007
2007-12-11,2007-11-12,"בוגרשוב 106, תל אביב -יפו",בוגרשוב 106,6911-153-2,דירה בבית קומות,3.0,מרתף,70.0,1127000,,,1970.0,,5.0,5361103850,1,6911153,False,,תל אביב -יפו,בוגרשוב,,6911-153-2,6911/153,16100.0,32.0739638402,34.7750667073,2007
2007-12-11,2007-11-12,"הרב שלמה גורן 6, תל אביב -יפו",הרב שלמה גורן 6,6108-724-3,דירה בבית קומות,4.0,שניה,100.0,2232000,,,2010.0,,21.0,5361128200,1,6108724,False,,תל אביב -יפו,הרב גורן שלמה,,6108-724-3,6108/724,22320.0,32.0903929233,34.797592682,2007
2007-12-11,2007-11-12,"רפידים 24, תל אביב -יפו",רפידים 24,6627-351-124,דירה בבית קומות,3.0,שניה,67.0,1410000,,,1950.0,,3.0,5361719350,1,6627351,False,47% ב 6.1 שנים,תל אביב -יפו,רפידים,7.7,6627-351-124,6627/351,21044.776119402984,32.1128176786,34.8131040477,2007
2007-12-11,2007-11-12,"יערי מאיר 14, תל אביב -יפו",יערי מאיר 14,7186-18-1,דירה בבית קומות,3.0,ראשונה,82.2,1300000,,,2004.0,,8.0,5362059600,1,718618,False,,תל אביב -יפו,יערי מאיר,,7186-18-1,7186/18,15815.08515815085,32.0992492814,34.7859769068,2007
2007-12-10,2007-10-12,"בבלי 12, תל אביב -יפו",בבלי 12,6107-420-24,דירה בבית קומות,4.0,חמישית,90.09,1606000,,,1970.0,,9.0,5360235150,1,6107420,False,,תל אביב -יפו,בבלי,,6107-420-24,6107/420,17826.617826617825,32.0937928445,34.7988943472,2007
2007-12-10,2007-10-12,"הנרייטה סאלד 1, תל אביב -יפו",הנרייטה סאלד 1,6111-794-101,משרד,,שישית,26.9,135000,,,1960.0,,14.0,5403264650,1,6111794,False,,תל אביב -יפו,סולד הנרייטה,,6111-794-101,6111/794,5018.587360594795,32.0780723254,34.7907453103,2007
2007-12-10,2007-10-12,"ציהתל""י 49, תל אביב -יפו","ציהתל""י 49",7047-151-14,דירה בבית קומות,3.0,שלישית,47.0,253000,,,1960.0,,3.0,5359938200,1,7047151,False,,תל אביב -יפו,"ציהתל""י",,7047-151-14,7047/151,5382.978723404255,32.0396757282,34.7555954024,2007
2007-12-09,2007-09-12,"חב""ד 48, תל אביב -יפו","חב""ד 48",7047-84-1,דירה בבית קומות,3.0,שלישית,68.0,369000,,,1950.0,,1.0,5359283100,1,704784,False,,תל אביב -יפו,"חב""ד",,7047-84-1,7047/84,5426.470588235294,32.0390754808,34.7528895465,2007
2007-12-09,2007-09-12,"השופטים 14, תל אביב -יפו",השופטים 14,6951-45-2,דירה בבית קומות,4.0,קרקע,90.0,1989000,,,1930.0,,3.0,5359576000,1,695145,False,87% ב 4.9 שנים,תל אביב -יפו,השופטים,17.76,6951-45-2,6951/45,22100.0,32.0763082721,34.7793241635,2007
2007-12-09,2007-09-12,"מאור עיניים 2, תל אביב -יפו",מאור עיניים 2,7047-53-5,חנות,,,21.0,164000,,,1950.0,,1.0,5359572350,1,704753,False,,תל אביב -יפו,מאור עינים,,7047-53-5,7047/53,7809.523809523809,32.0415663647,34.7517863501,2007
2007-12-08,2007-08-12,"דוד ילין 8, תל אביב -יפו",דוד ילין 8,6213-1399-48,דירה בבית קומות,4.0,חמישית,84.02,2081000,,,1970.0,,8.0,5358044850,1,62131399,False,23% ב 7.6 שנים,תל אביב -יפו,ילין דוד,3.03,6213-1399-48,6213/1399,24767.91240180909,32.0881964301,34.7842090062,2007
2007-12-08,2007-08-12,"הרצל רוזנבלום 4, תל אביב -יפו",הרצל רוזנבלום 4,6621-11-3,דירה בבית קומות,5.0,,120.0,3475000,,,1990.0,,10.0,5358506800,1,662111,False,,תל אביב -יפו,רוזנבלום הרצל,,6621-11-3,6621/11,28958.33333333333,32.1380009836,34.7904357193,2007
2007-12-08,2007-08-12,,,7112-28-1,דירה בבית קומות,1.0,,45.0,729000,,,1930.0,,,5359530650,2,711228,False,,תל אביב -יפו,אמזלג,,7112-28-1,7112/28,16200.0,32.0593193581,34.7641752058,2007
2007-12-08,2007-08-12,"יוחנן הורקנוס 33, תל אביב -יפו",יוחנן הורקנוס 33,6212-446-3,חנות,,קרקע,,120000,,,1950.0,,3.0,5358074050,1,6212446,False,,תל אביב -יפו,יוחנן הורקנוס,,6212-446-3,6212/446,,32.094171345,34.7832081066,2007
2007-12-08,2007-08-12,"לואי מרשל 20, תל אביב -יפו",לואי מרשל 20,6212-566-13,דירה בבית קומות,2.0,שלישית,32.0,927000,,,1957.0,,3.0,5359030300,1,6212566,False,58% ב 9.2 שנים,תל אביב -יפו,לואי מרשל,6.3,6212-566-13,6212/566,28968.75,32.0923262928,34.7865596232,2007
2007-12-08,2007-08-12,"ועידת קטוביץ 31, תל אביב -יפו",ועידת קטוביץ 31,6212-906-1,קוטג' דו משפחתי,6.0,קרקע+ראשונה+שניה,143.22,3219000,,,1950.0,,1.0,5359435800,1,6212906,False,,תל אביב -יפו,ועידת קטוביץ,,6212-906-1,6212/906,22475.911185588604,32.0936347434,34.7922216176,2007
2007-12-08,2007-08-12,"עדולם 10, תל אביב -יפו",עדולם 10,7089-31-2,דירה בבית קומות,2.0,קרקע,57.1,90000,,,1940.0,,2.0,5358694100,1,708931,False,,תל אביב -יפו,עדולם,,7089-31-2,7089/31,1576.1821366024517,32.0455068365,34.7605867696,2007
2007-12-08,2007-08-12,"אשתורי הפרחי 8, תל אביב -יפו",אשתורי הפרחי 8,6214-557-6,דירה בבית קומות,2.0,ראשונה,35.0,652000,,,1950.0,,2.0,5358811200,1,6214557,False,,תל אביב -יפו,אשתורי הפרחי,,6214-557-6,6214/557,18628.571428571428,32.0892996433,34.7801452033,2007
2007-12-08,2007-08-12,"מצדה 1, תל אביב -יפו",מצדה 1,6954-77-5,דירה בבית קומות,2.0,ראשונה,49.0,1124000,,,1950.0,,3.0,5357975050,1,695477,False,52% ב 4 שנים,תל אביב -יפו,מצדה,13.0,6954-77-5,6954/77,22938.775510204083,32.0846873721,34.775712937,2007
2007-12-08,2007-08-12,"מח""ל 72, תל אביב -יפו","מח""ל 72",6146-396-62,דירה בבית קומות,3.0,ראשונה,82.05,764000,,,2007.0,,,5358850800,1,6146396,False,,תל אביב -יפו,"מח""ל",,6146-396-62,6146/396,9311.39549055454,32.0489484841,34.8106264452,2007
2007-12-08,2007-08-12,"מגן אברהם 13, תל אביב -יפו",מגן אברהם 13,7076-91-103,דירה בבית קומות,2.0,שלישית,45.2,386000,,,2024.0,,5.0,5358294800,1,707691,False,,תל אביב -יפו,מגן אברהם,,7076-91-103,7076/91,8539.823008849557,32.0499708068,34.7582443057,2007
2007-12-08,2007-08-12,"החרמון 37, תל אביב -יפו",החרמון 37,7420-97-0,משרד,,,115.0,3781000,,,2007.0,,2.0,5359497650,1,742097,False,234% ב 1.1 שנים,תל אביב -יפו,החרמון,212.73,7420-97-0,7420/97,32878.260869565216,32.0639740063,34.7671886466,2007
2007-12-08,2007-08-12,"בודנהיימר 2, תל אביב -יפו",בודנהיימר 2,6212-131-81,דירה בבית קומות,2.0,שלישית,64.0,1330000,,,2020.0,,8.0,5357893450,1,6212131,False,,תל אביב -יפו,בודנהיימר,,6212-131-81,6212/131,20781.25,32.0913604089,34.7889564699,2007
2007-12-08,2007-08-12,"יוסף זריצקי 6, תל אביב -יפו",יוסף זריצקי 6,6886-50-90,דירה בבית קומות,4.0,שלישית,93.4,1656000,,,1999.0,,10.0,5358805450,1,688650,False,,תל אביב -יפו,זריצקי יוסף,,6886-50-90,6886/50,17730.19271948608,32.1142698551,34.7916569437,2007
2007-12-08,2007-08-12,"בת-שבע כצנלסון 2, תל אביב -יפו",בת-שבע כצנלסון 2,6135-102-7,דירה בבית קומות,1.0,שניה,30.0,163000,,,1950.0,,4.0,5358021300,1,6135102,False,,תל אביב -יפו,כצנלסון בת שבע,,6135-102-7,6135/102,5433.333333333333,32.0493027053,34.793953543,2007
2007-12-08,2007-08-12,"בן-יהודה 59, תל אביב -יפו",בן-יהודה 59,6905-38-26,דירה בבית קומות,2.0,רביעית,60.0,1137000,,,1950.0,,4.0,5358562050,1,690538,False,,תל אביב -יפו,בן יהודה,,6905-38-26,6905/38,18950.0,32.0794303143,34.7691191338,2007
2007-12-07,2007-07-12,"מחרוזת 39, תל אביב -יפו",מחרוזת 39,6997-161-16,דירה בבית קומות,3.0,רביעית,61.26,328000,,,1970.0,,4.0,5357744500,1,6997161,False,,תל אביב -יפו,מחרוזת,,6997-161-16,6997/161,5354.227881162259,32.0335928048,34.7570054195,2007
2007-12-07,2007-07-12,"הכובשים 9, תל אביב -יפו",הכובשים 9,6915-18-1,משרד,,,515.0,3404000,,,1930.0,,,5356887350,1,691518,False,,תל אביב -יפו,הכובשים,,6915-18-1,6915/18,6609.708737864078,32.0719720858,34.7676649235,2007
2007-12-07,2007-07-12,"מניה וישראל 5, תל אביב -יפו",מניה וישראל 5,6628-622-13,דירה בבית קומות,3.0,רביעית,77.1,1170000,,,1960.0,,4.0,5356833250,1,6628622,False,,תל אביב -יפו,מניה וישראל,,6628-622-13,6628/622,15175.097276264592,32.118992543,34.8023060793,2007
2007-12-07,2007-07-12,"יהודה הימית 21, תל אביב -יפו",יהודה הימית 21,7023-27-34,דירה בבית קומות,3.0,שלישית,90.0,760000,,,1960.0,,5.0,5357402900,1,702327,False,,תל אביב -יפו,יהודה הימית,,7023-27-34,7023/27,8444.444444444445,32.0495086485,34.7571086493,2007
2007-12-07,2007-07-12,"הרב שלמה גורן 6, תל אביב -יפו",הרב שלמה גורן 6,6108-724-187,דירה בבית קומות,3.0,שמונה עשרה,100.0,2285000,,,2010.0,,21.0,5356840700,1,6108724,False,,תל אביב -יפו,הרב גורן שלמה,,6108-724-187,6108/724,22850.0,32.0903929233,34.797592682,2007
2007-12-07,2007-07-12,"יהושע בן-נון 62, תל אביב -יפו",יהושע בן-נון 62,6957-173-7,דירה בבית קומות,2.0,,51.0,970000,,,1958.0,,2.0,5356717750,1,6957173,False,,תל אביב -יפו,יהושע בן נון,,6957-173-7,6957/173,19019.60784313725,32.0914632867,34.7814591304,2007
2007-12-07,2007-07-12,"יעקב מרידור 10, תל אביב -יפו",יעקב מרידור 10,7193-25-15,דירה בבית קומות,4.5,קרקע,106.0,2592000,,,1999.0,,4.0,5356941800,1,719325,False,,תל אביב -יפו,מרידור יעקב,,7193-25-15,7193/25,24452.830188679247,32.1229358654,34.8198130996,2007
2007-12-07,2007-07-12,"הרב י""ל פישמן מיימון 5, תל אביב -יפו","הרב י""ל פישמן מיימון 5",6111-839-94,דירה בבית קומות,5.0,אחת עשרה,130.2,3325000,,,1970.0,,26.0,5357078700,1,6111839,False,,תל אביב -יפו,פישמן מימון,,6111-839-94,6111/839,25537.634408602156,32.0809591641,34.7867036437,2007
2007-12-07,2007-07-12,"דב הוז 25, תל אביב -יפו",דב הוז 25,7113-8-5,דירה בבית קומות,4.0,רביעית,89.0,1449000,,,1947.0,,1.0,5356877450,1,71138,False,,תל אביב -יפו,הוז דב,,7113-8-5,7113/8,16280.898876404495,32.0815803893,34.7722623206,2007
2007-12-07,2007-07-12,"שמעוני 27, תל אביב -יפו",שמעוני 27,6771-36-22,דירה בבית קומות,2.0,שלישית,34.1,213000,,,1960.0,,4.0,5357373200,1,677136,False,,תל אביב -יפו,שמעוני,,6771-36-22,6771/36,6246.33431085044,32.1082650191,34.7927116683,2007
2007-12-07,2007-07-12,"תש""ח 11, תל אביב -יפו","תש""ח 11",6213-177-4,דירה בבית קומות,3.0,שניה,78.0,1705000,,,1950.0,,6.0,5357252700,1,6213177,False,,תל אביב -יפו,"תש""ח",,6213-177-4,6213/177,21858.97435897436,32.0858896746,34.7880409771,2007
2007-12-07,2007-07-12,"רש""י 59, תל אביב -יפו","רש""י 59",7436-32-6,דירה בבית קומות,3.0,שניה,64.0,1149000,,,1945.0,,3.0,5356936450,1,743632,False,,תל אביב -יפו,"רש""י",,7436-32-6,7436/32,17953.125,32.0705868413,34.7770661723,2007
2007-12-07,2007-07-12,"שלמה המלך 94, תל אביב -יפו",שלמה המלך 94,6215-426-3,דירה בבית קומות,3.0,שלישית,87.0,1447000,,,1951.0,,1.0,5357806750,1,6215426,False,,תל אביב -יפו,שלמה המלך,,6215-426-3,6215/426,16632.183908045976,32.0848765498,34.7791613595,2007
2007-12-07,2007-07-12,"רציף הרברט סמואל 42, תל אביב -יפו",רציף הרברט סמואל 42,6916-120-7,משרד,,ראשונה,288.2,4770000,,,2000.0,,19.0,5357832400,1,6916120,False,,תל אביב -יפו,רציף הרברט סמואל,,6916-120-7,6916/120,16551.006245662735,32.0714847036,34.7645941475,2007
2007-12-07,2007-07-12,"קהילת לודג' 17, תל אביב -יפו",קהילת לודג' 17,6636-425-2,דירה בבית קומות,2.0,ראשונה,41.88,672000,,,1950.0,,2.0,5356720650,1,6636425,False,,תל אביב -יפו,קהילת לודג',,6636-425-2,6636/425,16045.845272206305,32.1090663394,34.8174260615,2007
2007-12-07,2007-07-12,"מח""ל 72, תל אביב -יפו","מח""ל 72",6146-396-89,דירה בבית קומות,3.0,שביעית,82.05,789000,,,2007.0,,,5357056850,1,6146396,False,,תל אביב -יפו,"מח""ל",,6146-396-89,6146/396,9616.087751371117,32.0489484841,34.8106264452,2007
2007-12-07,2007-07-12,"הנצי""ב 39, תל אביב -יפו","הנצי""ב 39",7109-348-5,משרד,,שניה,81.1,506000,,,1935.0,,3.0,5358283200,1,7109348,False,,תל אביב -יפו,"הנצי""ב",,7109-348-5,7109/348,6239.21085080148,32.0712693831,34.7902864776,2007
2007-12-07,2007-07-12,"גרשון (גגה) שץ 6, תל אביב -יפו",גרשון (גגה) שץ 6,7109-381-1,משרד,,שניה,1100.0,7334000,,,1970.0,,1.0,5356885650,1,7109381,False,,תל אביב -יפו,שץ גגה גרשון,,7109-381-1,7109/381,6667.272727272727,32.068986394,34.7882010341,2007
2007-12-07,2007-07-12,"שלמה המלך 94, תל אביב -יפו",שלמה המלך 94,6215-426-3,דירה בבית קומות,3.0,שלישית,87.0,1447000,,,1951.0,,1.0,5357806750,1,6215426,False,,תל אביב -יפו,שלמה,,6215-426-3,6215/426,16632.183908045976,32.0848765498,34.7791613595,2007
2007-12-07,2007-07-12,"גלוסקין 6, תל אביב -יפו",גלוסקין 6,6108-455-8,דירה בבית קומות,4.0,רביעית,93.0,3112000,,,1960.0,,4.0,5356677750,1,6108455,False,,תל אביב -יפו,גלוסקין,,6108-455-8,6108/455,33462.36559139785,32.08693163,34.7938566179,2007
2007-12-07,2007-07-12,"משה ברזאני 5, תל אביב -יפו",משה ברזאני 5,6631-207-28,דירה בבית קומות,5.0,רביעית,135.7,2128000,,,1982.0,,9.0,5358672250,1,6631207,False,,תל אביב -יפו,ברזאני משה,,6631-207-28,6631/207,15681.650700073693,32.1271143565,34.7959916135,2007
2007-12-06,2007-06-12,"צבי רוזנבלט 1, תל אביב -יפו",צבי רוזנבלט 1,7046-21-19,דירה בבית קומות,3.0,שלישית,46.73,276000,,,1960.0,,3.0,5355731950,1,704621,False,,תל אביב -יפו,רוזנבלט צבי,,7046-21-19,7046/21,5906.270062058635,32.0443285074,34.7581809464,2007
2007-12-06,2007-06-12,"ויצמן 14, תל אביב -יפו",ויצמן 14,6111-860-19,משרד,,שתים עשרה,47.0,615000,,,2007.0,,8.0,5355744700,1,6111860,False,,תל אביב -יפו,ויצמן,,6111-860-19,6111/860,13085.106382978724,32.0815970253,34.789751068,2007
2007-12-06,2007-06-12,"המלך ג'ורג' 34, תל אביב -יפו",המלך ג'ורג' 34,6904-85-1,דירה בבית קומות,3.0,ראשונה,77.0,5483000,,,1933.0,,2.0,5356864150,1,690485,False,,תל אביב -יפו,המלך ג'ורג',,6904-85-1,6904/85,71207.79220779221,32.0725308546,34.774558789,2007
2007-12-06,2007-06-12,"שלומציון המלכה 75, תל אביב -יפו",שלומציון המלכה 75,6212-152-8,דירה בבית קומות,2.0,ראשונה,43.0,397000,,,1950.0,,3.0,5355767700,1,6212152,False,,תל אביב -יפו,שלומציון המלכה,,6212-152-8,6212/152,9232.558139534884,32.0955057617,34.7901317322,2007
2007-12-06,2007-06-12,"לה גארדיה 27, תל אביב -יפו",לה גארדיה 27,7098-3-9,דירה בבית קומות,3.0,שניה,62.91,480000,,,1950.0,,3.0,5355827150,1,70983,False,,תל אביב -יפו,לה גארדיה,,7098-3-9,7098/3,7629.947544110634,32.0596216187,34.7905960762,2007
2007-12-06,2007-06-12,"ארנון 18, תל אביב -יפו",ארנון 18,6968-47-5,דירה בבית קומות,3.0,ראשונה,60.0,1549000,,,1940.0,,4.0,5355578850,1,696847,False,,תל אביב -יפו,ארנון,,6968-47-5,6968/47,25816.666666666668,32.0843696274,34.7707513993,2007
2007-12-06,2007-06-12,"מארק שאגאל 10, תל אביב -יפו",מארק שאגאל 10,6883-15-46,דירה בבית קומות,3.0,ראשונה,86.0,2184000,,,2008.0,,7.0,5357236750,1,688315,False,,תל אביב -יפו,שגאל מרק,,6883-15-46,6883/15,25395.3488372093,32.1172338833,34.788798767,2007
2007-12-06,2007-06-12,"בארי 56, תל אביב -יפו",בארי 56,6110-341-188,דירה בבית קומות,3.0,שביעית,70.0,2302000,,,1960.0,,11.0,5355601050,1,6110341,False,,תל אביב -יפו,בארי,,6110-341-188,6110/341,32885.71428571428,32.0819828883,34.7912127088,2007
2007-12-06,2007-06-12,"קיבוץ גלויות 23, תל אביב -יפו",קיבוץ גלויות 23,7052-146-2,תעשיה,,,555.0,5652000,,,1970.0,,4.0,5357104250,1,7052146,False,,תל אביב -יפו,קבוץ גלויות,,7052-146-2,7052/146,10183.783783783783,32.0527866202,34.7663723049,2007
2007-12-06,2007-06-12,"עין זיתים 1, תל אביב -יפו",עין זיתים 1,7093-341-48,דירה בבית קומות,3.0,עשירית,91.35,1271000,,,2007.0,,25.0,5357384800,1,7093341,False,,תל אביב -יפו,עין זיתים,,7093-341-48,7093/341,13913.51943076081,32.0743723442,34.7973011192,2007
2007-12-06,2007-06-12,"דב כרמי 2, תל אביב -יפו",דב כרמי 2,6623-934-4,דירה בבית קומות,5.0,שניה+שלישית,130.3,2364000,,,2004.0,,10.0,5356840300,1,6623934,False,,תל אביב -יפו,כרמי דב,,6623-934-4,6623/934,18142.747505755942,32.1149034376,34.8295314569,2007
2007-12-06,2007-06-12,"נתן אקסלרוד 10, תל אביב -יפו",נתן אקסלרוד 10,6886-41-24,דירה בבית קומות,4.0,ראשונה,103.52,1680000,,,2005.0,,9.0,5356012400,1,688641,False,,תל אביב -יפו,אקסלרוד נתן,,6886-41-24,6886/41,16228.748068006184,32.1164702888,34.7923100362,2007
2007-12-06,2007-06-12,"ברנר 20, תל אביב -יפו",ברנר 20,6933-97-1,דירה בבית קומות,2.0,קרקע,49.19,921000,,,1930.0,,2.0,5355603100,1,693397,False,,תל אביב -יפו,ברנר,,6933-97-1,6933/97,18723.317747509656,32.0685736143,34.7728167378,2007
2007-12-04,2007-04-12,"הדסה 11, תל אביב -יפו",הדסה 11,6953-61-10,דירה בבית קומות,2.5,שניה,48.0,920000,,,1950.0,,3.0,5354409450,1,695361,False,,תל אביב -יפו,הדסה,,6953-61-10,6953/61,19166.666666666668,32.0830691801,34.7797097851,2007
2007-12-04,2007-04-12,"אורי צבי גרינברג 9, תל אביב -יפו",אורי צבי גרינברג 9,6620-19-28,דירה בבית קומות,5.0,שביעית,122.9,1885000,,,1989.0,,13.0,5354343900,1,662019,False,,תל אביב -יפו,אורי צבי גרינברג,,6620-19-28,6620/19,15337.672904800653,32.1298684707,34.7947945194,2007
2007-12-04,2007-04-12,"אברבנאל 45, תל אביב -יפו",אברבנאל 45,7051-108-46,דירה בבית קומות,2.0,שניה,50.0,490000,,,2006.0,,9.0,5353768400,1,7051108,False,,תל אביב -יפו,אברבנאל,,7051-108-46,7051/108,9800.0,32.0556294591,34.7672773398,2007
2007-12-04,2007-04-12,"תקוע 23, תל אביב -יפו",תקוע 23,6146-226-36,דירה בבית קומות,3.5,שניה,51.0,588000,,,1970.0,,4.0,5354755950,1,6146226,False,32% ב 0.4 שנים,תל אביב -יפו,תקוע,80.0,6146-226-36,6146/226,11529.411764705885,32.0481174098,34.8094799557,2007
2007-12-04,2007-04-12,"אלחריזי 6, תל אביב -יפו",אלחריזי 6,6215-285-3,דירה בבית קומות,2.0,ראשונה,55.0,1057160,,,1950.0,,3.0,5353473900,1,6215285,False,,תל אביב -יפו,אלחריזי,,6215-285-3,6215/285,19221.090909090908,32.0848939753,34.7798543587,2007
2007-12-04,2007-04-12,"החלוצים 48, תל אביב -יפו",החלוצים 48,7084-207-19,דירה בבית קומות,3.0,רביעית,57.12,664000,,,1960.0,,7.0,5353635200,1,7084207,False,,תל אביב -יפו,החלוצים,,7084-207-19,7084/207,11624.649859943978,32.0569128295,34.7722229864,2007
2007-12-04,2007-04-12,"אליהו חכים 2, תל אביב -יפו",אליהו חכים 2,6631-226-42,חנות,,קרקע+גלריה,41.28,792000,,,1980.0,,,5353815450,1,6631226,False,,תל אביב -יפו,חכים אליהו,,6631-226-42,6631/226,19186.046511627905,32.1252904934,34.8021423316,2007
2007-12-04,2007-04-12,"נדב 16, תל אביב -יפו",נדב 16,6135-29-2,דירה בבית קומות,4.0,,100.0,530000,,,2005.0,,3.0,5353831500,1,613529,False,,תל אביב -יפו,נדב,,6135-29-2,6135/29,5300.0,32.048942854,34.7945619906,2007
2007-12-04,2007-04-12,"שיינקין 18, תל אביב -יפו",שיינקין 18,6933-66-10,דירה בבית קומות,3.0,ראשונה,61.0,1077000,,,1950.0,,4.0,5354946550,1,693366,False,30% ב 1.8 שנים,תל אביב -יפו,שיינקין,16.67,6933-66-10,6933/66,17655.737704918032,32.0693361015,34.7722191186,2007
2007-12-04,2007-04-12,"הגולן 94, תל אביב -יפו",הגולן 94,6638-221-8,דירה בבית קומות,2.0,שניה,46.4,813000,,,1960.0,,2.0,5354724600,1,6638221,False,,תל אביב -יפו,הגולן,,6638-221-8,6638/221,17521.55172413793,32.1112404198,34.8373122562,2007
2007-12-04,2007-04-12,"ברודצקי 64, תל אביב -יפו",ברודצקי 64,6649-282-27,דירה בבית קומות,3.0,שמינית,77.6,1341000,,,1960.0,,9.0,5353653700,1,6649282,False,21% ב 2 שנים,תל אביב -יפו,ברודצקי,10.5,6649-282-27,6649/282,17280.92783505155,32.1117458209,34.7982788613,2007
2007-12-04,2007-04-12,"ילקוט הרועים 12, תל אביב -יפו",ילקוט הרועים 12,7093-453-6,דירה בבית קומות,4.0,שלישית,73.32,933000,,,1970.0,,4.0,5353450750,1,7093453,False,,תל אביב -יפו,ילקוט הרועים,,7093-453-6,7093/453,12725.04091653028,32.0751891952,34.7996451201,2007
2007-12-04,2007-04-12,"רבינא 15, תל אביב -יפו",רבינא 15,6630-503-26,דירה בבית קומות,4.0,שביעית,94.21,1768000,,,1970.0,,12.0,5354852000,1,6630503,False,,תל אביב -יפו,רבינא,,6630-503-26,6630/503,18766.58528818597,32.1215346576,34.7990554545,2007
2007-12-04,2007-04-12,"הזוהר 15, תל אביב -יפו",הזוהר 15,6107-283-7,דירה בבית קומות,3.0,שניה,70.0,1128000,,,1960.0,,5.0,5353965150,1,6107283,False,39% ב 8.7 שנים,תל אביב -יפו,הזוהר,4.48,6107-283-7,6107/283,16114.285714285714,32.0934465474,34.7953864957,2007
2007-12-04,2007-04-12,"יונה הנביא 44, תל אביב -יפו",יונה הנביא 44,6915-25-17,דירה בבית קומות,5.0,ראשונה,100.0,813000,,,1950.0,,4.0,5355104450,1,691525,False,,תל אביב -יפו,יונה הנביא,,6915-25-17,6915/25,8130.0,32.071781496,34.7688577972,2007
2007-12-04,2007-04-12,,,6111-85-15,דירה בבית קומות,3.0,ראשונה,80.0,740000,,,1953.0,,,5354833050,2,611185,False,,תל אביב -יפו,"בן אב""י איתמר",,6111-85-15,6111/85,9250.0,32.072295569,34.7825083334,2007
2007-12-03,2007-03-12,"יוסף זריצקי 6, תל אביב -יפו",יוסף זריצקי 6,6886-50-104,דירה בבית קומות,5.0,שביעית,113.0,1932000,,,1999.0,,10.0,5352588250,1,688650,False,,תל אביב -יפו,זריצקי יוסף,,6886-50-104,6886/50,17097.34513274336,32.1142698551,34.7916569437,2007
2007-12-03,2007-03-12,"הגדוד העברי 53, תל אביב -יפו",הגדוד העברי 53,6946-34-7,דירה בבית קומות,,שניה,444.0,2425000,,,1950.0,,4.0,5353245850,1,694634,False,,תל אביב -יפו,הגדוד העברי,,6946-34-7,6946/34,5461.711711711711,32.0575168164,34.7799672432,2007
2007-12-03,2007-03-12,"פלורנטין 40, תל אביב -יפו",פלורנטין 40,7084-169-19,דירה בבית קומות,2.0,רביעית,41.25,623000,,,2007.0,,6.0,5353023850,1,7084169,False,,תל אביב -יפו,פלורנטין,,7084-169-19,7084/169,15103.030303030304,32.0560578946,34.771234355,2007
2007-12-03,2007-03-12,"אנטוקולסקי 9, תל אביב -יפו",אנטוקולסקי 9,6217-447-8,דירה בבית קומות,2.0,ראשונה,47.45,868000,,,1950.0,,3.0,5353745800,1,6217447,False,,תל אביב -יפו,אנטוקולסקי,,6217-447-8,6217/447,18292.93993677555,32.0844780773,34.7827709265,2007
2007-12-03,2007-03-12,"נתן החכם 15, תל אביב -יפו",נתן החכם 15,7078-57-8,דירה בבית קומות,2.0,שניה,44.26,861000,,,1935.0,,3.0,5352896850,1,707857,False,,תל אביב -יפו,נתן החכם,,7078-57-8,7078/57,19453.23090826932,32.0827515173,34.772894145,2007
