DEALDATE,DEALDATETIME,FULLADRESS,DISPLAYADRESS,GUSH,DEALNATUREDESCRIPTION,ASSETROOMNUM,FLOORNO,DEALNATURE,DEALAMOUNT,NEWPROJECTTEXT,PROJECTNAME,BUILDINGYEAR,YEARBUILT,BUILDINGFLOORS,KEYVALUE,TYPE,POLYGON_ID,TREND_IS_NEGATIVE,TREND_FORMAT,city_name,street,presentage per year,GUSH - Copy,Gush_Helka,Price per sqm,lat,lon,Year
2004-12-31,2004-12-31,"המשחררים 14, באר שבע",המשחררים 14,38074-160-70,דירה בבית קומות,3.0,ארבע עשרה,72.0,538000,,,2004.0,,17.0,9450708120,1,38074160,False,,באר שבע,המשחררים,,38074-160-70,38074/160,7472.222222222223,31.2519313544,34.7951495936,2004
2004-12-31,2004-12-31,"ישראל גלילי 27, באר שבע",ישראל גלילי 27,38368-4-11,דירה בבית קומות,4.0,רביעית,93.0,550000,,,2003.0,,5.0,9451872360,1,383684,False,,באר שבע,גלילי ישראל,,38368-4-11,38368/4,5913.978494623656,31.2848403168,34.8037603051,2004
2004-12-30,2004-12-30,"ישראל גלילי 35, באר שבע",ישראל גלילי 35,38368-2-9,דירה בבית קומות,4.0,שלישית,95.0,475000,,,2003.0,,5.0,9450625590,1,383682,False,,באר שבע,גלילי ישראל,,38368-2-9,38368/2,5000.0,31.2854762616,34.8038611287,2004
2004-12-30,2004-12-30,"הרב שושנה 12, באר שבע",הרב שושנה 12,38366-7-2,קוטג' חד משפחתי,,קרקע ראשונה,153.0,785000,,,2002.0,,,9450937530,1,383667,False,,באר שבע,הרב שושנה,,38366-7-2,38366/7,5130.718954248366,31.2833645882,34.7976428335,2004
2004-12-30,2004-12-30,"נחום שריג 38, באר שבע",נחום שריג 38,38370-2-21,דירה בבית קומות,5.0,חמישית,108.0,562000,,,2003.0,,6.0,9450621900,1,383702,False,,באר שבע,שריג נחום,,38370-2-21,38370/2,5203.703703703704,31.2842605463,34.8063108443,2004
2004-12-30,2004-12-30,"חיים יחיל 10, באר שבע",חיים יחיל 10,38013-19-69,משרד,,,1145.0,7209000,,,1970.0,,2.0,9451652400,1,3801319,False,,באר שבע,יחיל חיים,,38013-19-69,38013/19,6296.069868995633,31.2430567596,34.7990852302,2004
2004-12-30,2004-12-30,"הנרי קנדל 10, באר שבע",הנרי קנדל 10,38035-60-378,דירה בבית קומות,5.0,עשירית,134.0,600000,,,2000.0,,18.0,9450270720,1,3803560,False,,באר שבע,קנדל הנרי,,38035-60-378,38035/60,4477.611940298508,31.2452471681,34.7832342939,2004
2004-12-30,2004-12-30,"אוסקר שינדלר 10, באר שבע",אוסקר שינדלר 10,38367-15-4,דירה בבית קומות,4.0,ראשונה,88.8,446000,,,2004.0,,6.0,9451193580,1,3836715,False,,באר שבע,שינדלר אוסקר,,38367-15-4,38367/15,5022.522522522523,31.2826927908,34.8015802347,2004
2004-12-30,2004-12-30,"בר-ניסן 15, באר שבע",בר-ניסן 15,38187-59-91,דירה בבית קומות,4.0,רביעית,86.9,450000,,,2002.0,,8.0,9451978560,1,3818759,False,,באר שבע,בר ניסן,,38187-59-91,38187/59,5178.3659378596085,31.2398695048,34.7630533786,2004
2004-12-30,2004-12-30,"אמציה 6, באר שבע",אמציה 6,38108-71-12,דירה בבית קומות,3.0,שניה,61.0,292000,,,1980.0,,4.0,9450226170,1,3810871,False,,באר שבע,אמציה,,38108-71-12,38108/71,4786.88524590164,31.2644164804,34.7844882038,2004
2004-12-29,2004-12-29,"הנרי קנדל 10, באר שבע",הנרי קנדל 10,38035-60-380,דירה בבית קומות,5.0,,120.0,605000,,,2000.0,,18.0,9450269280,1,3803560,False,,באר שבע,קנדל הנרי,,38035-60-380,38035/60,5041.666666666667,31.2452471681,34.7832342939,2004
2004-12-29,2004-12-29,"נחום גולדמן 21, באר שבע",נחום גולדמן 21,38373-3-72,דירה בבית קומות,4.0,,113.0,505000,,,2000.0,,3.0,9450581760,1,383733,False,,באר שבע,גולדמן נחום,,38373-3-72,38373/3,4469.026548672567,31.2792856987,34.802685277,2004
2004-12-28,2004-12-28,"נגבה 75, באר שבע",נגבה 75,38006-147-11,דירה בבית קומות,4.0,,100.0,450000,,,1970.0,,1.0,9451599840,1,38006147,False,,באר שבע,נגבה,,38006-147-11,38006/147,4500.0,31.2421330855,34.7812300336,2004
2004-12-27,2004-12-27,"טבנקין 60, באר שבע",טבנקין 60,38102-8-12,דירה בבית קומות,4.0,שניה,83.1,269000,,,1970.0,,4.0,9372602250,1,381028,False,,באר שבע,טבנקין,,38102-8-12,38102/8,3237.063778580024,31.2542035129,34.7723409474,2004
2004-12-26,2004-12-26,"עוזי נרקיס 11, באר שבע",עוזי נרקיס 11,38368-16-22,דירה בבית קומות,5.0,ראשונה,102.0,535000,,,2003.0,,4.0,9450538110,1,3836816,False,,באר שבע,נרקיס עוזי,,38368-16-22,38368/16,5245.098039215686,31.282534424,34.8038649801,2004
2004-12-26,2004-12-26,"נגבה 75, באר שבע",נגבה 75,38006-147-12,חנות,,,40.0,319000,,,1970.0,,1.0,9451599120,1,38006147,False,,באר שבע,נגבה,,38006-147-12,38006/147,7975.0,31.2421330855,34.7812300336,2004
2004-12-26,2004-12-26,"רפאל קלצ'קין 36, באר שבע",רפאל קלצ'קין 36,38381-18-1,דירת גן,5.0,,140.0,619000,,,1980.0,,1.0,9372601530,1,3838118,False,,באר שבע,קלצ'קין רפאל,,38381-18-1,38381/18,4421.428571428572,31.2688282054,34.7704593169,2004
2004-12-26,2004-12-26,"בר-כוכבא 3, באר שבע",בר-כוכבא 3,38006-12-10,דירה בבית קומות,4.0,ראשונה,97.0,498000,,,1983.0,,1.0,9450093240,1,3800612,False,,באר שבע,בר כוכבא,,38006-12-10,38006/12,5134.020618556701,31.2431775988,34.7805752354,2004
2004-12-26,2004-12-26,"אהוד בן-גרא 3, באר שבע",אהוד בן-גרא 3,38006-112-5,דירה בבית קומות,,,107.0,391000,,,1980.0,,1.0,9450292950,1,38006112,False,,באר שבע,אהוד בן גרא,,38006-112-5,38006/112,3654.205607476636,31.2407769427,34.7811784215,2004
2004-12-23,2004-12-23,"הכ""ג 5, באר שבע","הכ""ג 5",38030-184-1,דירה בבית קומות,3.0,ראשונה,61.4,195000,,,1980.0,,,9450030150,1,38030184,False,,באר שבע,"הכ""ג",,38030-184-1,38030/184,3175.8957654723126,31.2505747653,34.803835543,2004
2004-12-23,2004-12-23,"נחום גוטמן 2, באר שבע",נחום גוטמן 2,38137-6-14,דירה בבית קומות,3.0,קרקע,67.7,325000,,,1992.0,,2.0,9450087300,1,381376,False,,באר שבע,גוטמן נחום,,38137-6-14,38137/6,4800.590841949778,31.2386176041,34.7794435528,2004
2004-12-20,2004-12-20,"אופירה 32, באר שבע",אופירה 32,38111-196-43,דירה בבית קומות,4.0,שניה,89.5,411000,,,1998.0,,9.0,9372459690,1,38111196,True,-16% ב 6.2 שנים,באר שבע,אופירה,-2.58,38111-196-43,38111/196,4592.17877094972,31.2449221944,34.7716991832,2004
2004-12-20,2004-12-20,"המשחררים 14, באר שבע",המשחררים 14,38074-160-22,דירה בבית קומות,4.0,רביעית,96.0,635000,,,2004.0,,17.0,9450208350,1,38074160,False,,באר שבע,המשחררים,,38074-160-22,38074/160,6614.583333333333,31.2519313544,34.7951495936,2004
2004-12-19,2004-12-19,"קרן היסוד 9, באר שבע",קרן היסוד 9,38018-20-25,משרד,3.0,שניה,81.7,312000,,,1970.0,,3.0,9450122940,1,3801820,False,,באר שבע,קרן היסוד,,38018-20-25,38018/20,3818.849449204406,31.2463215572,34.8004576869,2004
2004-12-16,2004-12-16,"המשחררים 14, באר שבע",המשחררים 14,38074-160-71,דירה בבית קומות,3.0,ארבע עשרה,72.0,545000,,,2004.0,,17.0,9450207630,1,38074160,False,,באר שבע,המשחררים,,38074-160-71,38074/160,7569.444444444444,31.2519313544,34.7951495936,2004
2004-12-16,2004-12-16,"הנרי קנדל 10, באר שבע",הנרי קנדל 10,38035-60-381,דירה בבית קומות,5.0,,134.0,528000,,,2000.0,,18.0,9372699540,1,3803560,False,,באר שבע,קנדל הנרי,,38035-60-381,38035/60,3940.298507462687,31.2452471681,34.7832342939,2004
2004-12-15,2004-12-15,"יד ושם 24, באר שבע",יד ושם 24,38030-4-3,דירה בבית קומות,,,40.0,194000,,,1996.0,,17.0,9372444120,1,380304,False,,באר שבע,יד ושם,,38030-4-3,38030/4,4850.0,31.2494969321,34.8017107307,2004
2004-12-13,2004-12-13,"נחום גולדמן 33, באר שבע",נחום גולדמן 33,38373-4-16,דירה בבית קומות,4.0,שניה,93.0,500000,,,2003.0,,7.0,9450760680,1,383734,False,,באר שבע,גולדמן נחום,,38373-4-16,38373/4,5376.344086021505,31.2798362253,34.8025580014,2004
2004-12-13,2004-12-13,"הנרי קנדל 10, באר שבע",הנרי קנדל 10,38035-60-382,דירה בבית קומות,4.0,,96.0,488000,,,2000.0,,18.0,9450239490,1,3803560,False,,באר שבע,קנדל הנרי,,38035-60-382,38035/60,5083.333333333333,31.2452471681,34.7832342939,2004
2004-12-10,2004-10-12,"רוטנברג 7, באר שבע",רוטנברג 7,38027-12-25,דירה בבית קומות,3.0,,64.0,155000,,,1960.0,,3.0,9370403010,1,3802712,False,,באר שבע,רוטנברג,,38027-12-25,38027/12,2421.875,31.2590648221,34.8089928707,2004
2004-12-10,2004-10-12,"נחום גולדמן 21, באר שבע",נחום גולדמן 21,38373-3-74,דירה בבית קומות,4.0,ראשונה,112.0,565000,,,2000.0,,3.0,9371075580,1,383733,False,,באר שבע,גולדמן נחום,,38373-3-74,38373/3,5044.642857142857,31.2792856987,34.802685277,2004
2004-12-10,2004-10-12,"הכנסת 25, באר שבע",הכנסת 25,38082-39-13,דירה בבית קומות,4.0,שניה,61.0,96000,,,1970.0,,3.0,9370850670,1,3808239,False,,באר שבע,הכנסת,,38082-39-13,38082/39,1573.770491803279,31.2705966955,34.7940946678,2004
2004-12-08,2004-08-12,"הרב הרצוג 26, באר שבע",הרב הרצוג 26,38124-13-1,דירה בבית קומות,5.0,,181.0,816000,,,1990.0,,,9368386380,1,3812413,False,,באר שבע,הרב הרצוג,,38124-13-1,38124/13,4508.287292817679,31.2609297345,34.7677433844,2004
2004-12-08,2004-08-12,"יד ושם 4, באר שבע",יד ושם 4,38030-15-102,דירה בבית קומות,2.0,תשיעית,56.0,188000,,,1960.0,,3.0,9368970840,1,3803015,False,,באר שבע,יד ושם,,38030-15-102,38030/15,3357.1428571428573,31.2521496443,34.8034240066,2004
2004-12-05,2004-05-12,"הנרי קנדל 10, באר שבע",הנרי קנדל 10,38035-60-405,דירה בבית קומות,5.0,שתים עשרה,134.0,555000,,,2000.0,,18.0,9365308110,1,3803560,False,,באר שבע,קנדל הנרי,,38035-60-405,38035/60,4141.79104477612,31.2452471681,34.7832342939,2004
2004-12-05,2004-05-12,"שמואל פלדברג 60, באר שבע",שמואל פלדברג 60,38247-20-1,דירה בבית קומות,5.0,קרקע ראשונה,127.9,786000,,,2001.0,,,9365028120,1,3824720,False,0% ב 3.3 שנים,באר שבע,פלדברג שמואל,0.0,38247-20-1,38247/20,6145.426114151681,31.2762782614,34.8254575755,2004
2004-12-03,2004-03-12,"אהוד בן-גרא 5, באר שבע",אהוד בן-גרא 5,38006-111-25,דירה בבית קומות,3.0,שלישית,60.0,365000,,,1964.0,,1.0,9363049290,1,38006111,False,,באר שבע,אהוד בן גרא,,38006-111-25,38006/111,6083.333333333333,31.2408642891,34.7810496883,2004
2004-12-03,2004-03-12,"הנרי קנדל 10, באר שבע",הנרי קנדל 10,38035-60-412,דירה בבית קומות,4.5,ראשונה,162.0,600000,,,2000.0,,18.0,9363471030,1,3803560,False,,באר שבע,קנדל הנרי,,38035-60-412,38035/60,3703.703703703704,31.2452471681,34.7832342939,2004
2004-12-01,2004-01-12,"אהרון קציר 67, באר שבע",אהרון קציר 67,38447-20-1,בית בודד,,,75.0,517000,,,1991.0,,1.0,9450627210,1,3844720,False,,באר שבע,קציר אהרון,,38447-20-1,38447/20,6893.333333333333,31.2740327753,34.8074868834,2004
2004-11-30,2004-11-30,"הנרי קנדל 10, באר שבע",הנרי קנדל 10,38035-60-383,דירה בבית קומות,5.0,שמינית,134.0,687000,,,2000.0,,18.0,9372060180,1,3803560,False,,באר שבע,קנדל הנרי,,38035-60-383,38035/60,5126.865671641791,31.2452471681,34.7832342939,2004
2004-11-29,2004-11-29,"גולני 4, באר שבע",גולני 4,38026-73-1,דירה בבית קומות,4.0,קרקע,106.3,411000,,,1960.0,,,9371914020,1,3802673,False,,באר שבע,גולני,,38026-73-1,38026/73,3866.415804327376,31.2571997291,34.8070187582,2004
2004-11-29,2004-11-29,"הנרי קנדל 10, באר שבע",הנרי קנדל 10,38035-60-384,חנות,,שישית,138.0,131000,,,2000.0,,18.0,9450491940,1,3803560,False,,באר שבע,קנדל הנרי,,38035-60-384,38035/60,949.2753623188406,31.2452471681,34.7832342939,2004
2004-11-28,2004-11-28,"יוהנה ז'בוטינסקי 60, באר שבע",יוהנה ז'בוטינסקי 60,38191-6-88,דירה בבית קומות,2.0,שניה,56.0,295000,,,1999.0,,17.0,9372191580,1,381916,True,-5% ב 3.9 שנים,באר שבע,יוהנה ז'בוטינסקי,-1.28,38191-6-88,38191/6,5267.857142857143,31.2366538537,34.770368037,2004
2004-11-26,2004-11-26,"רנה קאסין 61, באר שבע",רנה קאסין 61,38396-86-1,קוטג' טורי,6.0,,126.0,666000,,,1993.0,,1.0,9371707470,1,3839686,False,,באר שבע,רנה קסן,,38396-86-1,38396/86,5285.714285714285,31.2756102376,34.8020640806,2004
2004-11-25,2004-11-25,"נחום שריג 36, באר שבע",נחום שריג 36,38370-2-24,דירה בבית קומות,3.0,קרקע,85.5,440000,,,2003.0,,6.0,9372000150,1,383702,False,,באר שבע,שריג נחום,,38370-2-24,38370/2,5146.198830409357,31.2842605463,34.8063108443,2004
2004-11-24,2004-11-24,"נחום גולדמן 21, באר שבע",נחום גולדמן 21,38373-3-73,דירה בבית קומות,4.0,שמינית,111.0,570000,,,2000.0,,3.0,9372035790,1,383733,False,,באר שבע,גולדמן נחום,,38373-3-73,38373/3,5135.135135135135,31.2792856987,34.802685277,2004
2004-11-24,2004-11-24,"ברק 20, באר שבע",ברק 20,38006-141-9,דירה בבית קומות,3.0,,80.0,411000,,,1960.0,,1.0,9371562030,1,38006141,False,,באר שבע,ברק,,38006-141-9,38006/141,5137.5,31.2418759716,34.7811374452,2004
2004-11-23,2004-11-23,"זיסו 7, באר שבע",זיסו 7,38028-82-35,דירה בבית קומות,,,54.0,236000,,,1998.0,,,9371394180,1,3802882,False,,באר שבע,זיסו,,38028-82-35,38028/82,4370.37037037037,31.2555318751,34.8090591719,2004
2004-11-23,2004-11-23,"הרב שלמה טנא 12, באר שבע",הרב שלמה טנא 12,38389-45-15,דירה בבית קומות,4.0,קומה ‎4‏,94.0,500000,,,2007.0,,14.0,9371888010,1,3838945,False,,באר שבע,הרב טנא שלמה,,38389-45-15,38389/45,5319.148936170212,31.2338206201,34.7836443819,2004
2004-11-22,2004-11-22,"יד ושם 4, באר שבע",יד ושם 4,38030-15-100,דירה בבית קומות,1.0,רביעית,46.0,98000,,,1960.0,,3.0,9371668320,1,3803015,False,,באר שבע,יד ושם,,38030-15-100,38030/15,2130.4347826086955,31.2521496443,34.8034240066,2004
2004-11-21,2004-11-21,"המכבים 23, באר שבע",המכבים 23,38006-25-1,דירה בבית קומות,3.0,שניה,93.0,408000,,,2004.0,,,9371732760,1,3800625,False,,באר שבע,המכבים,,38006-25-1,38006/25,4387.096774193548,31.2435680224,34.781809426,2004
2004-11-21,2004-11-21,"נגבה 79, באר שבע",נגבה 79,38006-145-4,דירה בבית קומות,5.0,שלישית,133.0,700000,,,1970.0,,1.0,9371740320,1,38006145,False,,באר שבע,נגבה,,38006-145-4,38006/145,5263.1578947368425,31.2422503963,34.7810521255,2004
2004-11-19,2004-11-19,"נגבה 89, באר שבע",נגבה 89,38006-37-2,דירה בבית קומות,,שניה,70.0,285000,,,1960.0,,1.0,9371899080,1,3800637,False,,באר שבע,נגבה,,38006-37-2,38006/37,4071.428571428572,31.2426353737,34.7804900789,2004
2004-11-18,2004-11-18,"גמל 15, באר שבע",גמל 15,38058-1-103,דירה בבית קומות,4.0,ראשונה,85.0,254000,,,1970.0,,3.0,9450030870,1,380581,False,,באר שבע,גמל,,38058-1-103,38058/1,2988.235294117647,31.2487189013,34.7792235087,2004
2004-11-18,2004-11-18,"נגבה 79, באר שבע",נגבה 79,38006-145-5,דירה בבית קומות,4.0,ראשונה,110.0,508000,,,1970.0,,1.0,9371732040,1,38006145,False,,באר שבע,נגבה,,38006-145-5,38006/145,4618.181818181818,31.2422503963,34.7810521255,2004
2004-11-17,2004-11-17,"המשחררים 14, באר שבע",המשחררים 14,38074-160-73,דירה בבית קומות,3.0,ארבע עשרה,84.0,613000,,,2004.0,,17.0,9372173760,1,38074160,False,,באר שבע,המשחררים,,38074-160-73,38074/160,7297.619047619048,31.2519313544,34.7951495936,2004
2004-11-17,2004-11-17,"שבטה 13, באר שבע",שבטה 13,38111-7-2,דירה בבית קומות,,שישית,112.0,460000,,,1999.0,,,9371596950,1,381117,False,,באר שבע,שיבטה,,38111-7-2,38111/7,4107.142857142857,31.244609889,34.7687533791,2004
2004-11-15,2004-11-15,"יסקי 4, באר שבע",יסקי 4,38035-6-25,דירה בבית קומות,4.0,שלישית,102.0,229000,,,1950.0,,1.0,9371469240,1,380356,False,,באר שבע,יסקי,,38035-6-25,38035/6,2245.098039215686,31.2430209002,34.7873282824,2004
2004-11-15,2004-11-15,"דוד גינצבורג 9, באר שבע",דוד גינצבורג 9,38159-77-1,קוטג' חד משפחתי,,,129.0,639000,,,2000.0,,,9371472210,1,3815977,False,,באר שבע,גינצבורג דוד,,38159-77-1,38159/77,4953.488372093023,31.2741757915,34.8065912406,2004
2004-11-15,2004-11-15,"אהוד בן-גרא 1, באר שבע",אהוד בן-גרא 1,38006-113-19,דירה בבית קומות,4.0,,102.0,344000,,,1990.0,,,9371899800,1,38006113,False,,באר שבע,אהוד בן גרא,,38006-113-19,38006/113,3372.549019607843,31.2406884039,34.7813036005,2004
2004-11-14,2004-11-14,"הנרי קנדל 10, באר שבע",הנרי קנדל 10,38035-60-386,דירה בבית קומות,5.0,שתים עשרה,134.0,620000,,,2000.0,,18.0,9371404710,1,3803560,False,,באר שבע,קנדל הנרי,,38035-60-386,38035/60,4626.865671641791,31.2452471681,34.7832342939,2004
2004-11-14,2004-11-14,"בודנהיימר 28, באר שבע",בודנהיימר 28,38372-2-24,דירה בבית קומות,4.0,שלישית,91.0,475000,,,2003.0,,5.0,9372139830,1,383722,False,,באר שבע,בודנהיימר,,38372-2-24,38372/2,5219.780219780219,31.2822187803,34.8010585499,2004
2004-11-14,2004-11-14,"ויצמן 4, באר שבע",ויצמן 4,38023-66-2,דירה בבית קומות,,קרקע,87.6,490000,,,1959.0,,1.0,9371498220,1,3802366,False,,באר שבע,ויצמן,,38023-66-2,38023/66,5593.607305936073,31.2473682702,34.7955036557,2004
2004-11-14,2004-11-14,"בני אור 60, באר שבע",בני אור 60,38021-13-6,דירה בבית קומות,3.0,שניה,66.8,203000,,,1970.0,,4.0,9371449800,1,3802113,False,,באר שבע,בני אור,,38021-13-6,38021/13,3038.9221556886228,31.2580033706,34.7829385804,2004
2004-11-14,2004-11-14,"ארלוזורוב 20, באר שבע",ארלוזורוב 20,38028-10-1,דירה בבית קומות,4.0,קרקע,88.1,420000,,,1960.0,,1.0,9372044700,1,3802810,False,,באר שבע,ארלוזורוב,,38028-10-1,38028/10,4767.309875141885,31.2539275621,34.8066949023,2004
2004-11-11,2004-11-11,"בר-ניסן 13, באר שבע",בר-ניסן 13,38187-59-20,דירה בבית קומות,4.0,שישית,87.2,450000,,,2002.0,,8.0,10265962590,1,3818759,False,,באר שבע,בר ניסן,,38187-59-20,38187/59,5160.5504587155965,31.2398695048,34.7630533786,2004
2004-11-11,2004-11-11,"הנוקם 6, באר שבע",הנוקם 6,38006-174-14,דירה בבית קומות,4.0,,90.0,370000,,,1990.0,,,9371205720,1,38006174,False,,באר שבע,הנוקם,,38006-174-14,38006/174,4111.111111111111,31.2421085432,34.7833725562,2004
2004-11-10,2004-10-11,"ביאליק 1, באר שבע",ביאליק 1,38074-1-36,דירה בבית קומות,4.0,,130.0,636000,,,1960.0,,3.0,9370706670,1,380741,False,,באר שבע,ביאליק,,38074-1-36,38074/1,4892.307692307692,31.2549643106,34.7967157187,2004
2004-11-08,2004-08-11,"שמשון עמיצור 2, באר שבע",שמשון עמיצור 2,38371-5-8,דירה בבית קומות,4.0,שניה,91.91,545000,,,2002.0,,3.0,9368942490,1,383715,False,,באר שבע,עמיצור שמשון,,38371-5-8,38371/5,5929.71385050593,31.2804273817,34.7983454009,2004
2004-11-07,2004-07-11,"בני אור 25, באר שבע",בני אור 25,38020-16-17,דירה בבית קומות,4.0,,96.0,237000,,,1970.0,,4.0,9368083620,1,3802016,False,,באר שבע,בני אור,,38020-16-17,38020/16,2468.75,31.2582803888,34.7849502606,2004
2004-11-07,2004-07-11,"חיים יחיל 10, באר שבע",חיים יחיל 10,38013-19-70,משרד,,שישית,124.0,547000,,,1970.0,,2.0,9368589150,1,3801319,False,,באר שבע,יחיל חיים,,38013-19-70,38013/19,4411.290322580645,31.2430567596,34.7990852302,2004
2004-11-05,2004-05-11,"חיים לנדאו 10, באר שבע",חיים לנדאו 10,38135-32-10,דירה בבית קומות,4.0,שלישית,78.9,268000,,,1993.0,,8.0,9365241870,1,3813532,False,,באר שבע,לנדאו חיים,,38135-32-10,38135/32,3396.704689480355,31.2566457764,34.7611754607,2004
2004-11-03,2004-03-11,"פסמון 38, באר שבע",פסמון 38,38081-28-33,דירה בבית קומות,3.0,רביעית,65.0,216000,,,1970.0,,,9363292830,1,3808128,False,,באר שבע,פסמון,,38081-28-33,38081/28,3323.076923076923,31.2501156031,34.77838595,2004
2004-11-02,2004-02-11,"נחום שריג 41, באר שבע",נחום שריג 41,38368-18-26,דירה בבית קומות,3.0,ראשונה,71.0,401000,,,2005.0,,5.0,9362190240,1,3836818,False,,באר שבע,שריג נחום,,38368-18-26,38368/18,5647.887323943662,31.284764986,34.805521102,2004
2004-11-02,2004-02-11,"סוסיה 8, באר שבע",סוסיה 8,38111-201-124,דירה בבית קומות,5.0,קומה ‎7‏,116.0,625000,,,2005.0,,10.0,9362341620,1,38111201,False,,באר שבע,סוסיה,,38111-201-124,38111/201,5387.931034482759,31.2448368207,34.7732079901,2004
2004-11-02,2004-02-11,"רמב""ם 60, באר שבע","רמב""ם 60",38035-39-41,,3.0,רביעית,88.8,286000,,,1970.0,,7.0,9362009700,1,3803539,False,,באר שבע,"רמב""ם",,38035-39-41,38035/39,3220.7207207207207,31.2447068789,34.7869271944,2004
2004-11-01,2004-01-11,"העלייה 3, באר שבע",העלייה 3,38068-70-1,משרד,,,63.0,212000,,,1990.0,,,9361272510,1,3806870,False,,באר שבע,העליה,,38068-70-1,38068/70,3365.0793650793653,31.2505857003,34.7810134183,2004
2004-11-01,2004-01-11,"הפועלים 25, באר שבע",הפועלים 25,38143-1-1,חנות,,,2000.0,2157000,,,1986.0,,1.0,9362649780,1,381431,False,,באר שבע,הפועלים,,38143-1-1,38143/1,1078.5,31.2263665594,34.8058551202,2004
2004-10-31,2004-10-31,"הרב שלמה טנא 12, באר שבע",הרב שלמה טנא 12,38389-45-51,דירה בבית קומות,5.0,קומה ‎11‏,112.0,600000,,,2007.0,,14.0,9370859580,1,3838945,False,,באר שבע,הרב טנא שלמה,,38389-45-51,38389/45,5357.142857142857,31.2338206201,34.7836443819,2004
2004-10-29,2004-10-29,"נחום שריג 36, באר שבע",נחום שריג 36,38370-2-25,דירה בבית קומות,4.0,ראשונה,95.3,492000,,,2003.0,,6.0,9370841040,1,383702,False,,באר שבע,שריג נחום,,38370-2-25,38370/2,5162.644281217209,31.2842605463,34.8063108443,2004
2004-10-29,2004-10-29,"יפתח הגלעדי 18, באר שבע",יפתח הגלעדי 18,38006-104-6,דירה בבית קומות,3.0,,76.0,336000,,,1960.0,,1.0,9371016270,1,38006104,False,,באר שבע,יפתח הגלעדי,,38006-104-6,38006/104,4421.052631578948,31.2412484942,34.7801482257,2004
2004-10-29,2004-10-29,"רחל אימנו 24, באר שבע",רחל אימנו 24,38376-3-10,דירה בבית קומות,4.0,,72.0,413000,,,1997.0,,1.0,9370618290,1,383763,False,,באר שבע,רחל אמנו,,38376-3-10,38376/3,5736.111111111111,31.2704922308,34.7651271496,2004
2004-10-27,2004-10-27,"הערים התאומות 23, באר שבע",הערים התאומות 23,38371-3-7,דירה בבית קומות,5.0,שניה,124.3,667000,,,2001.0,,5.0,9370553580,1,383713,False,13% ב 4 שנים,באר שבע,הערים התאומות,3.25,38371-3-7,38371/3,5366.049879324216,31.2804217123,34.7989336766,2004
2004-10-26,2004-10-26,"הנוטר 35, באר שבע",הנוטר 35,38029-63-1,דירה בבית קומות,2.0,,35.0,257000,,,1970.0,,,9370999170,1,3802963,False,,באר שבע,הנוטר,,38029-63-1,38029/63,7342.857142857143,31.2529254815,34.8066238125,2004
2004-10-25,2004-10-25,"אברהם אמיר 54, באר שבע",אברהם אמיר 54,38246-5-5,בית בודד,5.0,קרקע,115.9,939000,,,1999.0,,,9370803870,1,382465,False,13% ב 4.5 שנים,באר שבע,אמיר אברהם,2.89,38246-5-5,38246/5,8101.8119068162205,31.2771173114,34.8250535057,2004
2004-10-25,2004-10-25,"הנרי קנדל 10, באר שבע",הנרי קנדל 10,38035-60-389,דירה בבית קומות,3.0,,75.0,480000,,,2000.0,,18.0,9370847700,1,3803560,False,,באר שבע,קנדל הנרי,,38035-60-389,38035/60,6400.0,31.2452471681,34.7832342939,2004
2004-10-24,2004-10-24,"נגבה 68, באר שבע",נגבה 68,38006-1-24,דירה בבית קומות,,,130.0,598000,,,1960.0,,1.0,9371088990,1,380061,False,,באר שבע,נגבה,,38006-1-24,38006/1,4600.0,31.2432183697,34.7802596113,2004
2004-10-21,2004-10-21,"הנרי קנדל 10, באר שבע",הנרי קנדל 10,38035-60-390,דירה בבית קומות,5.0,שש עשרה,134.0,590000,,,2000.0,,18.0,9370540980,1,3803560,False,,באר שבע,קנדל הנרי,,38035-60-390,38035/60,4402.985074626866,31.2452471681,34.7832342939,2004
2004-10-21,2004-10-21,"ח""ן 12, באר שבע","ח""ן 12",38353-9-4,דירה בבית קומות,,ראשונה,82.9,355000,,,1998.0,,7.0,9370524780,1,383539,False,,באר שבע,"ח""ן",,38353-9-4,38353/9,4282.267792521109,31.2659401879,34.7777809288,2004
2004-10-20,2004-10-20,"ברק 16, באר שבע",ברק 16,38006-140-7,דירה בבית קומות,3.0,,75.0,382000,,,1960.0,,1.0,9370492110,1,38006140,False,,באר שבע,ברק,,38006-140-7,38006/140,5093.333333333333,31.2418163365,34.7812261132,2004
2004-10-20,2004-10-20,"הנרי קנדל 10, באר שבע",הנרי קנדל 10,38035-60-391,דירה בבית קומות,4.0,,100.0,825000,,,2000.0,,18.0,9371884950,1,3803560,False,,באר שבע,קנדל הנרי,,38035-60-391,38035/60,8250.0,31.2452471681,34.7832342939,2004
2004-10-19,2004-10-19,"הנרי קנדל 10, באר שבע",הנרי קנדל 10,38035-60-392,דירה בבית קומות,6.0,שבע עשרה,187.0,900000,,,2000.0,,18.0,9370541700,1,3803560,False,,באר שבע,קנדל הנרי,,38035-60-392,38035/60,4812.834224598931,31.2452471681,34.7832342939,2004
2004-10-18,2004-10-18,"ברק 20, באר שבע",ברק 20,38006-142-9,דירה בבית קומות,4.0,שביעית,120.0,440000,,,1960.0,,1.0,9370214370,1,38006142,False,,באר שבע,ברק,,38006-142-9,38006/142,3666.6666666666665,31.2419362053,34.78104846,2004
2004-10-17,2004-10-17,"יחיל חיים 22, באר שבע",יחיל חיים 22,38018-22-15,דירה בבית קומות,4.0,קרקע,76.2,285000,,,1980.0,,3.0,9451760940,1,3801822,True,-2% ב 1.6 שנים,באר שבע,יחיל חיים,-1.25,38018-22-15,38018/22,3740.1574803149606,31.2452178513,34.8007533964,2004
2004-10-15,2004-10-15,"גמל 15, באר שבע",גמל 15,38058-1-104,דירה בבית קומות,4.0,,84.0,255000,,,1970.0,,3.0,9370045800,1,380581,False,,באר שבע,גמל,,38058-1-104,38058/1,3035.714285714286,31.2487189013,34.7792235087,2004
2004-10-15,2004-10-15,"אברהם אמיר 2, באר שבע",אברהם אמיר 2,38247-74-11,דירה בבית קומות,5.0,חמישית,128.0,754000,,,2004.0,,5.0,9370200330,1,3824774,False,,באר שבע,אמיר אברהם,,38247-74-11,38247/74,5890.625,31.2764652655,34.8220648822,2004
2004-10-14,2004-10-14,"זאב ז'בוטינסקי 17, באר שבע",זאב ז'בוטינסקי 17,38031-22-20,דירה בבית קומות,,,74.0,91000,,,1980.0,,,9371892510,1,3803122,False,,באר שבע,ז'בוטינסקי זאב,,38031-22-20,38031/22,1229.7297297297298,31.2496057745,34.8082471353,2004
2004-10-14,2004-10-14,"עוזי נרקיס 11, באר שבע",עוזי נרקיס 11,38368-16-3,דירה בבית קומות,5.0,ראשונה,103.0,530000,,,2003.0,,4.0,9370516500,1,3836816,False,,באר שבע,נרקיס עוזי,,38368-16-3,38368/16,5145.631067961165,31.282534424,34.8038649801,2004
2004-10-14,2004-10-14,"עוזי נרקיס 11, באר שבע",עוזי נרקיס 11,38368-16-5,דירה בבית קומות,5.0,שניה,103.0,535000,,,2003.0,,4.0,9370515870,1,3836816,False,,באר שבע,נרקיס עוזי,,38368-16-5,38368/16,5194.174757281553,31.282534424,34.8038649801,2004
2004-10-11,2004-11-10,"יהודה הלוי 48, באר שבע",יהודה הלוי 48,38096-18-126,דירה בבית קומות,,,98.0,354000,,,2000.0,,15.0,9371486340,1,3809618,False,,באר שבע,יהודה הלוי,,38096-18-126,38096/18,3612.244897959184,31.2656410395,34.7893540139,2004
2004-10-11,2004-11-10,"הנרי קנדל 10, באר שבע",הנרי קנדל 10,38035-60-387,דירה בבית קומות,5.0,עשירית,134.0,660000,,,2000.0,,18.0,9371403090,1,3803560,False,,באר שבע,קנדל הנרי,,38035-60-387,38035/60,4925.373134328358,31.2452471681,34.7832342939,2004
2004-10-10,2004-10-10,"הנוטר 29, באר שבע",הנוטר 29,38029-68-3,דירה בבית קומות,5.0,,87.0,625000,,,1980.0,,,9371229390,1,3802968,False,,באר שבע,הנוטר,,38029-68-3,38029/68,7183.908045977011,31.2530816819,34.8059012038,2004
2004-10-10,2004-10-10,"נחום סנה 2, באר שבע",נחום סנה 2,38367-18-140,דירה בבית קומות,5.0,,133.0,639000,,,2004.0,,,9370129050,1,3836718,False,,באר שבע,סנה נחום,,38367-18-140,38367/18,4804.511278195489,31.2839340418,34.8008931592,2004
2004-10-10,2004-10-10,"שמשון עמיצור 28, באר שבע",שמשון עמיצור 28,38371-2-4,קוטג' חד משפחתי,6.5,קרקע ראשונה,153.0,815000,,,2002.0,,,9370124550,1,383712,False,,באר שבע,עמיצור שמשון,,38371-2-4,38371/2,5326.797385620915,31.282340734,34.7976954205,2004
2004-10-10,2004-10-10,"ישראל גלילי 32, באר שבע",ישראל גלילי 32,38368-11-2,דירה בבית קומות,3.0,ראשונה,77.0,409000,,,2005.0,,5.0,9370230030,1,3836811,False,,באר שבע,גלילי ישראל,,38368-11-2,38368/11,5311.688311688312,31.2853150845,34.8044444756,2004
2004-10-10,2004-10-10,"ישראל גלילי 30, באר שבע",ישראל גלילי 30,38368-11-10,דירה בבית קומות,3.0,מרתף,80.1,450000,,,2005.0,,5.0,9370230750,1,3836811,False,,באר שבע,גלילי ישראל,,38368-11-10,38368/11,5617.977528089888,31.2853150845,34.8044444756,2004
2004-10-08,2004-08-10,"הנרי קנדל 10, באר שבע",הנרי קנדל 10,38035-60-395,דירה בבית קומות,5.5,,162.0,620000,,,2000.0,,18.0,9368813520,1,3803560,False,,באר שבע,קנדל הנרי,,38035-60-395,38035/60,3827.16049382716,31.2452471681,34.7832342939,2004
2004-10-06,2004-06-10,"בודנהיימר 5, באר שבע",בודנהיימר 5,38372-9-18,דירה בבית קומות,5.0,שניה+שלישית,132.0,705000,,,2001.0,,5.0,9366587280,1,383729,False,6% ב 2.1 שנים,באר שבע,בודנהיימר,2.86,38372-9-18,38372/9,5340.909090909091,31.2814179195,34.8010720139,2004
2004-10-06,2004-06-10,"עגנון 4, באר שבע",עגנון 4,38081-1-44,דירה בבית קומות,4.0,אחת עשרה,94.0,208000,,,1980.0,,14.0,9366208740,1,380811,False,,באר שבע,עגנון,,38081-1-44,38081/1,2212.7659574468084,31.2527808896,34.7775180397,2004
2004-10-03,2004-03-10,"נגבה 79, באר שבע",נגבה 79,38006-145-9,דירה בבית קומות,4.0,ראשונה,108.0,530000,,,1970.0,,1.0,9363351510,1,38006145,False,,באר שבע,נגבה,,38006-145-9,38006/145,4907.407407407408,31.2422503963,34.7810521255,2004
2004-10-03,2004-03-10,"יהואש 1, באר שבע",יהואש 1,38123-96-1,דירה בבית קומות,6.0,,250.0,728000,,,1970.0,,1.0,9363294270,1,3812396,False,,באר שבע,יהואש,,38123-96-1,38123/96,2912.0,31.2624483132,34.7874315136,2004
2004-10-02,2004-02-10,"בר ניסן 24, באר שבע",בר ניסן 24,38187-36-3,דירה בבית קומות,5.0,ראשונה,107.3,520000,,,2002.0,,6.0,9362751480,1,3818736,False,,באר שבע,בר ניסן,,38187-36-3,38187/36,4846.225535880709,31.2398456191,34.7638297194,2004
2004-10-02,2004-02-10,"חז""ל 88, באר שבע","חז""ל 88",38071-1-18,דירה בבית קומות,3.0,,60.0,270000,,,1800.0,,,9362038050,1,380711,False,,באר שבע,"חז""ל",,38071-1-18,38071/1,4500.0,31.2577584424,34.7905175695,2004
2004-10-02,2004-02-10,"ישראל גלילי 1, באר שבע",ישראל גלילי 1,38368-10-17,דירה בבית קומות,3.0,רביעית,69.0,442000,,,2003.0,,5.0,9362653470,1,3836810,False,,באר שבע,גלילי ישראל,,38368-10-17,38368/10,6405.797101449275,31.282576506,34.8032998214,2004
2004-10-02,2004-02-10,"בזל 59, באר שבע",בזל 59,38261-31-1,דירה בבית קומות,6.0,ראשונה,140.0,362000,,,1960.0,,,9643217580,1,3826131,False,,באר שבע,בזל,,38261-31-1,38261/31,2585.714285714286,31.2510917818,34.7894040306,2004
2004-09-29,2004-09-29,"נחום גולדמן 47, באר שבע",נחום גולדמן 47,38373-6-41,דירה בבית קומות,,,145.0,530000,,,2004.0,,3.0,9371861280,1,383736,False,,באר שבע,גולדמן נחום,,38373-6-41,38373/6,3655.1724137931033,31.2812261833,34.8028416658,2004
2004-09-28,2004-09-28,"עוזי נרקיס 23, באר שבע",עוזי נרקיס 23,38368-15-9,דירה בבית קומות,,מרתף + קרקע,126.1,680000,,,2004.0,,6.0,9370082160,1,3836815,False,,באר שבע,נרקיס עוזי,,38368-15-9,38368/15,5392.545598731166,31.2829347524,34.8041231854,2004
2004-09-28,2004-09-28,"זיסו 7, באר שבע",זיסו 7,38028-82-36,דירה בבית קומות,3.0,,60.0,219000,,,1960.0,,,9370188360,1,3802882,False,,באר שבע,זיסו,,38028-82-36,38028/82,3650.0,31.2555318751,34.8090591719,2004
2004-09-27,2004-09-27,"נגבה 52, באר שבע",נגבה 52,38006-161-10,דירה בבית קומות,,,75.0,322000,,,1960.0,,1.0,9369976770,1,38006161,False,,באר שבע,נגבה,,38006-161-10,38006/161,4293.333333333333,31.2421053003,34.7819827516,2004
2004-09-27,2004-09-27,"פיארברג 16, באר שבע",פיארברג 16,38139-32-17,דירה בבית קומות,4.0,רביעית חמישית,96.0,472000,,,1998.0,,5.0,9370570680,1,3813932,False,1% ב 5.9 שנים,באר שבע,פיארברג,0.17,38139-32-17,38139/32,4916.666666666667,31.2353745312,34.7755441405,2004
2004-09-27,2004-09-27,"יעקב כהן 9, באר שבע",יעקב כהן 9,38074-149-21,דירה בבית קומות,4.0,שישית,92.0,385000,,,2005.0,,9.0,9370959930,1,38074149,False,,באר שבע,כהן יעקב,,38074-149-21,38074/149,4184.782608695652,31.2540122092,34.7970244377,2004
2004-09-27,2004-09-27,"יהודה הלוי 48, באר שבע",יהודה הלוי 48,38096-18-127,דירה בבית קומות,4.0,אחת עשרה,80.0,390000,,,2000.0,,15.0,9370887930,1,3809618,False,,באר שבע,יהודה הלוי,,38096-18-127,38096/18,4875.0,31.2656410395,34.7893540139,2004
2004-09-23,2004-09-23,"יפה לייב 13, באר שבע",יפה לייב 13,38018-18-44,דירה בבית קומות,3.0,,75.0,228000,,,1960.0,,3.0,9370488420,1,3801818,False,,באר שבע,יפה לייב,,38018-18-44,38018/18,3040.0,31.2466341297,34.8008621785,2004
2004-09-23,2004-09-23,"ברק 16, באר שבע",ברק 16,38006-140-8,דירה בבית קומות,,רביעית,117.0,408000,,,1960.0,,1.0,9370714680,1,38006140,False,,באר שבע,ברק,,38006-140-8,38006/140,3487.1794871794878,31.2418163365,34.7812261132,2004
2004-09-22,2004-09-22,"נחום שריג 45, באר שבע",נחום שריג 45,38365-8-16,דירה בבית קומות,3.0,שלישית,69.3,376000,,,2003.0,,6.0,9369789660,1,383658,False,,באר שבע,שריג נחום,,38365-8-16,38365/8,5425.685425685426,31.2854266391,34.8055044809,2004
2004-09-22,2004-09-22,"הגלבוע 23, באר שבע",הגלבוע 23,38102-13-15,דירה בבית קומות,4.0,חמישית,79.1,268000,,,1970.0,,8.0,9369558720,1,3810213,False,,באר שבע,הגלבוע,,38102-13-15,38102/13,3388.116308470291,31.252693717,34.7711701813,2004
2004-09-21,2004-09-21,"נחום גולדמן 47, באר שבע",נחום גולדמן 47,38373-6-42,דירה בבית קומות,5.0,,130.0,607000,,,2004.0,,3.0,9370457910,1,383736,False,,באר שבע,גולדמן נחום,,38373-6-42,38373/6,4669.2307692307695,31.2812261833,34.8028416658,2004
2004-09-20,2004-09-20,"נחום שריג 31, באר שבע",נחום שריג 31,38370-14-1,דירה בבית קומות,4.0,ראשונה,74.0,496000,,,2005.0,,3.0,9369857970,1,3837014,False,,באר שבע,שריג נחום,,38370-14-1,38370/14,6702.702702702703,31.2827832502,34.8055374844,2004
2004-09-20,2004-09-20,"הנרי קנדל 10, באר שבע",הנרי קנדל 10,38035-60-394,דירה בבית קומות,5.0,,134.0,573000,,,2000.0,,18.0,9369500040,1,3803560,False,,באר שבע,קנדל הנרי,,38035-60-394,38035/60,4276.119402985075,31.2452471681,34.7832342939,2004
2004-09-15,2004-09-15,"יד ושם 4, באר שבע",יד ושם 4,38030-15-101,דירה בבית קומות,2.0,שתים עשרה,50.0,219000,,,1960.0,,3.0,9370192140,1,3803015,False,,באר שבע,יד ושם,,38030-15-101,38030/15,4380.0,31.2521496443,34.8034240066,2004
2004-09-14,2004-09-14,"המעפילים 24, באר שבע",המעפילים 24,38031-12-8,דירה בבית קומות,3.0,שניה,62.3,259000,,,1993.0,,8.0,9370481580,1,3803112,False,,באר שבע,המעפילים,,38031-12-8,38031/12,4157.303370786517,31.2505187436,34.807992973,2004
2004-09-13,2004-09-13,"יד ושם 24, באר שבע",יד ושם 24,38030-4-186,דירה בבית קומות,2.0,,50.0,191000,,,1996.0,,17.0,9369599490,1,380304,False,,באר שבע,יד ושם,,38030-4-186,38030/4,3820.0,31.2494969321,34.8017107307,2004
2004-09-13,2004-09-13,"ברק 1, באר שבע",ברק 1,38006-131-19,דירה בבית קומות,4.0,שניה,106.0,368000,,,1950.0,,1.0,9370417140,1,38006131,False,,באר שבע,ברק,,38006-131-19,38006/131,3471.698113207547,31.2410755335,34.7816591796,2004
2004-09-13,2004-09-13,"קרן היסוד 17, באר שבע",קרן היסוד 17,38018-23-21,דירה בבית קומות,4.0,שניה,75.8,296000,,,1970.0,,3.0,9370183860,1,3801823,False,,באר שבע,קרן היסוד,,38018-23-21,38018/23,3905.0131926121376,31.244871286,34.800381827,2004
2004-09-09,2004-09-09,"אוסקר שינדלר 10, באר שבע",אוסקר שינדלר 10,38367-15-53,דירה בבית קומות,4.0,שישית,100.7,502000,,,2004.0,,6.0,9370909350,1,3836715,False,,באר שבע,שינדלר אוסקר,,38367-15-53,38367/15,4985.104270109236,31.2826927908,34.8015802347,2004
2004-09-08,2004-08-09,"הנרי קנדל 10, באר שבע",הנרי קנדל 10,38035-60-396,דירה בבית קומות,6.0,,162.0,684000,,,2000.0,,18.0,9368957520,1,3803560,False,,באר שבע,קנדל הנרי,,38035-60-396,38035/60,4222.222222222223,31.2452471681,34.7832342939,2004
2004-09-07,2004-07-09,"מיכאל הנגבי 13, באר שבע",מיכאל הנגבי 13,38368-13-10,דירה בבית קומות,4.0,ראשונה,98.5,595000,,,2002.0,,7.0,9367308990,1,3836813,False,,באר שבע,הנגבי,,38368-13-10,38368/13,6040.609137055838,31.2841359487,34.8042372909,2004
2004-09-06,2004-06-09,"נגבה 61, באר שבע",נגבה 61,38006-154-15,דירה בבית קומות,3.0,שלישית,60.0,380000,,,1959.0,,1.0,9366600690,1,38006154,False,,באר שבע,נגבה,,38006-154-15,38006/154,6333.333333333333,31.24171483,34.7818506337,2004
2004-09-05,2004-05-09,"שמואל סמבורסקי 8, באר שבע",שמואל סמבורסקי 8,38158-83-1,דירה בבית קומות,3.0,,60.0,472000,,,1800.0,,,9365483340,1,3815883,False,,באר שבע,סמבורסקי שמואל,,38158-83-1,38158/83,7866.666666666667,31.271729607,34.8037656409,2004
2004-09-03,2004-03-09,"ישראל גלילי 26, באר שבע",ישראל גלילי 26,38368-11-42,דירה בבית קומות,4.0,רביעית,91.0,520000,,,2005.0,,5.0,9363349170,1,3836811,False,,באר שבע,גלילי ישראל,,38368-11-42,38368/11,5714.285714285715,31.2853150845,34.8044444756,2004
2004-09-03,2004-03-09,"המשחררים 14, באר שבע",המשחררים 14,38074-160-46,דירה בבית קומות,3.0,תשיעית,72.0,495000,,,2004.0,,17.0,9363685590,1,38074160,False,,באר שבע,המשחררים,,38074-160-46,38074/160,6875.0,31.2519313544,34.7951495936,2004
2004-09-03,2004-03-09,"יעקב כהן 9, באר שבע",יעקב כהן 9,38074-149-7,דירה בבית קומות,5.0,שניה,110.0,900000,,,2005.0,,9.0,9363140010,1,38074149,False,,באר שבע,כהן יעקב,,38074-149-7,38074/149,8181.818181818182,31.2540122092,34.7970244377,2004
2004-09-01,2004-01-09,"אהוד בן-גרא 11, באר שבע",אהוד בן-גרא 11,38006-108-20,,3.0,,72.0,328000,,,1997.0,,,9360535860,1,38006108,False,,באר שבע,אהוד בן גרא,,38006-108-20,38006/108,4555.555555555556,31.2411271081,34.7806605394,2004
2004-08-31,2004-08-31,"סוסיה 8, באר שבע",סוסיה 8,38111-201-117,דירה בבית קומות,5.0,קומה ‎6‏,116.0,605000,,,2005.0,,10.0,9369123570,1,38111201,False,,באר שבע,סוסיה,,38111-201-117,38111/201,5215.517241379311,31.2448368207,34.7732079901,2004
2004-08-30,2004-08-30,"ברק 16, באר שבע",ברק 16,38006-140-9,דירה בבית קומות,4.0,,90.0,441000,,,1960.0,,1.0,9368780670,1,38006140,False,,באר שבע,ברק,,38006-140-9,38006/140,4900.0,31.2418163365,34.7812261132,2004
2004-08-27,2004-08-27,"ארנסט חן 5, באר שבע",ארנסט חן 5,38161-127-1,דירה בבית קומות,,,150.0,704000,,,1991.0,,1.0,9368961210,1,38161127,False,,באר שבע,חן ארנסט,,38161-127-1,38161/127,4693.333333333333,31.2708963719,34.8077690954,2004
2004-08-27,2004-08-27,"מבצע דני 50, באר שבע",מבצע דני 50,38088-130-1,דירה בבית קומות,5.0,,192.0,800000,,,1992.0,,1.0,9369061200,1,38088130,False,,באר שבע,מבצע דני,,38088-130-1,38088/130,4166.666666666667,31.2606183454,34.7812512823,2004
2004-08-27,2004-08-27,"המעפילים 16, באר שבע",המעפילים 16,38031-11-3,דירה בבית קומות,2.0,ראשונה,60.0,250000,,,1960.0,,2.0,9370527750,1,3803111,False,,באר שבע,המעפילים,,38031-11-3,38031/11,4166.666666666667,31.2501820337,34.8074952043,2004
2004-08-27,2004-08-27,"האיילה 17, באר שבע",האיילה 17,38081-8-1,דירה בבית קומות,3.0,ראשונה,65.1,390000,,,1970.0,,4.0,9369081360,1,380818,False,,באר שבע,האיילה,,38081-8-1,38081/8,5990.78341013825,31.2515382516,34.7775736071,2004
2004-08-25,2004-08-25,"מיכאל הנגבי 11, באר שבע",מיכאל הנגבי 11,38368-13-4,דירה בבית קומות,4.5,שניה,93.5,555000,,,2002.0,,7.0,9369043380,1,3836813,False,,באר שבע,הנגבי,,38368-13-4,38368/13,5935.828877005348,31.2841359487,34.8042372909,2004
2004-08-24,2004-08-24,"הרב קפאח 30, באר שבע",הרב קפאח 30,38326-28-1,דירה בבית קומות,,,200.0,678000,,,2000.0,,1.0,9368771760,1,3832628,False,,באר שבע,הרב קפאח,,38326-28-1,38326/28,3390.0,31.2528917652,34.7626465117,2004
2004-08-24,2004-08-24,"שיטה 22, באר שבע",שיטה 22,38010-53-2,בית בודד,3.0,,70.0,633000,,,1980.0,,1.0,9369011520,1,3801053,False,,באר שבע,שטה,,38010-53-2,38010/53,9042.857142857143,31.2324290689,34.7909001628,2004
2004-08-23,2004-08-23,"המשחררים 26, באר שבע",המשחררים 26,38074-134-27,דירה בבית קומות,4.0,שביעית,89.0,470000,,,1992.0,,9.0,9368935920,1,38074134,False,,באר שבע,המשחררים,,38074-134-27,38074/134,5280.898876404494,31.2520992287,34.7935887115,2004
2004-08-22,2004-08-22,"יעקב כהן 9, באר שבע",יעקב כהן 9,38074-149-36,דירה בבית קומות,4.0,שלישית,91.0,690000,,,2005.0,,9.0,9368863920,1,38074149,False,,באר שבע,כהן יעקב,,38074-149-36,38074/149,7582.417582417583,31.2540122092,34.7970244377,2004
2004-08-22,2004-08-22,"הנרי קנדל 8, באר שבע",הנרי קנדל 8,38035-62-69,דירה בבית קומות,5.0,שלישית,124.0,615000,,,2000.0,,9.0,9368953020,1,3803562,False,,באר שבע,קנדל הנרי,,38035-62-69,38035/62,4959.677419354839,31.244533837,34.7841135458,2004
2004-08-19,2004-08-19,"אוסקר שינדלר 10, באר שבע",אוסקר שינדלר 10,38367-15-43,דירה בבית קומות,4.0,שלישית,94.3,455000,,,2004.0,,6.0,9370912410,1,3836715,False,,באר שבע,שינדלר אוסקר,,38367-15-43,38367/15,4825.026511134677,31.2826927908,34.8015802347,2004
2004-08-17,2004-08-17,"סוסיה 8, באר שבע",סוסיה 8,38111-201-122,דירה בבית קומות,5.0,קומה ‎7‏,116.0,618000,,,2005.0,,10.0,9368866800,1,38111201,False,,באר שבע,סוסיה,,38111-201-122,38111/201,5327.586206896552,31.2448368207,34.7732079901,2004
2004-08-16,2004-08-16,"ישראל גלילי 35, באר שבע",ישראל גלילי 35,38368-2-10,דירה בבית קומות,4.0,שלישית,95.0,490000,,,2003.0,,5.0,9369533610,1,383682,False,,באר שבע,גלילי ישראל,,38368-2-10,38368/2,5157.894736842105,31.2854762616,34.8038611287,2004
2004-08-13,2004-08-13,"יוחנן בן-זכאי 18, באר שבע",יוחנן בן-זכאי 18,38082-1-1,דירה בבית קומות,4.0,,96.0,443000,,,1995.0,,,9369970920,1,380821,False,,באר שבע,יוחנן בן זכאי,,38082-1-1,38082/1,4614.583333333333,31.2722316673,34.7929481995,2004
2004-08-11,2004-11-08,"מצדה 138, באר שבע",מצדה 138,38128-11-16,דירה בבית קומות,2.0,רביעית,49.0,154000,,,1970.0,,6.0,9370997010,1,3812811,False,,באר שבע,מצדה,,38128-11-16,38128/11,3142.8571428571427,31.2593851949,34.7849503372,2004
2004-08-11,2004-11-08,"ישראל גלילי 24, באר שבע",ישראל גלילי 24,38368-12-7,דירה בבית קומות,4.0,רביעית,84.0,443000,,,2003.0,,6.0,9371405430,1,3836812,False,,באר שבע,גלילי ישראל,,38368-12-7,38368/12,5273.809523809524,31.2848617092,34.8043475577,2004
2004-08-10,2004-10-08,"הרב קוק 25, באר שבע",הרב קוק 25,38103-16-18,דירה בבית קומות,3.0,ראשונה,59.9,241000,,,1970.0,,4.0,9369908370,1,3810316,True,-6% ב 3 שנים,באר שבע,הרב קוק,-2.0,38103-16-18,38103/16,4023.3722871452414,31.2573709549,34.7716463117,2004
2004-08-09,2004-09-08,"דוד טוביהו 59, באר שבע",דוד טוביהו 59,38035-43-46,דירה בבית קומות,5.0,,98.0,349000,,,1995.0,,8.0,9369830520,1,3803543,False,,באר שבע,טוביהו דוד,,38035-43-46,38035/43,3561.2244897959185,31.2451000871,34.7865082576,2004
2004-08-09,2004-09-08,"שלונסקי 15, באר שבע",שלונסקי 15,38102-62-1,בית בודד,3.0,,60.0,426000,,,1994.0,,,9370253790,1,3810262,False,,באר שבע,שלונסקי,,38102-62-1,38102/62,7100.0,31.2529332862,34.7749569341,2004
2004-08-09,2004-09-08,"דוד ילין 7, באר שבע",דוד ילין 7,38160-104-1,דירה בבית קומות,3.0,,60.0,382000,,,1991.0,,1.0,9369292230,1,38160104,False,,באר שבע,ילין דוד,,38160-104-1,38160/104,6366.666666666667,31.2694119504,34.8054747751,2004
2004-08-08,2004-08-08,"רוטנברג 16, באר שבע",רוטנברג 16,38027-4-68,דירה בבית קומות,3.0,,65.0,248000,,,1960.0,,4.0,9368282520,1,380274,False,,באר שבע,רוטנברג,,38027-4-68,38027/4,3815.3846153846152,31.2594656894,34.8080641036,2004
2004-08-08,2004-08-08,"אלברט פריץ 13, באר שבע",אלברט פריץ 13,38133-170-1,דירה בבית קומות,3.0,,60.0,501000,,,1995.0,,1.0,9368390160,1,38133170,False,,באר שבע,פריץ אלברט,,38133-170-1,38133/170,8350.0,31.2664754214,34.7706870812,2004
2004-08-07,2004-07-08,"ברק 20, באר שבע",ברק 20,38006-142-10,דירה בבית קומות,3.0,,70.0,328000,,,1960.0,,1.0,9451996200,1,38006142,False,,באר שבע,ברק,,38006-142-10,38006/142,4685.714285714285,31.2419362053,34.78104846,2004
2004-08-07,2004-07-08,"חנוך אלבק 40, באר שבע",חנוך אלבק 40,38158-120-1,דירה בבית קומות,3.0,,60.0,417000,,,1992.0,,,9367168050,1,38158120,False,,באר שבע,אלבק חנוך,,38158-120-1,38158/120,6950.0,31.271991634,34.8055898352,2004
2004-08-07,2004-07-08,"מיכאל הנגבי 12, באר שבע",מיכאל הנגבי 12,38368-17-5,דירה בבית קומות,4.0,שניה,89.0,505000,,,2003.0,,3.0,9367152300,1,3836817,False,,באר שבע,הנגבי,,38368-17-5,38368/17,5674.157303370786,31.284761598,34.8049771915,2004
2004-08-06,2004-06-08,"אסף שמחוני 11, באר שבע",אסף שמחוני 11,38035-1-20,דירה בבית קומות,3.0,רביעית,89.0,352000,,,1970.0,,,9367561530,1,380351,False,,באר שבע,שמחוני אסף,,38035-1-20,38035/1,3955.0561797752807,31.243319287,34.7879579107,2004
2004-08-03,2004-03-08,"נגבה 79, באר שבע",נגבה 79,38006-145-10,דירת גן,5.0,שניה,138.0,630000,,,1970.0,,1.0,9363337200,1,38006145,False,,באר שבע,נגבה,,38006-145-10,38006/145,4565.217391304348,31.2422503963,34.7810521255,2004
2004-08-01,2004-01-08,"בר-ניסן 13, באר שבע",בר-ניסן 13,38187-59-76,דירה בבית קומות,5.0,שביעית,120.7,570000,,,2002.0,,8.0,9361708290,1,3818759,False,,באר שבע,בר ניסן,,38187-59-76,38187/59,4722.45236122618,31.2398695048,34.7630533786,2004
2004-08-01,2004-01-08,"בר-ניסן 15, באר שבע",בר-ניסן 15,38187-59-90,דירה בבית קומות,3.0,שלישית,72.3,390000,,,2002.0,,8.0,9361707570,1,3818759,False,,באר שבע,בר ניסן,,38187-59-90,38187/59,5394.190871369295,31.2398695048,34.7630533786,2004
2004-07-30,2004-07-30,"אנפה 3, באר שבע",אנפה 3,38247-8-1,דירה בבית קומות,5.0,,188.0,858000,,,2003.0,,1.0,9367928190,1,382478,False,,באר שבע,אנפה,,38247-8-1,38247/8,4563.829787234043,31.2758035603,34.8248358625,2004
2004-07-29,2004-07-29,"זאב ז'בוטינסקי 21, באר שבע",זאב ז'בוטינסקי 21,38031-14-8,דירה בבית קומות,4.0,שניה,76.5,209000,,,1993.0,,8.0,9368266320,1,3803114,False,,באר שבע,ז'בוטינסקי זאב,,38031-14-8,38031/14,2732.02614379085,31.2503350923,34.8086319433,2004
2004-07-29,2004-07-29,"טשרניחובסקי 13, באר שבע",טשרניחובסקי 13,38070-36-6,דירה בבית קומות,4.0,שניה,101.0,407000,,,1950.0,,2.0,9368090190,1,3807036,False,,באר שבע,טשרניחובסקי,,38070-36-6,38070/36,4029.70297029703,31.2572767523,34.7948565548,2004
2004-07-29,2004-07-29,"נחום שריג 31, באר שבע",נחום שריג 31,38370-14-36,דירה בבית קומות,4.0,,96.0,500000,,,2005.0,,3.0,9368820810,1,3837014,False,,באר שבע,שריג נחום,,38370-14-36,38370/14,5208.333333333333,31.2827832502,34.8055374844,2004
2004-07-28,2004-07-28,"זלמן ארן 8, באר שבע",זלמן ארן 8,38135-34-2,דירה בבית קומות,6.0,מרתף + קרקע + ראשונה,245.9,519000,,,1980.0,,,9368101260,1,3813534,False,,באר שבע,ארן זלמן,,38135-34-2,38135/34,2110.614070760472,31.2558963487,34.761213378,2004
2004-07-28,2004-07-28,"יעקב כהן 9, באר שבע",יעקב כהן 9,38074-149-44,דירה בבית קומות,4.0,חמישית,94.0,735000,,,2005.0,,9.0,9368843040,1,38074149,False,,באר שבע,כהן יעקב,,38074-149-44,38074/149,7819.148936170212,31.2540122092,34.7970244377,2004
2004-07-28,2004-07-28,"שמואל הוגו 11, באר שבע",שמואל הוגו 11,38158-153-1,קוטג' טורי,,,120.0,538000,,,1995.0,,1.0,9368902620,1,38158153,False,,באר שבע,הוגו שמואל,,38158-153-1,38158/153,4483.333333333333,31.2712632269,34.8047961247,2004
2004-07-28,2004-07-28,"בר-ניסן 13, באר שבע",בר-ניסן 13,38187-59-64,דירה בבית קומות,4.0,שלישית,87.0,460000,,,2002.0,,8.0,9368505990,1,3818759,False,,באר שבע,בר ניסן,,38187-59-64,38187/59,5287.35632183908,31.2398695048,34.7630533786,2004
2004-07-28,2004-07-28,"פסמון 1, באר שבע",פסמון 1,38081-31-9,דירה בבית קומות,4.0,רביעית,78.0,173000,,,1996.0,,,9368487450,1,3808131,False,,באר שבע,פסמון,,38081-31-9,38081/31,2217.948717948718,31.2496786969,34.7786635171,2004
2004-07-28,2004-07-28,"הנרי קנדל 10, באר שבע",הנרי קנדל 10,38035-60-399,דירה בבית קומות,5.5,עשירית,162.0,690000,,,2000.0,,18.0,9367932690,1,3803560,False,,באר שבע,קנדל הנרי,,38035-60-399,38035/60,4259.259259259259,31.2452471681,34.7832342939,2004
2004-07-27,2004-07-27,"שח""ל 13, באר שבע","שח""ל 13",38025-143-1,דירה בבית קומות,1.0,קרקע,89.3,100000,,,1950.0,,1.0,9368275230,1,38025143,False,,באר שבע,"שח""ל",,38025-143-1,38025/143,1119.8208286674133,31.2455255128,34.795318674,2004
2004-07-27,2004-07-27,"ימית 18, באר שבע",ימית 18,38111-197-30,דירה בבית קומות,4.0,שמינית,89.5,430000,,,2001.0,,9.0,9368249850,1,38111197,False,,באר שבע,ימית,,38111-197-30,38111/197,4804.469273743017,31.2449694494,34.7724349585,2004
2004-07-26,2004-07-26,"נגבה 68, באר שבע",נגבה 68,38006-1-25,בית בודד,4.0,,80.0,562000,,,1980.0,,1.0,9367871850,1,380061,False,,באר שבע,נגבה,,38006-1-25,38006/1,7025.0,31.2432183697,34.7802596113,2004
2004-07-26,2004-07-26,"פיארברג 41, באר שבע",פיארברג 41,38139-55-46,דירה בבית קומות,3.0,תשיעית,80.1,330000,,,1999.0,,,9367702560,1,3813955,False,,באר שבע,פיארברג,,38139-55-46,38139/55,4119.850187265918,31.2359853298,34.7712348245,2004
2004-07-26,2004-07-26,"מרים ילן-שטקליס 1, באר שבע",מרים ילן-שטקליס 1,38164-56-1,דירה בבית קומות,5.0,,140.0,472000,,,1998.0,,1.0,9367816950,1,3816456,False,,באר שבע,ילן-שטקליס מרים,,38164-56-1,38164/56,3371.428571428572,31.2709601322,34.7713275192,2004
2004-07-22,2004-07-22,"רינגלבלום 7, באר שבע",רינגלבלום 7,38092-12-2,דירה בבית קומות,2.0,ראשונה,37.2,134000,,,1960.0,,4.0,9367606800,1,3809212,False,,באר שבע,רינגלבלום,,38092-12-2,38092/12,3602.1505376344085,31.2663429601,34.7997627074,2004
2004-07-21,2004-07-21,"אמציה 3, באר שבע",אמציה 3,38108-76-10,דירה בבית קומות,4.0,שניה,82.0,325000,,,1970.0,,4.0,9367825860,1,3810876,False,,באר שבע,אמציה,,38108-76-10,38108/76,3963.4146341463415,31.2642504666,34.7837509682,2004
2004-07-21,2004-07-21,"רבי עקיבא 11, באר שבע",רבי עקיבא 11,38075-1-59,דירה בבית קומות,2.0,ראשונה,36.5,195000,,,1960.0,,3.0,9368984250,1,380751,True,-30% ב 5.8 שנים,באר שבע,רבי עקיבא,-5.17,38075-1-59,38075/1,5342.465753424657,31.2590011269,34.7919034854,2004
2004-07-21,2004-07-21,"הנוקם 6, באר שבע",הנוקם 6,38006-174-15,דירה בבית קומות,5.0,,125.0,495000,,,2000.0,,,9368465850,1,38006174,False,,באר שבע,הנוקם,,38006-174-15,38006/174,3960.0,31.2421085432,34.7833725562,2004
2004-07-20,2004-07-20,"נחום גולדמן 31, באר שבע",נחום גולדמן 31,38373-4-32,דירה בבית קומות,4.0,חמישית,88.0,500000,,,2003.0,,7.0,9367756740,1,383734,False,,באר שבע,גולדמן נחום,,38373-4-32,38373/4,5681.818181818182,31.2798362253,34.8025580014,2004
2004-07-19,2004-07-19,"אלוף רחבעם זאבי 27, באר שבע",אלוף רחבעם זאבי 27,38370-1-39,דירה בבית קומות,4.0,ראשונה,90.0,485000,,,2002.0,,5.0,9367760520,1,383701,False,,באר שבע,רחבעם זאבי,,38370-1-39,38370/1,5388.888888888889,31.2848424041,34.8064012343,2004
2004-07-19,2004-07-19,"אחד העם 8, באר שבע",אחד העם 8,38025-9-9,דירה בבית קומות,2.0,שניה,48.0,190000,,,1950.0,,3.0,9367915050,1,380259,False,82% ב 4.5 שנים,באר שבע,אחד העם,18.22,38025-9-9,38025/9,3958.3333333333335,31.2472023276,34.7911412146,2004
2004-07-17,2004-07-17,"ברנע דב 23, באר שבע",ברנע דב 23,38367-9-1,דירה בבית קומות,5.0,קרקע,107.8,695000,,,2005.0,,3.0,9367883820,1,383679,False,,באר שבע,ברנע דב,,38367-9-1,38367/9,6447.124304267161,31.2850705815,34.8026559212,2004
2004-07-15,2004-07-15,"אברהם אמיר 104, באר שבע",אברהם אמיר 104,38246-40-5,דירה בבית קומות,4.0,שניה,88.0,450000,,,2002.0,,5.0,9367466490,1,3824640,False,,באר שבע,אמיר אברהם,,38246-40-5,38246/40,5113.636363636364,31.2784828461,34.8222701825,2004
2004-07-15,2004-07-15,"מונטיפיורי 31, באר שבע",מונטיפיורי 31,38023-2-20,דירה בבית קומות,3.0,שלישית,59.0,202000,,,1999.0,,1.0,9367299360,1,380232,False,,באר שבע,מונטיפיורי,,38023-2-20,38023/2,3423.728813559322,31.2497968315,34.7927497137,2004
2004-07-15,2004-07-15,"גוש עציון 31, באר שבע",גוש עציון 31,38028-43-4,דירה בבית קומות,2.0,שלישית,51.0,231000,,,1960.0,,1.0,9367497720,1,3802843,False,,באר שבע,גוש עציון,,38028-43-4,38028/43,4529.411764705882,31.2553394966,34.8072013135,2004
2004-07-14,2004-07-14,"העלייה 62, באר שבע",העלייה 62,38069-4-5,דירה בבית קומות,3.0,,71.0,224000,,,1980.0,,,9367996590,1,380694,False,,באר שבע,העליה,,38069-4-5,38069/4,3154.9295774647885,31.2559454896,34.7789532439,2004
2004-07-13,2004-07-13,"גמל 15, באר שבע",גמל 15,38058-1-105,דירת גן,6.0,,116.0,618000,,,1970.0,,3.0,9368155620,1,380581,False,,באר שבע,גמל,,38058-1-105,38058/1,5327.586206896552,31.2487189013,34.7792235087,2004
2004-07-13,2004-07-13,"השלום 127, באר שבע",השלום 127,38027-29-3,דירה בבית קומות,3.0,ראשונה,57.1,192000,,,1970.0,,2.0,9367580070,1,3802729,False,,באר שבע,השלום,,38027-29-3,38027/29,3362.521891418564,31.2568461121,34.8107249494,2004
2004-07-12,2004-12-07,"נגבה 54, באר שבע",נגבה 54,38006-162-15,חנות,,ראשונה,38.0,250000,,,1980.0,,1.0,9372534660,1,38006162,False,,באר שבע,נגבה,,38006-162-15,38006/162,6578.9473684210525,31.2421921355,34.7818564194,2004
2004-07-12,2004-12-07,"הנבטים 10, באר שבע",הנבטים 10,38073-103-1,דירה בבית קומות,3.0,קרקע,47.6,311000,,,1960.0,,,9372455190,1,38073103,False,,באר שבע,הנבטים,,38073-103-1,38073/103,6533.613445378152,31.2666578511,34.796762005,2004
2004-07-11,2004-11-07,"חז""ל 88, באר שבע","חז""ל 88",38071-1-17,דירה בבית קומות,,,65.0,203000,,,1971.0,,,9371105370,1,380711,False,,באר שבע,"חז""ל",,38071-1-17,38071/1,3123.076923076923,31.2577584424,34.7905175695,2004
2004-07-06,2004-06-07,"נגבה 68, באר שבע",נגבה 68,38006-1-26,קוטג' חד משפחתי,4.0,,80.0,546000,,,1960.0,,1.0,9365873670,1,380061,False,,באר שבע,נגבה,,38006-1-26,38006/1,6825.0,31.2432183697,34.7802596113,2004
2004-07-06,2004-06-07,"הנרי קנדל 10, באר שבע",הנרי קנדל 10,38035-60-402,דירה בבית קומות,5.5,שלישית,162.0,660000,,,2000.0,,18.0,9366302880,1,3803560,False,,באר שבע,קנדל הנרי,,38035-60-402,38035/60,4074.074074074074,31.2452471681,34.7832342939,2004
2004-07-05,2004-05-07,"השלום 98, באר שבע",השלום 98,38076-1-14,דירה בבית קומות,3.0,,60.0,128000,,,1970.0,,2.0,9365373360,1,380761,False,,באר שבע,השלום,,38076-1-14,38076/1,2133.333333333333,31.2570715551,34.8115903051,2004
2004-07-01,2004-01-07,"נחום גולדמן 39, באר שבע",נחום גולדמן 39,38373-5-29,דירה בבית קומות,4.0,ראשונה,111.0,495000,,,2004.0,,2.0,9361203300,1,383735,False,,באר שבע,גולדמן נחום,,38373-5-29,38373/5,4459.459459459459,31.2805417257,34.8025671255,2004
2004-07-01,2004-01-07,"העלייה 21, באר שבע",העלייה 21,38068-12-7,דירה בבית קומות,4.0,חמישית,81.0,329000,,,1995.0,,1.0,9360780210,1,3806812,False,,באר שבע,העליה,,38068-12-7,38068/12,4061.728395061728,31.2527555703,34.7822746121,2004
2004-06-30,2004-06-30,"אסף שמחוני 1, באר שבע",אסף שמחוני 1,38035-23-6,דירה בבית קומות,4.0,שלישית,95.0,296000,,,1970.0,,1.0,9366989760,1,3803523,False,,באר שבע,שמחוני אסף,,38035-23-6,38035/23,3115.7894736842104,31.2424700221,34.7872044743,2004
2004-06-30,2004-06-30,"המשחררים 14, באר שבע",המשחררים 14,38074-160-9,דירה בבית קומות,4.0,שניה,96.0,595000,,,2004.0,,17.0,9367528860,1,38074160,False,,באר שבע,המשחררים,,38074-160-9,38074/160,6197.916666666667,31.2519313544,34.7951495936,2004
2004-06-30,2004-06-30,"ביאליק 9, באר שבע",ביאליק 9,38074-14-20,דירה בבית קומות,3.0,,60.0,287000,,,1970.0,,,9367410060,1,3807414,False,,באר שבע,ביאליק,,38074-14-20,38074/14,4783.333333333333,31.2549143866,34.7937346375,2004
2004-06-29,2004-06-29,"אחד העם 8, באר שבע",אחד העם 8,38025-9-1,דירה בבית קומות,,ראשונה,48.0,265000,,,1950.0,,3.0,9366761700,1,380259,False,,באר שבע,אחד העם,,38025-9-1,38025/9,5520.833333333333,31.2472023276,34.7911412146,2004
2004-06-29,2004-06-29,"אברהם אמיר 104, באר שבע",אברהם אמיר 104,38246-40-7,דירה בבית קומות,4.0,שניה,99.0,530000,,,2002.0,,5.0,9367465770,1,3824640,False,,באר שבע,אמיר אברהם,,38246-40-7,38246/40,5353.535353535353,31.2784828461,34.8222701825,2004
2004-06-28,2004-06-28,"העלייה 66, באר שבע",העלייה 66,38069-2-6,דירה בבית קומות,3.0,שלישית,62.0,204000,,,1992.0,,,9366897690,1,380692,False,,באר שבע,העליה,,38069-2-6,38069/2,3290.322580645161,31.256208675,34.7785489614,2004
2004-06-28,2004-06-28,"הנרי קנדל 10, באר שבע",הנרי קנדל 10,38035-60-400,דירה בבית קומות,5.0,עשרים ושתיים,134.0,620000,,,2000.0,,18.0,9366989040,1,3803560,False,,באר שבע,קנדל הנרי,,38035-60-400,38035/60,4626.865671641791,31.2452471681,34.7832342939,2004
2004-06-27,2004-06-27,"הנרי קנדל 10, באר שבע",הנרי קנדל 10,38035-60-401,דירה בבית קומות,5.0,עשרים ושלוש,134.0,562000,,,2000.0,,18.0,9367154640,1,3803560,False,,באר שבע,קנדל הנרי,,38035-60-401,38035/60,4194.0298507462685,31.2452471681,34.7832342939,2004
2004-06-27,2004-06-27,"שיטה 24, באר שבע",שיטה 24,38010-50-1,קוטג' חד משפחתי,4.0,,100.0,517000,,,1980.0,,1.0,9367060410,1,3801050,False,,באר שבע,שטה,,38010-50-1,38010/50,5170.0,31.2325676245,34.7909004461,2004
2004-06-27,2004-06-27,"דוד אלרואי 5, באר שבע",דוד אלרואי 5,38174-21-1,דירה בבית קומות,4.0,,86.0,540000,,,1997.0,,,9366793020,1,3817421,False,,באר שבע,אלרואי דוד,,38174-21-1,38174/21,6279.069767441861,31.264282397,34.7641685786,2004
2004-06-26,2004-06-26,"שמעוני 11, באר שבע",שמעוני 11,38074-26-14,דירה בבית קומות,4.0,רביעית,84.5,499000,,,1992.0,,10.0,9366906600,1,3807426,False,,באר שבע,שמעוני,,38074-26-14,38074/26,5905.325443786982,31.2535483299,34.7958898379,2004
2004-06-25,2004-06-25,"ישראל גלילי 24, באר שבע",ישראל גלילי 24,38368-12-5,דירה בבית קומות,4.0,שלישית,84.0,485000,,,2003.0,,6.0,9367474500,1,3836812,False,,באר שבע,גלילי ישראל,,38368-12-5,38368/12,5773.809523809524,31.2848617092,34.8043475577,2004
2004-06-25,2004-06-25,"רובינא חנה 22, באר שבע",רובינא חנה 22,38378-99-4,חנות,,קרקע,30.0,279000,,,1995.0,,,9366744870,1,3837899,False,,באר שבע,רובינא חנה,,38378-99-4,38378/99,9300.0,31.2703079884,34.7696594415,2004
2004-06-23,2004-06-23,"הנוקם 6, באר שבע",הנוקם 6,38006-174-16,דירת גן,3.0,,84.0,450000,,,1996.0,,,9367839090,1,38006174,False,,באר שבע,הנוקם,,38006-174-16,38006/174,5357.142857142857,31.2421085432,34.7833725562,2004
2004-06-22,2004-06-22,"בר-ניסן 15, באר שבע",בר-ניסן 15,38187-59-79,דירה בבית קומות,4.5,קרקע,100.9,560000,,,2002.0,,8.0,9367631370,1,3818759,False,,באר שבע,בר ניסן,,38187-59-79,38187/59,5550.0495540138745,31.2398695048,34.7630533786,2004
2004-06-22,2004-06-22,"פרופ' עלי דיוויס 1, באר שבע",פרופ' עלי דיוויס 1,38035-87-93,דירה בבית קומות,5.0,רביעית,140.0,625000,,,2013.0,,9.0,9457557840,1,3803587,False,,באר שבע,פרופ' עלי דיוויס,,38035-87-93,38035/87,4464.285714285715,31.2441243045,34.785778049,2004
2004-06-18,2004-06-18,"רוטנברג 16, באר שבע",רוטנברג 16,38027-4-69,דירה בבית קומות,3.0,שלישית,62.0,164000,,,1960.0,,4.0,9366530940,1,380274,False,,באר שבע,רוטנברג,,38027-4-69,38027/4,2645.1612903225805,31.2594656894,34.8080641036,2004
2004-06-17,2004-06-17,"אהוד בן-גרא 6, באר שבע",אהוד בן-גרא 6,38006-116-25,דירה בבית קומות,4.0,,116.0,390000,,,1960.0,,1.0,9367078860,1,38006116,False,,באר שבע,אהוד בן גרא,,38006-116-25,38006/116,3362.0689655172414,31.2410840394,34.7812508596,2004
2004-06-17,2004-06-17,"שמואל הוגו 17, באר שבע",שמואל הוגו 17,38158-76-1,דירה בבית קומות,4.0,,95.0,541000,,,1980.0,,1.0,9367491690,1,3815876,False,,באר שבע,הוגו שמואל,,38158-76-1,38158/76,5694.736842105263,31.2719898749,34.8043605862,2004
2004-06-17,2004-06-17,"נגבה 54, באר שבע",נגבה 54,38006-162-16,דירה בבית קומות,3.0,,79.0,362000,,,1980.0,,1.0,9366905160,1,38006162,False,,באר שבע,נגבה,,38006-162-16,38006/162,4582.278481012659,31.2421921355,34.7818564194,2004
2004-06-17,2004-06-17,"טשרניחובסקי 3, באר שבע",טשרניחובסקי 3,38070-66-1,דירה בבית קומות,3.0,ראשונה,53.0,285000,,,1960.0,,2.0,9366383250,1,3807066,False,,באר שבע,טשרניחובסקי,,38070-66-1,38070/66,5377.358490566037,31.2559906691,34.7948920621,2004
2004-06-17,2004-06-17,"מיכאל הנגבי 11, באר שבע",מיכאל הנגבי 11,38368-13-1,דירה בבית קומות,5.0,קרקע ראשונה,105.3,635000,,,2002.0,,7.0,9366917040,1,3836813,False,,באר שבע,הנגבי,,38368-13-1,38368/13,6030.389363722697,31.2841359487,34.8042372909,2004
2004-06-16,2004-06-16,"יעקב כהן 9, באר שבע",יעקב כהן 9,38074-149-26,דירה בבית קומות,5.0,שביעית,108.0,800000,,,2005.0,,9.0,9366918480,1,38074149,False,,באר שבע,כהן יעקב,,38074-149-26,38074/149,7407.407407407408,31.2540122092,34.7970244377,2004
2004-06-16,2004-06-16,"גוש עציון 14, באר שבע",גוש עציון 14,38028-62-19,דירה בבית קומות,3.0,ראשונה,49.0,162000,,,1970.0,,8.0,9366405300,1,3802862,False,,באר שבע,גוש עציון,,38028-62-19,38028/62,3306.122448979592,31.2542689174,34.8082014529,2004
2004-06-16,2004-06-16,"ברק 16, באר שבע",ברק 16,38006-140-10,דירה בבית קומות,3.0,שניה,60.0,369000,,,1960.0,,1.0,9366591060,1,38006140,False,,באר שבע,ברק,,38006-140-10,38006/140,6150.0,31.2418163365,34.7812261132,2004
2004-06-16,2004-06-16,"עגנון 4, באר שבע",עגנון 4,38081-1-78,דירה בבית קומות,4.0,ראשונה,104.0,304000,,,1980.0,,14.0,9366364710,1,380811,False,,באר שבע,עגנון,,38081-1-78,38081/1,2923.076923076923,31.2527808896,34.7775180397,2004
2004-06-16,2004-06-16,"נחום גולדמן 33, באר שבע",נחום גולדמן 33,38373-4-22,דירה בבית קומות,4.0,חמישית,93.0,500000,,,2003.0,,7.0,9366705450,1,383734,False,,באר שבע,גולדמן נחום,,38373-4-22,38373/4,5376.344086021505,31.2798362253,34.8025580014,2004
2004-06-15,2004-06-15,"אברהם אמיר 72, באר שבע",אברהם אמיר 72,38246-4-4,דירה בבית קומות,5.0,קרקע,115.9,982000,,,2000.0,,,9368050140,1,382464,False,17% ב 3.9 שנים,באר שבע,אמיר אברהם,4.36,38246-4-4,38246/4,8472.821397756687,31.2776398644,34.8242903133,2004
2004-06-15,2004-06-15,"זלמן שז""ר 9, באר שבע","זלמן שז""ר 9",38045-2-57,דירה בבית קומות,3.0,ראשונה,62.0,294000,,,1970.0,,3.0,9366203610,1,380452,False,,באר שבע,"שז""ר זלמן",,38045-2-57,38045/2,4741.935483870968,31.2482500959,34.803382615,2004
2004-06-14,2004-06-14,"גומא 10, באר שבע",גומא 10,38318-8-1,קוטג' טורי,6.0,,140.0,800000,,,2004.0,,1.0,9366204330,1,383188,False,,באר שבע,גומא,,38318-8-1,38318/8,5714.285714285715,31.2314750969,34.785999487,2004
2004-06-13,2004-06-13,"סוסיה 8, באר שבע",סוסיה 8,38111-201-118,דירה בבית קומות,4.0,קומה ‎6‏,93.0,510000,,,2005.0,,10.0,9366462720,1,38111201,False,,באר שבע,סוסיה,,38111-201-118,38111/201,5483.870967741936,31.2448368207,34.7732079901,2004
2004-06-12,2004-12-06,"המשחררים 14, באר שבע",המשחררים 14,38074-160-61,דירה בבית קומות,3.0,שתים עשרה,72.0,550000,,,2004.0,,17.0,9372417390,1,38074160,False,,באר שבע,המשחררים,,38074-160-61,38074/160,7638.888888888889,31.2519313544,34.7951495936,2004
2004-06-10,2004-10-06,"הרב שלמה טנא 12, באר שבע",הרב שלמה טנא 12,38389-45-5,דירה בבית קומות,4.0,קומה ‎2‏,94.0,526000,,,2007.0,,14.0,9370129680,1,3838945,False,,באר שבע,הרב טנא שלמה,,38389-45-5,38389/45,5595.744680851064,31.2338206201,34.7836443819,2004
2004-06-09,2004-09-06,"אוסקר שינדלר 10, באר שבע",אוסקר שינדלר 10,38367-15-12,דירה בבית קומות,4.0,ראשונה,90.3,442000,,,2004.0,,6.0,9370921320,1,3836715,False,,באר שבע,שינדלר אוסקר,,38367-15-12,38367/15,4894.795127353267,31.2826927908,34.8015802347,2004
2004-06-09,2004-09-06,"הרב קוק 24, באר שבע",הרב קוק 24,38103-8-26,דירה בבית קומות,3.0,ראשונה,62.8,191000,,,1970.0,,4.0,9369037530,1,381038,False,,באר שבע,הרב קוק,,38103-8-26,38103/8,3041.4012738853503,31.257456158,34.7707223755,2004
2004-06-09,2004-09-06,"רב האי גאון 18, באר שבע",רב האי גאון 18,38328-10-1,בית בודד,,,160.0,585000,,,1900.0,,,9369485100,1,3832810,False,,באר שבע,רב האי גאון,,38328-10-1,38328/10,3656.25,31.2501632464,34.7609216443,2004
2004-06-09,2004-09-06,"מרדכי מקלף 3, באר שבע",מרדכי מקלף 3,38356-15-26,דירה בבית קומות,3.0,שביעית,57.8,271000,,,1992.0,,8.0,9368996850,1,3835615,False,,באר שבע,מקלף מרדכי,,38356-15-26,38356/15,4688.581314878893,31.2650185254,34.7862349081,2004
2004-06-09,2004-09-06,"אבן גבירול 5, באר שבע",אבן גבירול 5,38070-69-29,דירה בבית קומות,4.0,שניה,90.0,311000,,,1960.0,,3.0,9369594360,1,3807069,False,,באר שבע,אבן גבירול,,38070-69-29,38070/69,3455.555555555556,31.2566205934,34.7956684289,2004
2004-06-07,2004-07-06,"עגנון 4, באר שבע",עגנון 4,38081-1-77,דירה בבית קומות,3.0,שלישית,64.0,224000,,,1980.0,,14.0,9367659450,1,380811,False,,באר שבע,עגנון,,38081-1-77,38081/1,3500.0,31.2527808896,34.7775180397,2004
2004-06-06,2004-06-06,"מיכאל הנגבי 11, באר שבע",מיכאל הנגבי 11,38368-13-6,דירה בבית קומות,4.0,שלישית,93.5,540000,,,2002.0,,7.0,9366286590,1,3836813,False,,באר שבע,הנגבי,,38368-13-6,38368/13,5775.401069518716,31.2841359487,34.8042372909,2004
2004-06-02,2004-02-06,"אהוד בן-גרא 11, באר שבע",אהוד בן-גרא 11,38006-108-18,דירה בבית קומות,4.0,שביעית,111.0,398000,,,1998.0,,,9361655550,1,38006108,False,,באר שבע,אהוד בן גרא,,38006-108-18,38006/108,3585.5855855855857,31.2411271081,34.7806605394,2004
2004-05-31,2004-05-31,"רוטנברג 3, באר שבע",רוטנברג 3,38027-12-1,דירה בבית קומות,3.0,קרקע,50.9,195000,,,1960.0,,3.0,9367078230,1,3802712,False,,באר שבע,רוטנברג,,38027-12-1,38027/12,3831.041257367387,31.2590648221,34.8089928707,2004
2004-05-24,2004-05-24,"יוהנה ז'בוטינסקי 15, באר שבע",יוהנה ז'בוטינסקי 15,38139-6-21,דירה בבית קומות,4.0,,93.0,371000,,,1996.0,,4.0,9365490630,1,381396,False,,באר שבע,יוהנה ז'בוטינסקי,,38139-6-21,38139/6,3989.2473118279568,31.2375757661,34.7731617585,2004
2004-05-23,2004-05-23,"יעקב כהן 9, באר שבע",יעקב כהן 9,38074-149-28,דירה בבית קומות,5.0,שמינית,131.0,880000,,,2005.0,,9.0,9365722290,1,38074149,False,,באר שבע,כהן יעקב,,38074-149-28,38074/149,6717.557251908397,31.2540122092,34.7970244377,2004
2004-05-23,2004-05-23,"העלייה 56, באר שבע",העלייה 56,38069-8-9,דירה בבית קומות,4.0,ראשונה,94.0,399000,,,1980.0,,,9365543370,1,380698,False,,באר שבע,העליה,,38069-8-9,38069/8,4244.68085106383,31.2555367449,34.779584174,2004
2004-05-21,2004-05-21,"בר-ניסן 15, באר שבע",בר-ניסן 15,38187-59-100,דירה בבית קומות,4.0,שביעית,105.4,500000,,,2002.0,,8.0,9366327450,1,3818759,False,,באר שבע,בר ניסן,,38187-59-100,38187/59,4743.833017077799,31.2398695048,34.7630533786,2004
2004-05-20,2004-05-20,"גמל 15, באר שבע",גמל 15,38058-1-106,קוטג' דו משפחתי,4.0,,93.0,516000,,,1970.0,,3.0,9365313870,1,380581,False,,באר שבע,גמל,,38058-1-106,38058/1,5548.387096774193,31.2487189013,34.7792235087,2004
2004-05-19,2004-05-19,"בר ניסן 26, באר שבע",בר ניסן 26,38187-36-24,דירה בבית קומות,3.0,רביעית,68.6,319000,,,2002.0,,6.0,9366523470,1,3818736,False,,באר שבע,בר ניסן,,38187-36-24,38187/36,4650.145772594753,31.2398456191,34.7638297194,2004
2004-05-19,2004-05-19,"יד ושם 4, באר שבע",יד ושם 4,38030-15-103,דירה בבית קומות,1.0,,36.0,137000,,,1960.0,,3.0,9365250780,1,3803015,False,,באר שבע,יד ושם,,38030-15-103,38030/15,3805.555555555556,31.2521496443,34.8034240066,2004
2004-05-19,2004-05-19,"בר ניסן 28, באר שבע",בר ניסן 28,38187-36-33,דירה בבית קומות,4.0,שניה,92.7,432000,,,2002.0,,6.0,9366526530,1,3818736,False,,באר שבע,בר ניסן,,38187-36-33,38187/36,4660.194174757281,31.2398456191,34.7638297194,2004
2004-05-18,2004-05-18,"נחום גולדמן 31, באר שבע",נחום גולדמן 31,38373-4-30,דירה בבית קומות,4.0,רביעית,88.0,510000,,,2003.0,,7.0,9365859630,1,383734,False,,באר שבע,גולדמן נחום,,38373-4-30,38373/4,5795.454545454545,31.2798362253,34.8025580014,2004
2004-05-17,2004-05-17,"הנגרים 20, באר שבע",הנגרים 20,38014-20-4,תעשיה,,,178.0,482000,,,1980.0,,,9365526270,1,3801420,False,,באר שבע,הנגרים,,38014-20-4,38014/20,2707.8651685393256,31.2429982826,34.8054795326,2004
2004-05-17,2004-05-17,"ארץ חמדה 35, באר שבע",ארץ חמדה 35,38444-13-1,בית בודד,,,140.0,900000,,,1980.0,,1.0,9366063840,1,3844413,False,,באר שבע,ארץ חמדה,,38444-13-1,38444/13,6428.571428571428,31.2347142218,34.7643651008,2004
2004-05-17,2004-05-17,"זאב ז'בוטינסקי 7, באר שבע",זאב ז'בוטינסקי 7,38031-28-8,דירה בבית קומות,3.0,שניה,48.93,229000,,,1960.0,,2.0,9365809320,1,3803128,True,-6% ב 3.7 שנים,באר שבע,ז'בוטינסקי זאב,-1.62,38031-28-8,38031/28,4680.155323932148,31.2485876394,34.8083136029,2004
2004-05-17,2004-05-17,"הנרי קנדל 10, באר שבע",הנרי קנדל 10,38035-60-404,דירה בבית קומות,5.5,תשיעית,162.0,670000,,,2000.0,,18.0,9365271570,1,3803560,False,,באר שבע,קנדל הנרי,,38035-60-404,38035/60,4135.802469135802,31.2452471681,34.7832342939,2004
2004-05-17,2004-05-17,"סוסיה 8, באר שבע",סוסיה 8,38111-201-132,דירה בבית קומות,5.0,קומה ‎9‏,116.0,622000,,,2005.0,,10.0,9365619150,1,38111201,False,,באר שבע,סוסיה,,38111-201-132,38111/201,5362.068965517241,31.2448368207,34.7732079901,2004
2004-05-16,2004-05-16,"הגאולים 26, באר שבע",הגאולים 26,38030-153-4,דירה בבית קומות,4.0,שניה,80.0,237000,,,1970.0,,2.0,9365106780,1,38030153,False,,באר שבע,הגאולים,,38030-153-4,38030/153,2962.5,31.2480619203,34.8050339993,2004
2004-05-14,2004-05-14,"חבצלת הנגב 31, באר שבע",חבצלת הנגב 31,38010-2-4,קוטג' חד משפחתי,5.0,,140.0,717000,,,2013.0,,1.0,9365195160,1,380102,False,,באר שבע,חבצלת הנגב,,38010-2-4,38010/2,5121.428571428572,31.2341179416,34.790647176,2004
2004-05-14,2004-05-14,"מונטיפיורי 31, באר שבע",מונטיפיורי 31,38023-2-21,דירה בבית קומות,4.0,שלישית,77.0,258000,,,1999.0,,1.0,9365405220,1,380232,False,,באר שבע,מונטיפיורי,,38023-2-21,38023/2,3350.6493506493507,31.2497968315,34.7927497137,2004
2004-05-13,2004-05-13,"בר-ניסן 13, באר שבע",בר-ניסן 13,38187-59-78,דירה בבית קומות,4.0,שמינית,104.0,534000,,,2002.0,,8.0,9366320700,1,3818759,False,,באר שבע,בר ניסן,,38187-59-78,38187/59,5134.615384615385,31.2398695048,34.7630533786,2004
2004-05-13,2004-05-13,"השלום 99, באר שבע",השלום 99,38028-76-3,דירה בבית קומות,5.0,ראשונה,102.0,393000,,,1960.0,,1.0,9365114250,1,3802876,False,,באר שבע,השלום,,38028-76-3,38028/76,3852.941176470588,31.254961485,34.8098336769,2004
2004-05-13,2004-05-13,"סוסיה 8, באר שבע",סוסיה 8,38111-201-113,דירה בבית קומות,4.0,קומה ‎5‏,93.0,533000,,,2005.0,,10.0,9365338440,1,38111201,False,,באר שבע,סוסיה,,38111-201-113,38111/201,5731.182795698925,31.2448368207,34.7732079901,2004
2004-05-12,2004-12-05,"יפתח הגלעדי 12, באר שבע",יפתח הגלעדי 12,38006-101-12,דירה בבית קומות,5.0,ראשונה,149.0,587000,,,2007.0,,,9372089250,1,38006101,False,,באר שבע,יפתח הגלעדי,,38006-101-12,38006/101,3939.5973154362414,31.2409857349,34.7805309126,2004
2004-05-11,2004-11-05,"הצבי 22, באר שבע",הצבי 22,38081-33-4,דירה בבית קומות,4.0,,83.0,272000,,,1980.0,,,9371018610,1,3808133,False,,באר שבע,הצבי,,38081-33-4,38081/33,3277.10843373494,31.2495770728,34.7779187823,2004
2004-05-09,2004-09-05,"אוסקר שינדלר 10, באר שבע",אוסקר שינדלר 10,38367-15-1,דירה בבית קומות,3.0,קרקע,69.3,391000,,,2004.0,,6.0,9370930230,1,3836715,False,,באר שבע,שינדלר אוסקר,,38367-15-1,38367/15,5642.135642135642,31.2826927908,34.8015802347,2004
2004-05-07,2004-07-05,"גולומב 61, באר שבע",גולומב 61,38026-9-1,דירה בבית קומות,2.0,קרקע,38.6,366000,,,1900.0,,,9368496360,1,380269,False,,באר שבע,גולומב,,38026-9-1,38026/9,9481.865284974094,31.2577633099,34.8045519375,2004
2004-05-05,2004-05-05,"שמשון עמיצור 8, באר שבע",שמשון עמיצור 8,38371-4-38,דירה בבית קומות,3.5,שלישית,76.21,450000,,,2003.0,,4.0,9365374080,1,383714,False,,באר שבע,עמיצור שמשון,,38371-4-38,38371/4,5904.736911166514,31.2808373842,34.7987470656,2004
2004-05-05,2004-05-05,"שמעוני 6, באר שבע",שמעוני 6,38074-7-6,דירה בבית קומות,4.0,רביעית,84.0,274000,,,1970.0,,4.0,9365407380,1,380747,False,,באר שבע,שמעוני,,38074-7-6,38074/7,3261.904761904762,31.2548596811,34.7951513114,2004
2004-05-05,2004-05-05,"נגבה 79, באר שבע",נגבה 79,38006-145-7,דירה בבית קומות,5.0,שמינית,169.0,735000,,,1970.0,,1.0,9364886190,1,38006145,False,,באר שבע,נגבה,,38006-145-7,38006/145,4349.112426035503,31.2422503963,34.7810521255,2004
2004-05-03,2004-03-05,"ברנר 7, באר שבע",ברנר 7,38023-13-4,דירה בבית קומות,3.0,שניה,68.8,225000,,,1950.0,,1.0,9363402810,1,3802313,False,,באר שבע,ברנר,,38023-13-4,38023/13,3270.3488372093025,31.2491365889,34.7931527,2004
2004-05-02,2004-02-05,"הרב שלמה טנא 12, באר שבע",הרב שלמה טנא 12,38389-45-30,דירה בבית קומות,4.0,קומה ‎7‏,94.0,475000,,,2007.0,,14.0,9361703160,1,3838945,False,,באר שבע,הרב טנא שלמה,,38389-45-30,38389/45,5053.191489361702,31.2338206201,34.7836443819,2004
2004-05-02,2004-02-05,"נגבה 68, באר שבע",נגבה 68,38006-1-28,דירה בבית קומות,8.0,,160.0,563000,,,1992.0,,1.0,9361651770,1,380061,False,,באר שבע,נגבה,,38006-1-28,38006/1,3518.75,31.2432183697,34.7802596113,2004
2004-04-29,2004-04-29,"אופירה 34, באר שבע",אופירה 34,38111-196-36,דירה בבית קומות,4.0,תשיעית,83.5,400000,,,1999.0,,9.0,9365170500,1,38111196,False,,באר שבע,אופירה,,38111-196-36,38111/196,4790.419161676647,31.2449221944,34.7716991832,2004
2004-04-29,2004-04-29,"יהושע ייבין 21, באר שבע",יהושע ייבין 21,38187-54-6,דירה בבית קומות,5.0,ראשונה,103.0,530000,,,2002.0,,5.0,9365377140,1,3818754,False,,באר שבע,ייבין יהושע,,38187-54-6,38187/54,5145.631067961165,31.2393654733,34.7657106802,2004
2004-04-29,2004-04-29,"עוזי נרקיס 11, באר שבע",עוזי נרקיס 11,38368-16-7,דירה בבית קומות,5.0,שלישית,103.0,555000,,,2003.0,,4.0,9365305140,1,3836816,False,,באר שבע,נרקיס עוזי,,38368-16-7,38368/16,5388.349514563107,31.282534424,34.8038649801,2004
2004-04-28,2004-04-28,"בנימין אקצין 8, באר שבע",בנימין אקצין 8,38132-89-1,דירה בבית קומות,5.0,,142.0,620000,,,1993.0,,,9365363010,1,3813289,False,,באר שבע,אקצין בנימין,,38132-89-1,38132/89,4366.197183098591,31.2704090655,34.778146663,2004
2004-04-26,2004-04-26,"הנרי קנדל 10, באר שבע",הנרי קנדל 10,38035-60-407,דירה בבית קומות,4.5,,138.0,560000,,,2000.0,,18.0,9364532760,1,3803560,False,,באר שבע,קנדל הנרי,,38035-60-407,38035/60,4057.9710144927535,31.2452471681,34.7832342939,2004
2004-04-25,2004-04-25,"הנרי קנדל 10, באר שבע",הנרי קנדל 10,38035-60-408,דירה בבית קומות,4.0,עשרים ואחת,115.0,528000,,,2000.0,,18.0,9364528350,1,3803560,False,,באר שבע,קנדל הנרי,,38035-60-408,38035/60,4591.304347826087,31.2452471681,34.7832342939,2004
2004-04-25,2004-04-25,"פיארברג 10, באר שבע",פיארברג 10,38139-34-14,דירה בבית קומות,3.0,שלישית,69.9,348000,,,1999.0,,4.0,9364659120,1,3813934,False,2% ב 5 שנים,באר שבע,פיארברג,0.4,38139-34-14,38139/34,4978.540772532188,31.235748952,34.7759041997,2004
2004-04-23,2004-04-23,"ברק 16, באר שבע",ברק 16,38006-139-1,בית בודד,4.0,,75.0,640000,,,1960.0,,1.0,9367107210,1,38006139,False,,באר שבע,ברק,,38006-139-1,38006/139,8533.333333333334,31.2417564432,34.7813145307,2004
2004-04-21,2004-04-21,"ביאליק 1, באר שבע",ביאליק 1,38074-1-37,דירה בבית קומות,4.0,,65.0,373000,,,1960.0,,3.0,9364536540,1,380741,False,,באר שבע,ביאליק,,38074-1-37,38074/1,5738.461538461538,31.2549643106,34.7967157187,2004
2004-04-20,2004-04-20,"פסמון 1, באר שבע",פסמון 1,38081-31-10,דירה בבית קומות,3.0,שלישית,62.0,177000,,,1996.0,,,9366047460,1,3808131,False,,באר שבע,פסמון,,38081-31-10,38081/31,2854.8387096774195,31.2496786969,34.7786635171,2004
2004-04-20,2004-04-20,"ימית 20, באר שבע",ימית 20,38111-197-41,דירה בבית קומות,4.0,ראשונה,83.5,400000,,,2002.0,,9.0,9364551300,1,38111197,False,,באר שבע,ימית,,38111-197-41,38111/197,4790.419161676647,31.2449694494,34.7724349585,2004
2004-04-20,2004-04-20,"מוריה 3, באר שבע",מוריה 3,38116-6-1,דירה בבית קומות,3.0,ראשונה,71.2,296000,,,1970.0,,4.0,9364481640,1,381166,False,,באר שבע,מוריה,,38116-6-1,38116/6,4157.303370786517,31.2479078766,34.7842315356,2004
2004-04-20,2004-04-20,"רותם 4, באר שבע",רותם 4,38255-46-1,דירה בבית קומות,4.0,,90.0,264000,,,1950.0,,,9365949450,1,3825546,False,,באר שבע,רותם,,38255-46-1,38255/46,2933.333333333333,31.2307224662,34.7964029024,2004
2004-04-19,2004-04-19,"בר-ניסן 13, באר שבע",בר-ניסן 13,38187-59-61,דירה בבית קומות,4.0,שניה,86.9,480000,,,2002.0,,8.0,9365579910,1,3818759,False,,באר שבע,בר ניסן,,38187-59-61,38187/59,5523.590333716916,31.2398695048,34.7630533786,2004
2004-04-19,2004-04-19,"חביבה רייק 14, באר שבע",חביבה רייק 14,38027-35-2,דירה בבית קומות,2.0,שניה,57.0,136000,,,1980.0,,,9364192020,1,3802735,False,,באר שבע,רייק חביבה,,38027-35-2,38027/35,2385.964912280702,31.2584092016,34.8085753791,2004
2004-04-18,2004-04-18,"ימית 18, באר שבע",ימית 18,38111-197-34,דירה בבית קומות,4.0,תשיעית,89.5,430000,,,2001.0,,9.0,9364180770,1,38111197,False,,באר שבע,ימית,,38111-197-34,38111/197,4804.469273743017,31.2449694494,34.7724349585,2004
2004-04-15,2004-04-15,"אופירה 34, באר שבע",אופירה 34,38111-196-37,דירה בבית קומות,4.0,תשיעית,83.5,400000,,,1999.0,,9.0,9363957390,1,38111196,False,,באר שבע,אופירה,,38111-196-37,38111/196,4790.419161676647,31.2449221944,34.7716991832,2004
2004-04-15,2004-04-15,"הנרי קנדל 10, באר שבע",הנרי קנדל 10,38035-60-409,דירה בבית קומות,5.0,ארבע עשרה,134.0,620000,,,2000.0,,18.0,9364338180,1,3803560,False,,באר שבע,קנדל הנרי,,38035-60-409,38035/60,4626.865671641791,31.2452471681,34.7832342939,2004
2004-04-15,2004-04-15,"יהודה בורלא 1, באר שבע",יהודה בורלא 1,38081-5-6,דירה בבית קומות,2.0,שניה,49.4,197000,,,1970.0,,3.0,9363981870,1,380815,False,,באר שבע,בורלא יהודה,,38081-5-6,38081/5,3987.854251012146,31.2510979371,34.7760680793,2004
2004-04-14,2004-04-14,"בר-ניסן 15, באר שבע",בר-ניסן 15,38187-59-84,דירה בבית קומות,3.0,ראשונה,73.9,385000,,,2002.0,,8.0,9365356980,1,3818759,False,,באר שבע,בר ניסן,,38187-59-84,38187/59,5209.742895805141,31.2398695048,34.7630533786,2004
2004-04-14,2004-04-14,"זלמן שז""ר 5, באר שבע","זלמן שז""ר 5",38045-2-13,דירה בבית קומות,3.0,שניה,69.0,274000,,,1970.0,,3.0,9365070420,1,380452,False,,באר שבע,"שז""ר זלמן",,38045-2-13,38045/2,3971.014492753623,31.2482500959,34.803382615,2004
2004-04-13,2004-04-13,"רודולף בלוך 30, באר שבע",רודולף בלוך 30,38448-5-1,דירה בבית קומות,5.0,,130.0,497000,,,1800.0,,1.0,9364489110,1,384485,False,,באר שבע,בלוך רודולף,,38448-5-1,38448/5,3823.076923076923,31.2726328992,34.8082793375,2004
2004-04-10,2004-10-04,"ביאליק 13, באר שבע",ביאליק 13,38074-17-17,דירה בבית קומות,4.0,שלישית,89.0,482000,,,1960.0,,3.0,9370007100,1,3807417,False,,באר שבע,ביאליק,,38074-17-17,38074/17,5415.730337078651,31.2547493994,34.7931352798,2004
2004-04-10,2004-10-04,"ישראל גלילי 24, באר שבע",ישראל גלילי 24,38368-12-42,דירה בבית קומות,4.0,רביעית,90.0,460000,,,2003.0,,6.0,9370231470,1,3836812,False,,באר שבע,גלילי ישראל,,38368-12-42,38368/12,5111.111111111111,31.2848617092,34.8043475577,2004
2004-04-08,2004-08-04,"הנרייטה סאלד 4, באר שבע",הנרייטה סאלד 4,38016-10-6,משרד,,רביעית,220.0,932000,,,1997.0,,1.0,9368316720,1,3801610,False,,באר שבע,סולד הנריאטה,,38016-10-6,38016/10,4236.363636363636,31.2477289098,34.8013013153,2004
2004-04-06,2004-06-04,"סוסיה 8, באר שבע",סוסיה 8,38111-201-108,דירה בבית קומות,4.0,קומה ‎4‏,93.0,520000,,,2005.0,,10.0,9366133500,1,38111201,False,,באר שבע,סוסיה,,38111-201-108,38111/201,5591.397849462365,31.2448368207,34.7732079901,2004
2004-04-05,2004-05-04,"בר ניסן 24, באר שבע",בר ניסן 24,38187-36-6,דירה בבית קומות,4.0,שניה,92.7,437000,,,2002.0,,6.0,9365261220,1,3818736,False,,באר שבע,בר ניסן,,38187-36-6,38187/36,4714.131607335491,31.2398456191,34.7638297194,2004
2004-04-04,2004-04-04,"גבעון 18, באר שבע",גבעון 18,38115-44-1,דירה בבית קומות,4.0,,80.0,699000,,,1980.0,,1.0,9363930660,1,3811544,False,,באר שבע,גבעון,,38115-44-1,38115/44,8737.5,31.2447755543,34.7754178463,2004
2004-04-04,2004-04-04,"ברק 16, באר שבע",ברק 16,38006-140-11,דירה בבית קומות,4.0,חמישית,87.0,445000,,,1960.0,,1.0,9364566330,1,38006140,False,,באר שבע,ברק,,38006-140-11,38006/140,5114.942528735633,31.2418163365,34.7812261132,2004
2004-04-04,2004-04-04,"רפאל קלצ'קין 39, באר שבע",רפאל קלצ'קין 39,38379-1-43,דירה בבית קומות,3.0,שניה,66.0,292000,,,1995.0,,2.0,9364682700,1,383791,False,,באר שבע,קלצ'קין רפאל,,38379-1-43,38379/1,4424.242424242424,31.2676112088,34.7684696639,2004
2004-04-04,2004-04-04,"זאב ז'בוטינסקי 17, באר שבע",זאב ז'בוטינסקי 17,38031-22-21,דירה בבית קומות,2.0,ראשונה,40.0,139000,,,1980.0,,,9363879360,1,3803122,False,,באר שבע,ז'בוטינסקי זאב,,38031-22-21,38031/22,3475.0,31.2496057745,34.8082471353,2004
2004-04-04,2004-04-04,"עגנון 4, באר שבע",עגנון 4,38081-1-5,דירה בבית קומות,4.0,שניה,95.8,198000,,,1980.0,,14.0,9364007160,1,380811,False,,באר שבע,עגנון,,38081-1-5,38081/1,2066.8058455114824,31.2527808896,34.7775180397,2004
2004-04-04,2004-04-04,"המשחררים 131, באר שבע",המשחררים 131,38116-9-7,דירה בבית קומות,4.0,שניה,86.0,382000,,,1980.0,,9.0,9364231260,1,381169,True,-10% ב 1.5 שנים,באר שבע,המשחררים,-6.67,38116-9-7,38116/9,4441.860465116279,31.2472113968,34.7836518952,2004
2004-04-02,2004-02-04,"בן-נון 18, באר שבע",בן-נון 18,38100-62-11,דירה בבית קומות,3.0,שלישית,60.2,143000,,,1980.0,,3.0,9362177550,1,3810062,True,-38% ב 2.8 שנים,באר שבע,בן נון,-13.57,38100-62-11,38100/62,2375.4152823920263,31.2632118436,34.7762173693,2004
2004-04-02,2004-02-04,"פרופ' עלי דיוויס 1, באר שבע",פרופ' עלי דיוויס 1,38035-87-95,דירה בבית קומות,5.0,חמישית,123.0,550000,,,2013.0,,9.0,9362542140,1,3803587,False,,באר שבע,פרופ' עלי דיוויס,,38035-87-95,38035/87,4471.544715447155,31.2441243045,34.785778049,2004
2004-04-01,2004-01-04,"מיכאל הנגבי 9, באר שבע",מיכאל הנגבי 9,38368-13-41,דירה בבית קומות,4.0,שביעית,94.8,600000,,,2002.0,,7.0,9360422280,1,3836813,False,,באר שבע,הנגבי,,38368-13-41,38368/13,6329.113924050633,31.2841359487,34.8042372909,2004
2004-04-01,2004-01-04,"נחום שריג 31, באר שבע",נחום שריג 31,38370-14-42,דירה בבית קומות,3.0,,75.0,505000,,,2005.0,,3.0,9361083060,1,3837014,False,,באר שבע,שריג נחום,,38370-14-42,38370/14,6733.333333333333,31.2827832502,34.8055374844,2004
2004-04-01,2004-01-04,"אבשלום 39, באר שבע",אבשלום 39,38173-10-1,דירה בבית קומות,5.0,,252.0,535000,,,1901.0,,1.0,9361456470,1,3817310,False,,באר שבע,אבשלום,,38173-10-1,38173/10,2123.015873015873,31.2664167934,34.7668416644,2004
2004-03-31,2004-03-31,"יעקב חזן 39, באר שבע",יעקב חזן 39,38198-42-1,דירה בבית קומות,5.0,,,1222000,,,2001.0,,1.0,9364070880,1,3819842,False,,באר שבע,חזן יעקב,,38198-42-1,38198/42,,31.2753610263,34.8172549206,2004
2004-03-31,2004-03-31,"הרב שלמה טנא 20, באר שבע",הרב שלמה טנא 20,38389-19-164,דירה בבית קומות,4.0,אחת עשרה,93.5,459000,,,2005.0,,16.0,9364416210,1,3838919,False,,באר שבע,הרב טנא שלמה,,38389-19-164,38389/19,4909.090909090909,31.2342752101,34.7852178362,2004
2004-03-30,2004-03-30,"נחום גולדמן 21, באר שבע",נחום גולדמן 21,38373-3-77,דירה בבית קומות,4.0,רביעית,116.0,579000,,,2000.0,,3.0,9364156200,1,383733,False,,באר שבע,גולדמן נחום,,38373-3-77,38373/3,4991.379310344828,31.2792856987,34.802685277,2004
2004-03-30,2004-03-30,"יסקי 4, באר שבע",יסקי 4,38035-6-26,דירה בבית קומות,2.0,,46.0,240000,,,1950.0,,1.0,9364145850,1,380356,False,,באר שבע,יסקי,,38035-6-26,38035/6,5217.391304347826,31.2430209002,34.7873282824,2004
2004-03-30,2004-03-30,"פרופ' עלי דיוויס 1, באר שבע",פרופ' עלי דיוויס 1,38035-87-94,דירה בבית קומות,4.0,שישית,115.0,480000,,,2013.0,,9.0,9365235210,1,3803587,False,,באר שבע,פרופ' עלי דיוויס,,38035-87-94,38035/87,4173.913043478261,31.2441243045,34.785778049,2004
2004-03-29,2004-03-29,"הנרי קנדל 10, באר שבע",הנרי קנדל 10,38035-60-410,דירה בבית קומות,4.0,תשיעית,122.0,545000,,,2000.0,,18.0,9363868290,1,3803560,False,,באר שבע,קנדל הנרי,,38035-60-410,38035/60,4467.213114754099,31.2452471681,34.7832342939,2004
2004-03-29,2004-03-29,"הגאולים 16, באר שבע",הגאולים 16,38030-149-4,דירה בבית קומות,2.0,ראשונה,30.4,150000,,,1980.0,,1.0,9364449600,1,38030149,False,,באר שבע,הגאולים,,38030-149-4,38030/149,4934.21052631579,31.2485989448,34.8040716785,2004
2004-03-28,2004-03-28,"יצחק מיכאלסון 8, באר שבע",יצחק מיכאלסון 8,38161-17-1,דירה בבית קומות,4.0,,,506000,,,1990.0,,1.0,9364033890,1,3816117,False,,באר שבע,מיכאלסון יצחק,,38161-17-1,38161/17,,31.2681890768,34.8071585444,2004
2004-03-28,2004-03-28,"נגבה 48, באר שבע",נגבה 48,38006-159-9,דירה בבית קומות,3.0,רביעית,107.0,352000,,,1980.0,,,9363874230,1,38006159,False,,באר שבע,נגבה,,38006-159-9,38006/159,3289.7196261682243,31.241933316,34.7822386136,2004
2004-03-28,2004-03-28,"נגבה 56, באר שבע",נגבה 56,38006-163-9,דירה בבית קומות,3.0,שניה,80.0,325000,,,1996.0,,,9363921750,1,38006163,False,,באר שבע,נגבה,,38006-163-9,38006/163,4062.5,31.2422790637,34.7817295586,2004
2004-03-28,2004-03-28,"ישראל גלילי 3, באר שבע",ישראל גלילי 3,38368-10-6,דירה בבית קומות,4.0,שלישית,81.0,434000,,,2003.0,,5.0,9364737780,1,3836810,False,,באר שבע,גלילי ישראל,,38368-10-6,38368/10,5358.024691358025,31.282576506,34.8032998214,2004
2004-03-24,2004-03-24,"בר ניסן 28, באר שבע",בר ניסן 28,38187-36-31,דירה בבית קומות,4.0,ראשונה,92.7,430000,,,2002.0,,6.0,9364111830,1,3818736,False,,באר שבע,בר ניסן,,38187-36-31,38187/36,4638.619201725997,31.2398456191,34.7638297194,2004
2004-03-24,2004-03-24,"הצבי 22, באר שבע",הצבי 22,38081-33-5,דירה בבית קומות,4.0,ראשונה,83.0,251000,,,1994.0,,,9363918060,1,3808133,False,,באר שבע,הצבי,,38081-33-5,38081/33,3024.0963855421687,31.2495770728,34.7779187823,2004
2004-03-24,2004-03-24,"אהוד בן-גרא 6, באר שבע",אהוד בן-גרא 6,38006-116-26,דירה בבית קומות,4.0,,87.0,464000,,,1960.0,,1.0,9363463560,1,38006116,False,,באר שבע,אהוד בן גרא,,38006-116-26,38006/116,5333.333333333333,31.2410840394,34.7812508596,2004
2004-03-22,2004-03-22,"שלומציון 3, באר שבע",שלומציון 3,38108-108-11,דירה בבית קומות,3.0,שניה,64.0,229000,,,1970.0,,4.0,9363795390,1,38108108,False,,באר שבע,שלומציון,,38108-108-11,38108/108,3578.125,31.2636601733,34.7806410575,2004
2004-03-22,2004-03-22,"ברק 36, באר שבע",ברק 36,38006-50-7,דירה בבית קומות,4.5,רביעית,119.0,510000,,,1960.0,,1.0,9363526650,1,3800650,False,,באר שבע,ברק,,38006-50-7,38006/50,4285.714285714285,31.2424355881,34.7803099273,2004
2004-03-22,2004-03-22,"ישראל גלילי 24, באר שבע",ישראל גלילי 24,38368-12-40,דירה בבית קומות,4.0,שלישית,90.0,485000,,,2003.0,,6.0,9364766040,1,3836812,False,,באר שבע,גלילי ישראל,,38368-12-40,38368/12,5388.888888888889,31.2848617092,34.8043475577,2004
2004-03-22,2004-03-22,"דוד טוביהו 59, באר שבע",דוד טוביהו 59,38035-43-47,דירה בבית קומות,4.0,שניה,111.0,472000,,,1995.0,,8.0,9363721320,1,3803543,False,,באר שבע,טוביהו דוד,,38035-43-47,38035/43,4252.252252252252,31.2451000871,34.7865082576,2004
2004-03-22,2004-03-22,"המשחררים 14, באר שבע",המשחררים 14,38074-160-39,דירה בבית קומות,4.0,שמינית,96.0,614000,,,2004.0,,17.0,9364460040,1,38074160,False,,באר שבע,המשחררים,,38074-160-39,38074/160,6395.833333333333,31.2519313544,34.7951495936,2004
2004-03-22,2004-03-22,"אהוד בן-גרא 5, באר שבע",אהוד בן-גרא 5,38006-111-24,דירה בבית קומות,3.5,שביעית,92.0,335000,,,1964.0,,1.0,9363515400,1,38006111,False,,באר שבע,אהוד בן גרא,,38006-111-24,38006/111,3641.304347826087,31.2408642891,34.7810496883,2004
2004-03-22,2004-03-22,"בר-ניסן 27, באר שבע",בר-ניסן 27,38187-42-20,דירה בבית קומות,4.0,שישית,81.5,420000,,,2004.0,,,9363447900,1,3818742,False,,באר שבע,בר ניסן,,38187-42-20,38187/42,5153.374233128834,31.2405761499,34.7648002417,2004
2004-03-21,2004-03-21,"חיבת ציון 10, באר שבע",חיבת ציון 10,38076-160-1,דירה בבית קומות,3.0,,89.0,506000,,,2004.0,,,9364460760,1,38076160,False,,באר שבע,חיבת ציון,,38076-160-1,38076/160,5685.393258426966,31.2526327754,34.8103018679,2004
2004-03-21,2004-03-21,"בר ניסן 24, באר שבע",בר ניסן 24,38187-36-8,דירה בבית קומות,4.0,שלישית,88.1,436000,,,2002.0,,6.0,9364105080,1,3818736,False,,באר שבע,בר ניסן,,38187-36-8,38187/36,4948.921679909195,31.2398456191,34.7638297194,2004
2004-03-21,2004-03-21,"הנרי קנדל 10, באר שבע",הנרי קנדל 10,38035-60-411,דירה בבית קומות,5.5,,162.0,630000,,,2000.0,,18.0,9363410100,1,3803560,False,,באר שבע,קנדל הנרי,,38035-60-411,38035/60,3888.8888888888887,31.2452471681,34.7832342939,2004
2004-03-19,2004-03-19,"בר-כוכבא 12, באר שבע",בר-כוכבא 12,38006-19-1,דירה בבית קומות,3.0,רביעית,60.0,284000,,,2008.0,,1.0,9363416130,1,3800619,False,,באר שבע,בר כוכבא,,38006-19-1,38006/19,4733.333333333333,31.2433949509,34.7812924196,2004
2004-03-18,2004-03-18,"אריה דולצ'ין 13, באר שבע",אריה דולצ'ין 13,38130-61-21,דירה בבית קומות,3.0,חמישית,68.0,246000,,,1991.0,,5.0,9363782070,1,3813061,True,-16% ב 1.7 שנים,באר שבע,דולצ'ין אריה,-9.41,38130-61-21,38130/61,3617.647058823529,31.2627765127,34.7663699319,2004
2004-03-18,2004-03-18,"רבי עקיבא 11, באר שבע",רבי עקיבא 11,38075-1-69,דירה בבית קומות,4.0,שלישית,75.0,268000,,,1960.0,,3.0,9363413160,1,380751,False,,באר שבע,רבי עקיבא,,38075-1-69,38075/1,3573.333333333333,31.2590011269,34.7919034854,2004
2004-03-17,2004-03-17,"יהודה בורלא 1, באר שבע",יהודה בורלא 1,38081-5-19,דירה בבית קומות,3.0,שניה,63.2,220000,,,1970.0,,3.0,9363310650,1,380815,False,,באר שבע,בורלא יהודה,,38081-5-19,38081/5,3481.012658227848,31.2510979371,34.7760680793,2004
2004-03-17,2004-03-17,"ישראל גלילי 3, באר שבע",ישראל גלילי 3,38368-10-7,דירה בבית קומות,5.0,רביעית,108.0,592000,,,2003.0,,5.0,9363332790,1,3836810,False,,באר שבע,גלילי ישראל,,38368-10-7,38368/10,5481.481481481482,31.282576506,34.8032998214,2004
2004-03-15,2004-03-15,"אלה 2, באר שבע",אלה 2,38318-2-1,קוטג' חד משפחתי,5.0,,133.0,735000,,,2004.0,,,9363335760,1,383182,False,,באר שבע,אלה,,38318-2-1,38318/2,5526.315789473684,31.2314825669,34.7853349776,2004
2004-03-12,2004-12-03,"רנה קאסין 33, באר שבע",רנה קאסין 33,38396-119-1,דירה בבית קומות,4.0,ראשונה,110.0,480000,,,1991.0,,1.0,9372088530,1,38396119,False,,באר שבע,רנה קסן,,38396-119-1,38396/119,4363.636363636364,31.274559599,34.8011315063,2004
2004-03-12,2004-12-03,"בר-ניסן 30, באר שבע",בר-ניסן 30,38187-37-17,דירה בבית קומות,3.0,שישית,62.7,303000,,,2002.0,,6.0,9371974140,1,3818737,False,5% ב 2.5 שנים,באר שבע,בר ניסן,2.0,38187-37-17,38187/37,4832.535885167464,31.2398257504,34.764320378,2004
2004-03-11,2004-11-03,"נגבה 97, באר שבע",נגבה 97,38006-41-2,דירה בבית קומות,3.0,,75.0,300000,,,1970.0,,1.0,9370844820,1,3800641,False,,באר שבע,נגבה,,38006-41-2,38006/41,4000.0,31.2428778116,34.7801308985,2004
2004-03-11,2004-11-03,"המשחררים 14, באר שבע",המשחררים 14,38074-160-19,דירה בבית קומות,4.0,רביעית,96.0,632000,,,2004.0,,17.0,9371199690,1,38074160,False,,באר שבע,המשחררים,,38074-160-19,38074/160,6583.333333333333,31.2519313544,34.7951495936,2004
2004-03-11,2004-11-03,"הנרי קנדל 10, באר שבע",הנרי קנדל 10,38035-60-388,דירה בבית קומות,5.0,,120.0,805000,,,2000.0,,18.0,9371082420,1,3803560,False,,באר שבע,קנדל הנרי,,38035-60-388,38035/60,6708.333333333333,31.2452471681,34.7832342939,2004
2004-03-10,2004-10-03,"עוזייה המלך 4, באר שבע",עוזייה המלך 4,38078-31-17,דירה בבית קומות,3.0,ראשונה,40.37,183000,,,1960.0,,2.0,9369754020,1,3807831,False,17% ב 3.1 שנים,באר שבע,עוזיה המלך,5.48,38078-31-17,38078/31,4533.069110725787,31.2613629168,34.7941074194,2004
2004-03-09,2004-09-03,"אייזנשטדט 28, באר שבע",אייזנשטדט 28,38246-39-14,דירה בבית קומות,5.0,שלישית,129.0,700000,,,2002.0,,3.0,9369126630,1,3824639,False,,באר שבע,אייזנשטדט,,38246-39-14,38246/39,5426.356589147287,31.2773436455,34.8230484889,2004
2004-03-09,2004-09-03,"נחום גולדמן 21, באר שבע",נחום גולדמן 21,38373-3-75,דירה בבית קומות,4.0,ראשונה,113.0,520000,,,2000.0,,3.0,9369942570,1,383733,False,,באר שבע,גולדמן נחום,,38373-3-75,38373/3,4601.769911504425,31.2792856987,34.802685277,2004
2004-03-09,2004-09-03,"נגבה 79, באר שבע",נגבה 79,38006-145-6,דירה בבית קומות,5.0,,164.0,700000,,,1970.0,,1.0,9369557100,1,38006145,False,,באר שבע,נגבה,,38006-145-6,38006/145,4268.292682926829,31.2422503963,34.7810521255,2004
2004-03-08,2004-08-03,"חבצלת הנגב 95, באר שבע",חבצלת הנגב 95,38010-108-1,קוטג' דו משפחתי,3.0,,82.0,398000,,,1955.0,,,9368428140,1,38010108,False,,באר שבע,חבצלת הנגב,,38010-108-1,38010/108,4853.658536585366,31.2303047816,34.7871914337,2004
2004-03-08,2004-08-03,"הנרי קנדל 10, באר שבע",הנרי קנדל 10,38035-60-397,דירה בבית קומות,5.5,שלישית,162.0,685000,,,2000.0,,18.0,9368628480,1,3803560,False,,באר שבע,קנדל הנרי,,38035-60-397,38035/60,4228.395061728395,31.2452471681,34.7832342939,2004
2004-03-06,2004-06-03,"רינגלבלום 72, באר שבע",רינגלבלום 72,38092-25-2,דירה בבית קומות,4.0,ראשונה,104.1,295000,,,1800.0,,1.0,9366441840,1,3809225,False,,באר שבע,רינגלבלום,,38092-25-2,38092/25,2833.813640730068,31.2688373616,34.800804681,2004
2004-03-05,2004-05-03,"מצדה 6, באר שבע",מצדה 6,38075-95-40,דירה בבית קומות,3.0,,75.0,256000,,,1960.0,,3.0,9364814190,1,3807595,False,,באר שבע,מצדה,,38075-95-40,38075/95,3413.333333333333,31.2590678601,34.7957358655,2004
2004-02-29,2004-02-29,"נחום גולדמן 21, באר שבע",נחום גולדמן 21,38373-3-78,דירה בבית קומות,4.0,רביעית,112.0,505000,,,2000.0,,3.0,9363341700,1,383733,False,,באר שבע,גולדמן נחום,,38373-3-78,38373/3,4508.928571428572,31.2792856987,34.802685277,2004
2004-02-27,2004-02-27,"המשחררים 14, באר שבע",המשחררים 14,38074-160-7,דירה בבית קומות,3.0,ראשונה,72.0,468000,,,2004.0,,17.0,9363407220,1,38074160,False,,באר שבע,המשחררים,,38074-160-7,38074/160,6500.0,31.2519313544,34.7951495936,2004
2004-02-26,2004-02-26,"שיטרית 2, באר שבע",שיטרית 2,38105-26-33,דירה בבית קומות,4.0,,86.0,358000,,,1999.0,,,9362804940,1,3810526,False,,באר שבע,שיטרית,,38105-26-33,38105/26,4162.790697674419,31.2549298312,34.7654622397,2004
2004-02-25,2004-02-25,"העלייה 66, באר שבע",העלייה 66,38069-2-7,דירה בבית קומות,3.0,שניה,62.0,200000,,,1980.0,,,9362767230,1,380692,False,,באר שבע,העליה,,38069-2-7,38069/2,3225.8064516129034,31.256208675,34.7785489614,2004
2004-02-25,2004-02-25,"רמב""ם 60, באר שבע","רמב""ם 60",38035-39-33,דירה בבית קומות,3.0,שניה,88.8,332000,,,1970.0,,7.0,9363893400,1,3803539,False,,באר שבע,"רמב""ם",,38035-39-33,38035/39,3738.738738738739,31.2447068789,34.7869271944,2004
2004-02-25,2004-02-25,"נגבה 68, באר שבע",נגבה 68,38006-1-27,קוטג' חד משפחתי,4.0,,80.0,646000,,,1966.0,,1.0,9363640410,1,380061,False,,באר שבע,נגבה,,38006-1-27,38006/1,8075.0,31.2432183697,34.7802596113,2004
2004-02-25,2004-02-25,"נגבה 79, באר שבע",נגבה 79,38006-145-11,דירה בבית קומות,5.0,,136.0,670000,,,1970.0,,1.0,9362651310,1,38006145,False,,באר שבע,נגבה,,38006-145-11,38006/145,4926.470588235294,31.2422503963,34.7810521255,2004
2004-02-24,2004-02-24,"נגבה 58, באר שבע",נגבה 58,38006-164-7,דירה בבית קומות,3.0,רביעית,81.0,361000,,,1980.0,,,9362621610,1,38006164,False,,באר שבע,נגבה,,38006-164-7,38006/164,4456.79012345679,31.2423652942,34.7816013958,2004
2004-02-24,2004-02-24,"אסף שמחוני 11, באר שבע",אסף שמחוני 11,38035-1-21,דירה בבית קומות,4.0,,85.0,446000,,,1974.0,,,9363313710,1,380351,False,,באר שבע,שמחוני אסף,,38035-1-21,38035/1,5247.058823529412,31.243319287,34.7879579107,2004
2004-02-24,2004-02-24,"חיים לנדאו 6, באר שבע",חיים לנדאו 6,38135-33-38,דירה בבית קומות,3.0,ראשונה,71.0,312000,,,1991.0,,,9362361600,1,3813533,False,,באר שבע,לנדאו חיים,,38135-33-38,38135/33,4394.366197183099,31.2563487028,34.7616944093,2004
2004-02-23,2004-02-23,"נחום גולדמן 31, באר שבע",נחום גולדמן 31,38373-4-23,דירה בבית קומות,5.5,קרקע ראשונה,168.0,800000,,,2003.0,,7.0,9363590640,1,383734,False,,באר שבע,גולדמן נחום,,38373-4-23,38373/4,4761.9047619047615,31.2798362253,34.8025580014,2004
2004-02-23,2004-02-23,"אברהם אבן שושן 111, באר שבע",אברהם אבן שושן 111,38361-4-1,דירה בבית קומות,6.0,,184.0,977000,,,1999.0,,1.0,9362768580,1,383614,False,,באר שבע,אבן-שושן אברהם,,38361-4-1,38361/4,5309.782608695652,31.246641526,34.7575155112,2004
2004-02-23,2004-02-23,"הגאולים 38, באר שבע",הגאולים 38,38030-159-5,דירה בבית קומות,3.0,,49.0,171000,,,1970.0,,2.0,9362811600,1,38030159,False,,באר שבע,הגאולים,,38030-159-5,38030/159,3489.795918367347,31.2476399189,34.8062864,2004
2004-02-22,2004-02-22,"חטיבה שמונה 23, באר שבע",חטיבה שמונה 23,38138-64-10,דירה בבית קומות,2.0,שלישית,49.75,225000,,,2000.0,,18.0,9363491910,1,3813864,True,-30% ב 4 שנים,באר שבע,חטיבה שמונה,-7.5,38138-64-10,38138/64,4522.613065326633,31.2406463216,34.7773019976,2004
2004-02-22,2004-02-22,"בר ניסן 24, באר שבע",בר ניסן 24,38187-36-2,דירה בבית קומות,4.0,קרקע,86.0,482000,,,2002.0,,6.0,9362727810,1,3818736,False,,באר שבע,בר ניסן,,38187-36-2,38187/36,5604.6511627906975,31.2398456191,34.7638297194,2004
2004-02-22,2004-02-22,"ביאליק 22, באר שבע",ביאליק 22,38070-42-2,דירה בבית קומות,3.0,ראשונה,65.9,213000,,,1970.0,,2.0,9362486520,1,3807042,False,,באר שבע,ביאליק,,38070-42-2,38070/42,3232.1699544764792,31.2549597839,34.7920084761,2004
2004-02-22,2004-02-22,"ארץ חמדה 37, באר שבע",ארץ חמדה 37,38444-14-1,דירת גג,5.0,,142.0,667000,,,1980.0,,1.0,9362205000,1,3844414,False,,באר שבע,ארץ חמדה,,38444-14-1,38444/14,4697.183098591549,31.2348086019,34.7644898354,2004
2004-02-19,2004-02-19,"רותם 48, באר שבע",רותם 48,38253-42-1,דירה בבית קומות,4.0,,114.0,655000,,,2004.0,,,9363196260,1,3825342,False,,באר שבע,רותם,,38253-42-1,38253/42,5745.61403508772,31.2295199315,34.7928901378,2004
2004-02-18,2004-02-18,"רודולף בלוך 46, באר שבע",רודולף בלוך 46,38447-2-1,דירה בבית קומות,7.0,,165.0,599000,,,1990.0,,1.0,9362432880,1,384472,False,,באר שבע,בלוך רודולף,,38447-2-1,38447/2,3630.3030303030314,31.2733605334,34.8076930216,2004
2004-02-16,2004-02-16,"עין גדי 9, באר שבע",עין גדי 9,38122-7-32,דירה בבית קומות,3.0,שמינית,64.2,444000,,,1990.0,,9.0,9363343320,1,381227,False,,באר שבע,עין גדי,,38122-7-32,38122/7,6915.887850467289,31.2478101185,34.76952731,2004
2004-02-15,2004-02-15,"נחום שריג 41, באר שבע",נחום שריג 41,38368-18-21,דירה בבית קומות,3.0,רביעית,76.0,400000,,,2005.0,,5.0,9362194650,1,3836818,False,,באר שבע,שריג נחום,,38368-18-21,38368/18,5263.1578947368425,31.284764986,34.805521102,2004
2004-02-12,2004-12-02,"דב יוסף 10, באר שבע",דב יוסף 10,38131-36-1,דירה בבית קומות,4.0,קרקע,82.8,314000,,,1980.0,,4.0,9450347310,1,3813136,False,,באר שבע,דב יוסף,,38131-36-1,38131/36,3792.2705314009663,31.2558020967,34.7644727654,2004
2004-02-11,2004-11-02,"עקרון 24, באר שבע",עקרון 24,38115-52-1,בית בודד,,,100.0,555000,,,1980.0,,1.0,9371210130,1,3811552,False,,באר שבע,עקרון,,38115-52-1,38115/52,5550.0,31.2442299256,34.7747118766,2004
2004-02-09,2004-09-02,"שיזף 6, באר שבע",שיזף 6,38251-68-1,בית בודד,,,238.0,631000,,,1970.0,,1.0,9369696870,1,3825168,False,,באר שבע,שיזף,,38251-68-1,38251/68,2651.2605042016808,31.2325434593,34.7926987885,2004
2004-02-09,2004-09-02,"הזוהר 9, באר שבע",הזוהר 9,38090-55-1,דירה בבית קומות,5.0,,125.0,464000,,,1800.0,,,9369338310,1,3809055,False,,באר שבע,הזוהר,,38090-55-1,38090/55,3712.0,31.2711312788,34.7881731757,2004
2004-02-09,2004-09-02,"בר ניסן 17, באר שבע",בר ניסן 17,38187-44-49,דירה בבית קומות,4.0,שתים עשרה,93.8,480000,,,2002.0,,15.0,9368933580,1,3818744,False,,באר שבע,בר ניסן,,38187-44-49,38187/44,5117.27078891258,31.2404340152,34.7634115362,2004
2004-02-08,2004-08-02,"אסף שמחוני 11, באר שבע",אסף שמחוני 11,38035-1-19,דירה בבית קומות,4.0,,80.0,338000,,,1975.0,,,9368026200,1,380351,False,,באר שבע,שמחוני אסף,,38035-1-19,38035/1,4225.0,31.243319287,34.7879579107,2004
2004-02-08,2004-08-02,"הנרי קנדל 10, באר שבע",הנרי קנדל 10,38035-60-398,דירה בבית קומות,5.5,רביעית,162.0,650000,,,2000.0,,18.0,9368627760,1,3803560,False,,באר שבע,קנדל הנרי,,38035-60-398,38035/60,4012.3456790123455,31.2452471681,34.7832342939,2004
2004-02-07,2004-07-02,"בר-ניסן 13, באר שבע",בר-ניסן 13,38187-59-58,דירה בבית קומות,4.0,ראשונה,87.7,460000,,,2002.0,,8.0,9367747110,1,3818759,False,,באר שבע,בר ניסן,,38187-59-58,38187/59,5245.15393386545,31.2398695048,34.7630533786,2004
2004-02-07,2004-07-02,"ברק 1, באר שבע",ברק 1,38006-131-20,דירה בבית קומות,,,90.0,331000,,,1950.0,,1.0,9367915680,1,38006131,False,,באר שבע,ברק,,38006-131-20,38006/131,3677.777777777778,31.2410755335,34.7816591796,2004
2004-02-07,2004-07-02,"נגבה 61, באר שבע",נגבה 61,38006-154-14,דירה בבית קומות,3.0,רביעית,82.0,367000,,,1959.0,,1.0,9367159140,1,38006154,False,,באר שבע,נגבה,,38006-154-14,38006/154,4475.609756097561,31.24171483,34.7818506337,2004
2004-02-06,2004-06-02,"נחום שריג 41, באר שבע",נחום שריג 41,38368-18-13,דירה בבית קומות,3.0,קרקע,86.7,450000,,,2005.0,,5.0,9366301440,1,3836818,False,,באר שבע,שריג נחום,,38368-18-13,38368/18,5190.311418685121,31.284764986,34.805521102,2004
2004-02-06,2004-06-02,"ברק 20, באר שבע",ברק 20,38006-141-10,דירה בבית קומות,4.0,רביעית,80.0,465000,,,1960.0,,1.0,9366242760,1,38006141,False,,באר שבע,ברק,,38006-141-10,38006/141,5812.5,31.2418759716,34.7811374452,2004
2004-02-05,2004-05-02,"המשחררים 14, באר שבע",המשחררים 14,38074-160-59,דירה בבית קומות,4.0,שתים עשרה,96.0,650000,,,2004.0,,17.0,9366112890,1,38074160,False,,באר שבע,המשחררים,,38074-160-59,38074/160,6770.833333333333,31.2519313544,34.7951495936,2004
2004-02-05,2004-05-02,"נגבה 79, באר שבע",נגבה 79,38006-145-8,דירה בבית קומות,5.0,שניה,131.0,625000,,,1970.0,,1.0,9364884750,1,38006145,False,,באר שבע,נגבה,,38006-145-8,38006/145,4770.992366412213,31.2422503963,34.7810521255,2004
2004-02-04,2004-04-02,"גמל 15, באר שבע",גמל 15,38058-1-107,דירה בבית קומות,4.0,שלישית,84.0,262000,,,1970.0,,3.0,9363984120,1,380581,False,,באר שבע,גמל,,38058-1-107,38058/1,3119.0476190476197,31.2487189013,34.7792235087,2004
2004-02-04,2004-04-02,"צבעוני 24, באר שבע",צבעוני 24,38185-71-1,דירה בבית קומות,5.0,,190.0,813000,,,1980.0,,1.0,9364498740,1,3818571,False,,באר שבע,צבעוני,,38185-71-1,38185/71,4278.9473684210525,31.230863509,34.779460259,2004
2004-02-04,2004-04-02,"המשחררים 14, באר שבע",המשחררים 14,38074-160-55,דירה בבית קומות,3.0,אחת עשרה,72.0,506000,,,2004.0,,17.0,9364650930,1,38074160,False,,באר שבע,המשחררים,,38074-160-55,38074/160,7027.777777777777,31.2519313544,34.7951495936,2004
2004-02-02,2004-02-02,"נגבה 79, באר שבע",נגבה 79,38006-145-12,דירה בבית קומות,4.0,ראשונה,110.0,535000,,,1970.0,,1.0,9361414260,1,38006145,False,,באר שבע,נגבה,,38006-145-12,38006/145,4863.636363636364,31.2422503963,34.7810521255,2004
2004-02-02,2004-02-02,"הצבי 22, באר שבע",הצבי 22,38081-33-6,דירה בבית קומות,4.0,ראשונה,82.0,287000,,,1991.0,,,9363391560,1,3808133,False,,באר שבע,הצבי,,38081-33-6,38081/33,3500.0,31.2495770728,34.7779187823,2004
2004-02-02,2004-02-02,"בר-ניסן 23, באר שבע",בר-ניסן 23,38187-43-48,דירה בבית קומות,5.0,שביעית,102.0,635000,,,2002.0,,8.0,9361704600,1,3818743,False,,באר שבע,בר ניסן,,38187-43-48,38187/43,6225.490196078431,31.2405558011,34.7641732451,2004
2004-02-01,2004-01-02,"בר-ניסן 29, באר שבע",בר-ניסן 29,38187-42-32,דירה בבית קומות,3.0,שניה,71.9,385000,,,2002.0,,,9360489780,1,3818742,False,4% ב 1.8 שנים,באר שבע,בר ניסן,2.22,38187-42-32,38187/42,5354.659248956884,31.2405761499,34.7648002417,2004
2004-01-31,2004-01-31,"ישראל גלילי 28, באר שבע",ישראל גלילי 28,38368-11-29,דירה בבית קומות,4.0,רביעית,92.0,501000,,,2005.0,,5.0,9362639430,1,3836811,False,,באר שבע,גלילי ישראל,,38368-11-29,38368/11,5445.652173913043,31.2853150845,34.8044444756,2004
2004-01-30,2004-01-30,"המשחררים 14, באר שבע",המשחררים 14,38074-160-26,דירה בבית קומות,3.0,חמישית,72.0,495000,,,2004.0,,17.0,9362712150,1,38074160,False,,באר שבע,המשחררים,,38074-160-26,38074/160,6875.0,31.2519313544,34.7951495936,2004
2004-01-30,2004-01-30,"מיכאל הנגבי 12, באר שבע",מיכאל הנגבי 12,38368-17-10,דירה בבית קומות,4.0,ראשונה,92.0,502000,,,2003.0,,3.0,9363138390,1,3836817,False,,באר שבע,הנגבי,,38368-17-10,38368/17,5456.521739130435,31.284761598,34.8049771915,2004
2004-01-30,2004-01-30,"המשחררים 14, באר שבע",המשחררים 14,38074-160-16,דירה בבית קומות,3.0,שלישית,72.0,484000,,,2004.0,,17.0,9362333610,1,38074160,False,,באר שבע,המשחררים,,38074-160-16,38074/160,6722.222222222223,31.2519313544,34.7951495936,2004
2004-01-30,2004-01-30,"אשר ברש 8, באר שבע",אשר ברש 8,38138-65-34,דירה בבית קומות,3.0,ראשונה,67.0,330000,,,1998.0,,7.0,9361652490,1,3813865,True,-10% ב 4.9 שנים,באר שבע,ברש אשר,-2.04,38138-65-34,38138/65,4925.373134328358,31.2402310498,34.7766946593,2004
2004-01-29,2004-01-29,"נחום שריג 31, באר שבע",נחום שריג 31,38370-14-39,דירה בבית קומות,4.0,,100.0,497000,,,2005.0,,3.0,9363289140,1,3837014,False,,באר שבע,שריג נחום,,38370-14-39,38370/14,4970.0,31.2827832502,34.8055374844,2004
2004-01-29,2004-01-29,"בן נון 4, באר שבע",בן נון 4,38100-60-1,דירה בבית קומות,4.0,ראשונה,80.2,300000,,,1970.0,,4.0,9362764170,1,3810060,False,,באר שבע,בן נון,,38100-60-1,38100/60,3740.648379052369,31.2628545387,34.7771696628,2004
2004-01-29,2004-01-29,"ישראל גלילי 22, באר שבע",ישראל גלילי 22,38368-12-16,דירה בבית קומות,4.0,שניה,91.0,490000,,,2003.0,,6.0,9362291130,1,3836812,False,,באר שבע,גלילי ישראל,,38368-12-16,38368/12,5384.615384615385,31.2848617092,34.8043475577,2004
2004-01-29,2004-01-29,"ביאליק 1, באר שבע",ביאליק 1,38074-1-20,דירה בבית קומות,3.0,ראשונה,69.0,351000,,,1960.0,,3.0,9361909530,1,380741,False,,באר שבע,ביאליק,,38074-1-20,38074/1,5086.95652173913,31.2549643106,34.7967157187,2004
2004-01-27,2004-01-27,"ישראל גלילי 31, באר שבע",ישראל גלילי 31,38368-3-8,דירה בבית קומות,4.0,שניה,99.0,510000,,,2003.0,,4.0,9363627720,1,383683,False,,באר שבע,גלילי ישראל,,38368-3-8,38368/3,5151.515151515152,31.2851538282,34.8038025526,2004
2004-01-26,2004-01-26,"חיים שירמן 37, באר שבע",חיים שירמן 37,38158-2-1,דירה בבית קומות,4.0,,100.0,616000,,,1901.0,,1.0,9361213110,1,381582,False,,באר שבע,שירמן חיים,,38158-2-1,38158/2,6160.0,31.2731384151,34.8060793597,2004
2004-01-26,2004-01-26,"אסתר המלכה 27, באר שבע",אסתר המלכה 27,38386-3-19,דירה בבית קומות,4.0,רביעית,80.0,361000,,,1996.0,,8.0,9361323810,1,383863,False,,באר שבע,אסתר המלכה,,38386-3-19,38386/3,4512.5,31.2668396651,34.7633371937,2004
2004-01-26,2004-01-26,"זאב ז'בוטינסקי 17, באר שבע",זאב ז'בוטינסקי 17,38031-22-22,דירה בבית קומות,3.0,,74.0,131000,,,1980.0,,,9362738160,1,3803122,False,,באר שבע,ז'בוטינסקי זאב,,38031-22-22,38031/22,1770.2702702702702,31.2496057745,34.8082471353,2004
2004-01-26,2004-01-26,"אהוד בן-גרא 11, באר שבע",אהוד בן-גרא 11,38006-108-19,דירה בבית קומות,4.0,,84.0,400000,,,2002.0,,,9362382390,1,38006108,False,,באר שבע,אהוד בן גרא,,38006-108-19,38006/108,4761.9047619047615,31.2411271081,34.7806605394,2004
2004-01-26,2004-01-26,"גומא 5, באר שבע",גומא 5,38318-5-0,קוטג' דו משפחתי,5.0,,1136.0,754000,,,2000.0,,1.0,9361987380,1,383185,False,,באר שבע,גומא,,38318-5-0,38318/5,663.7323943661971,31.2313549917,34.7855736274,2004
2004-01-25,2004-01-25,"סוסיה 8, באר שבע",סוסיה 8,38111-201-96,דירה בבית קומות,4.0,קומה ‎2‏,93.0,530000,,,2005.0,,10.0,9361605150,1,38111201,False,,באר שבע,סוסיה,,38111-201-96,38111/201,5698.924731182796,31.2448368207,34.7732079901,2004
2004-01-22,2004-01-22,"יוחנן הורקנוס 25, באר שבע",יוחנן הורקנוס 25,38073-139-49,דירה בבית קומות,2.0,חמישית,42.58,288000,,,1996.0,,9.0,9361363590,1,38073139,False,,באר שבע,יוחנן הורקנוס,,38073-139-49,38073/139,6763.738844527948,31.2655993264,34.7947956007,2004
