DEALDATE,DEALDATETIME,FULLADRESS,DISPLAYADRESS,GUSH,DEALNATUREDESCRIPTION,ASSETROOMNUM,FLOORNO,DEALNATURE,DEALAMOUNT,NEWPROJECTTEXT,PROJECTNAME,BUILDINGYEAR,YEARBUILT,BUILDINGFLOORS,KEYVALUE,TYPE,POLYGON_ID,TREND_IS_NEGATIVE,TREND_FORMAT,city_name,street,presentage per year,GUSH - Copy,Gush_Helka,Price per sqm,lat,lon,Year
2012-12-31,2012-12-31,"האשכול 4, אשדוד",האשכול 4,2088-6-8,דירה בבית קומות,3.0,רביעית,80.0,905000,1.0,מגדלי הדקל - אשדוד ים,2020.0,,3.0,9492854196,1,20886,False,,אשדוד,האשכול,,2088-6-8,2088/6,11312.5,31.8081628639,34.6434034622,2012
2012-12-31,2012-12-31,"ז'בוטינסקי 9, אשדוד",ז'בוטינסקי 9,2077-90-15,דירה בבית קומות,4.0,רביעית,64.0,1040000,,,1975.0,,3.0,9493428672,1,207790,False,,אשדוד,ז'בוטינסקי,,2077-90-15,2077/90,16250.0,31.8121857419,34.6464011463,2012
2012-12-31,2012-12-31,"ארלוזורוב 23, אשדוד",ארלוזורוב 23,2071-253-63,דירה בבית קומות,3.0,שלישית,90.0,962000,,,1999.0,,12.0,9494046912,1,2071253,False,,אשדוד,ארלוזורוב,,2071-253-63,2071/253,10688.888888888889,31.7937799832,34.6499259468,2012
2012-12-31,2012-12-31,"ציזלינג 1, אשדוד",ציזלינג 1,2455-14-9,דירה בבית קומות,2.0,ראשונה,38.3,530000,,,1970.0,,4.0,9492916608,1,245514,False,,אשדוד,ציזלינג,,2455-14-9,2455/14,13838.120104438643,31.7978695485,34.6548582543,2012
2012-12-31,2012-12-31,"יוספטל 4, אשדוד",יוספטל 4,2066-225-3,דירה בבית קומות,2.0,שניה,38.5,510000,,,1960.0,,4.0,9492971964,1,2066225,False,,אשדוד,יוספטל,,2066-225-3,2066/225,13246.753246753247,31.8090455427,34.6544446352,2012
2012-12-31,2012-12-31,"יוספטל 9, אשדוד",יוספטל 9,2066-270-5,דירה בבית קומות,2.5,שניה,49.0,570000,,,1960.0,,3.0,9494129988,1,2066270,False,,אשדוד,יוספטל,,2066-270-5,2066/270,11632.65306122449,31.8074339298,34.6544038674,2012
2012-12-31,2012-12-31,"רמב""ם 14, אשדוד","רמב""ם 14",2066-352-18,דירה בבית קומות,2.5,שניה,42.0,570000,,,1960.0,,3.0,9495336564,1,2066352,False,3% ב 0.7 שנים,אשדוד,"רמב""ם",4.29,2066-352-18,2066/352,13571.42857142857,31.804239841,34.6548232545,2012
2012-12-31,2012-12-31,"הנביא עובדיה 12, אשדוד",הנביא עובדיה 12,2400-8-7,דירה בבית קומות,4.0,שניה,73.8,890000,,,1992.0,,3.0,9492994308,1,24008,False,,אשדוד,הנביא עובדיה,,2400-8-7,2400/8,12059.620596205965,31.7827380875,34.6443771214,2012
2012-12-30,2012-12-30,"רבינא 3, אשדוד",רבינא 3,472-124-13,דירה בבית קומות,6.0,קומה ‎3‏,146.07,1455000,,,2001.0,,7.0,9494804340,1,472124,False,156% ב 11.4 שנים,אשדוד,רבינא,13.68,472-124-13,472/124,9960.977613472993,31.7910261631,34.6665390076,2012
2012-12-30,2012-12-30,"הרב הרצוג 17, אשדוד",הרב הרצוג 17,2066-355-1,דירה בבית קומות,2.0,ראשונה,39.0,550000,,,1970.0,,,9492217392,1,2066355,False,,אשדוד,הרב הרצוג,,2066-355-1,2066/355,14102.564102564103,31.8036481057,34.6545275158,2012
2012-12-30,2012-12-30,"הפלמ""ח 11, אשדוד","הפלמ""ח 11",2464-95-7,דירה בבית קומות,3.0,שלישית,62.0,580000,,,1970.0,,3.0,9492265776,1,246495,False,,אשדוד,"הפלמ""ח",,2464-95-7,2464/95,9354.83870967742,31.8020399329,34.6628246488,2012
2012-12-30,2012-12-30,"הבושם 14, אשדוד",הבושם 14,2451-14-1,חנות,,,12500.0,86671000,,,1980.0,,1.0,9493558200,1,245114,False,,אשדוד,הבושם,,2451-14-1,2451/14,6933.68,31.8207692079,34.66176899,2012
2012-12-30,2012-12-30,"תמוז 14, אשדוד",תמוז 14,2439-28-54,דירה בבית קומות,3.0,קומה ‎12‏,96.3,1250000,,,2002.0,,16.0,9492957516,1,243928,False,,אשדוד,תמוז,,2439-28-54,2439/28,12980.269989615785,31.7812562795,34.6379565188,2012
2012-12-30,2012-12-30,"תל חי 21, אשדוד",תל חי 21,2649-3-10,דירה בבית קומות,5.0,שלישית,117.3,1270000,,,1998.0,,8.0,9492348348,1,26493,False,18% ב 4.3 שנים,אשדוד,תל חי,4.19,2649-3-10,2649/3,10826.93947144075,31.7703062059,34.6260208177,2012
2012-12-30,2012-12-30,"העצמאות 22, אשדוד",העצמאות 22,2448-10-317,דירה בבית קומות,4.0,שלישית,102.1,1295000,,,2004.0,,10.0,9492967176,1,244810,False,120% ב 10.4 שנים,אשדוד,העצמאות,11.54,2448-10-317,2448/10,12683.64348677767,31.7910669676,34.6446673382,2012
2012-12-30,2012-12-30,"שבי ציון 20, אשדוד",שבי ציון 20,2080-135-12,דירה בבית קומות,3.0,שלישית,68.2,720000,,,1970.0,,4.0,9492239484,1,2080135,False,75% ב 4.3 שנים,אשדוד,שבי ציון,17.44,2080-135-12,2080/135,10557.184750733137,31.8072889576,34.6484341571,2012
2012-12-30,2012-12-30,"סיני 22, אשדוד",סיני 22,2080-40-19,דירה בבית קומות,2.0,ראשונה,38.4,550000,,,1960.0,,3.0,9492951888,1,208040,False,,אשדוד,סיני,,2080-40-19,2080/40,14322.916666666668,31.8032356594,34.6475577437,2012
2012-12-28,2012-12-28,"פתח תקווה 7, אשדוד",פתח תקווה 7,2385-166-11,דירה בבית קומות,4.0,שביעית,82.0,283000,,,1994.0,,3.0,9492435540,1,2385166,False,,אשדוד,פתח תקווה,,2385-166-11,2385/166,3451.2195121951218,31.7843159429,34.6622316315,2012
2012-12-27,2012-12-27,"הרותם 29, אשדוד",הרותם 29,2465-34-13,חנות,,קרקע,30.15,156000,,,1992.0,,1.0,9493260840,1,246534,False,,אשדוד,הרותם,,2465-34-13,2465/34,5174.129353233831,31.7894265164,34.651724536,2012
2012-12-27,2012-12-27,"הפלמ""ח 2, אשדוד","הפלמ""ח 2",2460-14-39,דירה בבית קומות,3.0,שלישית,63.1,595000,,,1970.0,,3.0,9494836932,1,246014,False,126% ב 7.5 שנים,אשדוד,"הפלמ""ח",16.8,2460-14-39,2460/14,9429.47702060222,31.8038593451,34.6606280526,2012
2012-12-27,2012-12-27,"אבות ישורון 11, אשדוד",אבות ישורון 11,2071-188-104,דירה בבית קומות,3.0,שישית,68.43,935000,,,1992.0,,8.0,9492104328,1,2071188,False,98% ב 12.9 שנים,אשדוד,אבות ישורון,7.6,2071-188-104,2071/188,13663.597837205902,31.7944082097,34.6506045083,2012
2012-12-27,2012-12-27,"העצמאות 52, אשדוד",העצמאות 52,2448-8-167,דירה בבית קומות,4.0,שישית,121.0,1260000,,,2018.0,,13.0,9493219512,1,24488,False,,אשדוד,העצמאות,,2448-8-167,2448/8,10413.223140495867,31.7896347252,34.6452386087,2012
2012-12-27,2012-12-27,"הציונות 79, אשדוד",הציונות 79,2449-8-253,דירה בבית קומות,5.0,שניה,167.0,1831000,,,2000.0,,9.0,9493877148,1,24498,False,,אשדוד,הציונות,,2449-8-253,2449/8,10964.071856287424,31.7856752114,34.6445305045,2012
2012-12-27,2012-12-27,"אפרסק 6, אשדוד",אפרסק 6,2815-18-49,דירה בבית קומות,4.0,קומה ‎12‏,95.7,1300000,,,1800.0,,18.0,9492090468,1,281518,False,,אשדוד,ענבים,,2815-18-49,2815/18,13584.117032392896,31.7707158975,34.6399874286,2012
2012-12-27,2012-12-27,"הבעל שם טוב 3, אשדוד",הבעל שם טוב 3,2462-64-67,דירה בבית קומות,5.0,שניה,95.6,1085000,,,1996.0,,5.0,9492959532,1,246264,False,,אשדוד,הבעל שם טוב,,2462-64-67,2462/64,11349.37238493724,31.7972728497,34.6623325032,2012
2012-12-27,2012-12-27,"המעפילים 1, אשדוד",המעפילים 1,2066-234-6,דירה בבית קומות,3.0,שניה,63.43,640000,,,1970.0,,4.0,9492494592,1,2066234,False,,אשדוד,המעפילים,,2066-234-6,2066/234,10089.862840927006,31.8099906996,34.6523233766,2012
2012-12-27,2012-12-27,"יהודה המכבי 33, אשדוד",יהודה המכבי 33,2456-8-5,דירה בבית קומות,2.0,שניה,37.5,575000,,,1970.0,,5.0,9492756420,1,24568,False,19% ב 2.5 שנים,אשדוד,יהודה המכבי,7.6,2456-8-5,2456/8,15333.333333333334,31.795601778,34.6596818805,2012
2012-12-26,2012-12-26,"היידן 5, אשדוד",היידן 5,2678-10-1,קוטג' דו משפחתי,6.0,,230.0,2716000,,,1995.0,,,9493069824,1,267810,False,,אשדוד,היידן,,2678-10-1,2678/10,11808.695652173914,31.773947863,34.6248471965,2012
2012-12-26,2012-12-26,"הציונות 47, אשדוד",הציונות 47,2449-8-60,דירה,5.0,שישית,166.0,1850000,1.0,"שומרז סיטי""",2000.0,,9.0,11181205821,1,24498,False,,אשדוד,הציונות,,2449-8-60,2449/8,11144.578313253012,31.7856752114,34.6445305045,2012
2012-12-26,2012-12-26,"הציונות 15, אשדוד",הציונות 15,2449-12-50,דירה בבית קומות,3.0,קומה ‎7‏,83.0,1200000,,,2004.0,,18.0,9435586776,1,244912,False,,אשדוד,הציונות,,2449-12-50,2449/12,14457.831325301206,31.7872968047,34.6438135781,2012
2012-12-26,2012-12-26,"אבן גבירול 23, אשדוד",אבן גבירול 23,2066-287-13,דירה בבית קומות,6.0,שלישית,109.0,1000000,,,1960.0,,3.0,9492638652,1,2066287,False,11% ב 1.9 שנים,אשדוד,אבן גבירול,5.79,2066-287-13,2066/287,9174.311926605504,31.8054675063,34.6555363376,2012
2012-12-26,2012-12-26,"העצמאות 33, אשדוד",העצמאות 33,2448-6-151,דירה בבית קומות,5.0,שלישית,141.65,1500000,,,2000.0,,10.0,9495185532,1,24486,False,,אשדוד,העצמאות,,2448-6-151,2448/6,10589.481115425344,31.7917926547,34.6466480257,2012
2012-12-26,2012-12-26,"הפלדה 77, אשדוד",הפלדה 77,2298-37-2,משרד,,שניה,833.0,6500000,,,2006.0,,1.0,9494103612,1,229837,False,,אשדוד,הפלדה,,2298-37-2,2298/37,7803.121248499399,31.8341016182,34.6810134254,2012
2012-12-26,2012-12-26,"כינור 18, אשדוד",כינור 18,3174-16-39,דירה בבית קומות,5.0,תשע עשרה,125.0,2329000,,,2014.0,,15.0,9493179276,1,317416,False,,אשדוד,כינור,,3174-16-39,3174/16,18632.0,31.7896180201,34.6330158705,2012
2012-12-26,2012-12-26,"דוד וולפסון 12, אשדוד",דוד וולפסון 12,2648-57-25,דירה בבית קומות,4.5,שלישית,115.28,1210000,,,2000.0,,11.0,9435423228,1,264857,False,,אשדוד,וולפסון דוד,,2648-57-25,2648/57,10496.18320610687,31.7676808122,34.6327004742,2012
2012-12-26,2012-12-26,"נס ציונה 1, אשדוד",נס ציונה 1,2386-6-1,קוטג' חד משפחתי,5.0,,270.0,2150000,,,1994.0,,,9492096012,1,23866,False,,אשדוד,נס ציונה,,2386-6-1,2386/6,7962.962962962963,31.7845858067,34.6579482945,2012
2012-12-26,2012-12-26,"הציונות 47, אשדוד",הציונות 47,2449-8-59,דירה,5.0,שניה,167.0,1800000,1.0,"שומרז סיטי""",2000.0,,9.0,11181205820,1,24498,False,,אשדוד,הציונות,,2449-8-59,2449/8,10778.443113772457,31.7856752114,34.6445305045,2012
2012-12-26,2012-12-26,"תש""ח 2, אשדוד","תש""ח 2",2448-7-780,דירה בבית קומות,7.0,אחת עשרה,257.0,2520000,,,2019.0,,16.0,9492308868,1,24487,False,,אשדוד,"תש""ח",,2448-7-780,2448/7,9805.44747081712,31.7884022023,34.646324433,2012
2012-12-25,2012-12-25,"כינרת 7, אשדוד",כינרת 7,2196-36-13,משרד,,שניה,,170000,,,1995.0,,2.0,9435676908,1,219636,False,,אשדוד,כנרת,,2196-36-13,2196/36,,31.7854930793,34.6311300185,2012
2012-12-25,2012-12-25,"כנרת 43, אשדוד",כנרת 43,2192-108-30,דירה בבית קומות,4.0,שמינית,82.6,1180000,,,1985.0,,8.0,9492425040,1,2192108,False,16% ב 1.6 שנים,אשדוד,כנרת,10.0,2192-108-30,2192/108,14285.714285714286,31.7802162565,34.6291388894,2012
2012-12-25,2012-12-25,"יוסי בר-חלפתא 6, אשדוד",יוסי בר-חלפתא 6,472-44-119,דירה בבית קומות,4.0,ראשונה,92.0,1150000,,,1990.0,,4.0,9492484092,1,47244,False,,אשדוד,יוסי בר חלפתא,,472-44-119,472/44,12500.0,31.794514676,34.6623210559,2012
2012-12-25,2012-12-25,"דוד וולפסון 10, אשדוד",דוד וולפסון 10,2648-57-91,דירה בבית קומות,4.0,קרקע,127.1,1830000,,,1998.0,,2.0,9492175644,1,264857,False,195% ב 14.8 שנים,אשדוד,וולפסון דוד,13.18,2648-57-91,2648/57,14398.111723052714,31.7676808122,34.6327004742,2012
2012-12-25,2012-12-25,"הצבעוני 9, אשדוד",הצבעוני 9,2465-24-6,דירה בבית קומות,3.5,שניה,85.65,980000,,,1980.0,,4.0,9492755916,1,246524,False,,אשדוד,הצבעוני,,2465-24-6,2465/24,11441.91476941039,31.7890885117,34.6500850125,2012
2012-12-25,2012-12-25,"גאפונוב 1, אשדוד",גאפונוב 1,2067-21-12,דירה בבית קומות,3.0,שניה,64.6,738000,,,1970.0,,4.0,9494361408,1,206721,False,110% ב 9.3 שנים,אשדוד,גאפונוב,11.83,2067-21-12,2067/21,11424.148606811146,31.7981651882,34.6459044621,2012
2012-12-25,2012-12-25,"הלל 1, אשדוד",הלל 1,472-121-6,דירה בבית קומות,4.0,ראשונה,92.95,1180000,,,1997.0,,4.0,9492475776,1,472121,False,,אשדוד,הלל,,472-121-6,472/121,12694.997310381925,31.7924622856,34.6664355772,2012
2012-12-25,2012-12-25,"יותם המלך 4, אשדוד",יותם המלך 4,2395-25-25,דירה בבית קומות,5.0,ראשונה,103.0,920000,,,1992.0,,3.0,9435508404,1,239525,False,4% ב 2.4 שנים,אשדוד,המלך יותם,1.67,2395-25-25,2395/25,8932.038834951456,31.7778756342,34.6414129406,2012
2012-12-25,2012-12-25,"היסמין 10, אשדוד",היסמין 10,2465-33-20,דירה בבית קומות,4.0,שלישית,109.25,1200000,,,1990.0,,4.0,9492064176,1,246533,True,-14% ב 0.5 שנים,אשדוד,היסמין,-28.0,2465-33-20,2465/33,10983.981693363845,31.7906190376,34.6497242234,2012
2012-12-24,2012-12-24,"הציונות 127, אשדוד",הציונות 127,2449-1-203,דירה בבית קומות,3.0,שביעית,93.3,1150000,,,1998.0,,16.0,9492335160,1,24491,False,,אשדוד,הציונות,,2449-1-203,2449/1,12325.830653804933,31.7868024966,34.6394090803,2012
2012-12-24,2012-12-24,"הפלדה 345, אשדוד",הפלדה 345,2026-2-18,תעשיה,,ראשונה,30.0,500000,,,1970.0,,2.0,9495782100,1,20262,False,,אשדוד,הפלדה,,2026-2-18,2026/2,16666.666666666668,31.833172698,34.681615046,2012
2012-12-24,2012-12-24,"אקסודוס 32, אשדוד",אקסודוס 32,2791-11-160,דירה בבית קומות,5.0,שלישית,148.0,2203000,,,2009.0,,18.0,9494232636,1,279111,False,,אשדוד,אקסודוס,,2791-11-160,2791/11,14885.135135135137,31.7969005959,34.6329188957,2012
2012-12-24,2012-12-24,"מכישווילי 32, אשדוד",מכישווילי 32,2459-19-59,דירה בבית קומות,3.5,שלישית,57.9,740000,,,1970.0,,4.0,9494130660,1,245919,False,,אשדוד,מיכשוילי,,2459-19-59,2459/19,12780.656303972366,31.7897049778,34.6569727174,2012
2012-12-24,2012-12-24,"סיני 4, אשדוד",סיני 4,2085-12-3,דירה בבית קומות,2.0,שניה,44.2,470000,,,1960.0,,3.0,9493610952,1,208512,False,5% ב 2.9 שנים,אשדוד,סיני,1.72,2085-12-3,2085/12,10633.484162895928,31.8041705452,34.6446301839,2012
2012-12-23,2012-12-23,"אקסודוס 32, אשדוד",אקסודוס 32,2791-11-36,דירה,5.0,שלישית,148.0,2200000,1.0,Sea Side,2009.0,,18.0,11181208450,1,279111,False,,אשדוד,אקסודוס,,2791-11-36,2791/11,14864.864864864863,31.7969005959,34.6329188957,2012
2012-12-23,2012-12-23,"הפרחים 21, אשדוד",הפרחים 21,2074-101-16,דירה בבית קומות,2.0,רביעית,43.0,490000,,,1970.0,,4.0,9435361572,1,2074101,False,48% ב 4.2 שנים,אשדוד,הפרחים,11.43,2074-101-16,2074/101,11395.348837209302,31.7865366757,34.6521579748,2012
2012-12-23,2012-12-23,"ההגנה 9, אשדוד",ההגנה 9,2080-15-16,דירה בבית קומות,2.0,שלישית,42.0,535000,,,1960.0,,4.0,9493003296,1,208015,False,,אשדוד,ההגנה,,2080-15-16,2080/15,12738.09523809524,31.8059193596,34.6474372701,2012
2012-12-23,2012-12-23,"הר כנען 14, אשדוד",הר כנען 14,2193-6-29,דירה בבית קומות,3.5,שלישית,66.24,920000,,,1980.0,,4.0,9435063540,1,21936,False,,אשדוד,הר כנען,,2193-6-29,2193/6,13888.88888888889,31.7785221152,34.6302518791,2012
2012-12-23,2012-12-23,"הנביאים 18, אשדוד",הנביאים 18,2399-2-10,דירה בבית קומות,4.0,ראשונה,80.0,990000,,,1993.0,,3.0,9435218100,1,23992,False,,אשדוד,הנביאים,,2399-2-10,2399/2,12375.0,31.7805793858,34.6491473409,2012
2012-12-23,2012-12-23,"הפלמ""ח 6, אשדוד","הפלמ""ח 6",2460-13-12,דירה בבית קומות,3.0,ראשונה,52.2,610000,,,1970.0,,3.0,9496008816,1,246013,False,7% ב 2.1 שנים,אשדוד,"הפלמ""ח",3.33,2460-13-12,2460/13,11685.823754789271,31.8029586714,34.6615704918,2012
2012-12-23,2012-12-23,"ההגנה 6, אשדוד",ההגנה 6,2080-52-10,דירה בבית קומות,2.0,ראשונה,38.4,575000,,,1960.0,,4.0,9494712192,1,208052,False,,אשדוד,ההגנה,,2080-52-10,2080/52,14973.958333333334,31.806857902,34.6477989963,2012
2012-12-21,2012-12-21,"שבט לוי 1, אשדוד",שבט לוי 1,2437-22-19,דירה בבית קומות,4.0,קומה ‎5‏,106.35,1260000,,,2004.0,,8.0,9435667080,1,243722,False,95% ב 10.3 שנים,אשדוד,שבט לוי,9.22,2437-22-19,2437/22,11847.672778561357,31.778048338,34.6389333039,2012
2012-12-21,2012-12-21,"ספיר 11, אשדוד",ספיר 11,3172-30-19,דירה בבית קומות,5.0,חמישית,166.8,1750000,,,2012.0,,12.0,9435396768,1,317230,False,,אשדוד,ספיר,,3172-30-19,3172/30,10491.606714628297,31.766210559,34.6284428276,2012
2012-12-20,2012-12-20,"קרן היסוד 49, אשדוד",קרן היסוד 49,2190-23-8,דירה בבית קומות,5.0,שביעית,130.0,1162000,,,1989.0,,3.0,9493730232,1,219023,False,,אשדוד,קרן היסוד,,2190-23-8,2190/23,8938.461538461539,31.7957364753,34.640671728,2012
2012-12-20,2012-12-20,"הרימון 2, אשדוד",הרימון 2,2815-17-7,דירה בבית קומות,4.0,שניה,102.1,1280000,,,2011.0,,17.0,9492713496,1,281517,False,,אשדוד,הרימון,,2815-17-7,2815/17,12536.728697355536,31.771292334,34.6405416081,2012
2012-12-20,2012-12-20,"יהודה הלוי 9, אשדוד",יהודה הלוי 9,2067-58-3,דירה בבית קומות,5.0,ראשונה,116.5,1315000,,,1996.0,,8.0,9435395508,1,206758,False,,אשדוד,יהודה הלוי,,2067-58-3,2067/58,11287.55364806867,31.7985198263,34.6471210999,2012
2012-12-20,2012-12-20,"שבי ציון 27, אשדוד",שבי ציון 27,2086-48-89,דירה בבית קומות,4.0,שישית,100.0,700000,1.0,שבי ציון,1960.0,2013.0,3.0,9492962976,1,208648,False,,אשדוד,שבי ציון,,2086-48-89,2086/48,7000.0,31.8078514135,34.6492231643,2012
2012-12-20,2012-12-20,"הרב דוד בוזגלו 56, אשדוד",הרב דוד בוזגלו 56,2384-106-2,דירת גן,5.0,קרקע,97.69,1550000,,,1995.0,,1.0,9435597276,1,2384106,False,,אשדוד,הרב בוזגלו דוד,,2384-106-2,2384/106,15866.51653188658,31.7878459391,34.6600004171,2012
2012-12-20,2012-12-20,"בלפור 5, אשדוד",בלפור 5,2071-119-104,דירה בבית קומות,4.0,שישית,115.7,1250000,,,1990.0,,9.0,9494674140,1,2071119,False,,אשדוד,בלפור,,2071-119-104,2071/119,10803.8029386344,31.7972974745,34.6503689799,2012
2012-12-20,2012-12-20,"רבי יהודה הנשיא 8, אשדוד",רבי יהודה הנשיא 8,472-145-40,דירה בבית קומות,5.0,ראשונה,120.0,1200000,,,2000.0,,6.0,9435567960,1,472145,False,,אשדוד,רבי יהודה הנשיא,,472-145-40,472/145,10000.0,31.791501467,34.6655327499,2012
2012-12-20,2012-12-20,"שבט בנימין 22, אשדוד",שבט בנימין 22,2437-13-6,דירה בבית קומות,5.0,ראשונה,147.31,1630000,,,2006.0,,8.0,9435597948,1,243713,False,,אשדוד,שבט בנימין,,2437-13-6,2437/13,11065.100807820245,31.7756181386,34.6365569539,2012
2012-12-20,2012-12-20,"קישון 15, אשדוד",קישון 15,2196-31-15,דירה בבית קומות,4.0,רביעית,85.5,1065000,,,1977.0,,8.0,9435367872,1,219631,False,,אשדוד,קישון,,2196-31-15,2196/31,12456.140350877193,31.785214352,34.6323112104,2012
2012-12-20,2012-12-20,"מכישווילי 30, אשדוד",מכישווילי 30,2459-19-1,דירה בבית קומות,3.5,ראשונה,57.9,750000,,,1970.0,,4.0,9492098784,1,245919,False,,אשדוד,מיכשוילי,,2459-19-1,2459/19,12953.36787564767,31.7897049778,34.6569727174,2012
2012-12-20,2012-12-20,"יאיר 11, אשדוד",יאיר 11,2077-178-10,דירה בבית קומות,4.0,שלישית,82.27,1005000,,,1991.0,,8.0,9435123264,1,2077178,False,93% ב 10.2 שנים,אשדוד,יאיר,9.12,2077-178-10,2077/178,12215.87455937766,31.8109742587,34.6459070599,2012
2012-12-20,2012-12-20,"המלך עמרי 5, אשדוד",המלך עמרי 5,2396-23-4,דירה בבית קומות,3.0,ראשונה,66.96,980000,,,1994.0,,6.0,9492120960,1,239623,False,,אשדוד,המלך עמרי,,2396-23-4,2396/23,14635.603345280766,31.7753815047,34.6437768523,2012
2012-12-19,2012-12-19,"רבי טרפון 6, אשדוד",רבי טרפון 6,2023-83-15,דירה בבית קומות,4.0,שלישית,71.8,1200000,,,2001.0,,6.0,9492540204,1,202383,False,,אשדוד,רבי טרפון,,2023-83-15,2023/83,16713.091922005573,31.7884860207,34.6649888802,2012
2012-12-19,2012-12-19,"צפת 10, אשדוד",צפת 10,2386-130-13,דירה בבית קומות,5.0,שלישית,106.0,1054000,,,1993.0,,3.0,9493640100,1,2386130,False,,אשדוד,צפת,,2386-130-13,2386/130,9943.396226415094,31.7823125363,34.6595727588,2012
2012-12-19,2012-12-19,"דב גור 28, אשדוד",דב גור 28,2459-6-14,דירה בבית קומות,4.0,רביעית,95.0,730000,,,1970.0,,5.0,9492247800,1,24596,False,,אשדוד,גור דב,,2459-6-14,2459/6,7684.210526315789,31.7910368955,34.6564382769,2012
2012-12-19,2012-12-19,"העצמאות 12, אשדוד",העצמאות 12,2448-10-141,דירה בבית קומות,4.0,ראשונה,96.8,1110000,,,1999.0,,10.0,9492250656,1,244810,False,,אשדוד,העצמאות,,2448-10-141,2448/10,11466.94214876033,31.7910669676,34.6446673382,2012
2012-12-19,2012-12-19,"ביאליק 20, אשדוד",ביאליק 20,2071-220-21,דירה בבית קומות,5.0,שישית,110.61,1320000,,,1995.0,,9.0,9435271440,1,2071220,False,,אשדוד,ביאליק,,2071-220-21,2071/220,11933.821535123408,31.7954556202,34.6435185835,2012
2012-12-19,2012-12-19,"משה חיים שפירא 1, אשדוד",משה חיים שפירא 1,2189-77-2,דירה בבית קומות,4.0,ראשונה,69.5,838000,,,1980.0,,7.0,9435050436,1,218977,False,62% ב 6.4 שנים,אשדוד,שפירא משה חיים,9.69,2189-77-2,2189/77,12057.553956834532,31.7995767434,34.6450628055,2012
2012-12-19,2012-12-19,"הסייפן 10, אשדוד",הסייפן 10,2074-160-37,דירה בבית קומות,4.0,שישית,66.55,980000,,,1997.0,,13.0,9435394836,1,2074160,False,,אשדוד,הסייפן,,2074-160-37,2074/160,14725.770097670924,31.7846745195,34.6515142713,2012
2012-12-18,2012-12-18,"מצדה 77, אשדוד",מצדה 77,2192-22-2,קוטג' דו משפחתי,5.0,,220.0,6000000,,,1981.0,,2.0,9494218020,1,219222,False,,אשדוד,מצדה,,2192-22-2,2192/22,27272.727272727272,31.7800652987,34.626200321,2012
2012-12-18,2012-12-18,"ביאליק 11, אשדוד",ביאליק 11,2071-120-44,דירה בבית קומות,4.0,רביעית,89.2,1150000,,,1995.0,,8.0,9435217428,1,2071120,False,96% ב 8.6 שנים,אשדוד,ביאליק,11.16,2071-120-44,2071/120,12892.376681614349,31.7968042041,34.6455444119,2012
2012-12-18,2012-12-18,"אבן גבירול 23, אשדוד",אבן גבירול 23,2066-287-15,דירה בבית קומות,3.0,שלישית,54.0,573000,,,1960.0,,3.0,9494137716,1,2066287,False,68% ב 4.4 שנים,אשדוד,אבן גבירול,15.45,2066-287-15,2066/287,10611.111111111111,31.8054675063,34.6555363376,2012
2012-12-18,2012-12-18,"אלכסנדר פן 2, אשדוד",אלכסנדר פן 2,2071-163-9,דירה בבית קומות,4.0,שלישית,97.0,1300000,,,1994.0,,7.0,9434708724,1,2071163,False,111% ב 10.8 שנים,אשדוד,פן אלכסנדר,10.28,2071-163-9,2071/163,13402.061855670105,31.7927578239,34.6474155688,2012
2012-12-18,2012-12-18,"הרימון 8, אשדוד",הרימון 8,2815-17-150,דירה בבית קומות,6.0,"קרקע, ראשונה",149.4,2400000,,,2011.0,,17.0,9492714168,1,281517,False,,אשדוד,הרימון,,2815-17-150,2815/17,16064.25702811245,31.771292334,34.6405416081,2012
2012-12-17,2012-12-17,"רב ינאי 3, אשדוד",רב ינאי 3,2023-85-12,דירה בבית קומות,4.0,,100.0,1085000,,,1999.0,,4.0,9434835480,1,202385,False,,אשדוד,רב ינאי,,2023-85-12,2023/85,10850.0,31.7880579566,34.6652618251,2012
2012-12-17,2012-12-17,"אלול 2, אשדוד",אלול 2,2439-24-2,דירה בבית קומות,3.5,ראשונה,89.7,1160000,,,2000.0,,9.0,9435606264,1,243924,False,38% ב 4.4 שנים,אשדוד,אלול,8.64,2439-24-2,2439/24,12931.995540691192,31.782482249,34.6361353351,2012
2012-12-16,2012-12-16,"המלכים 22, אשדוד",המלכים 22,2393-5-33,דירה בבית קומות,5.5,"קומה ‎1‏, קומה ‎2‏",136.0,1450000,,,1997.0,,2.0,9493014888,1,23935,False,62% ב 5.4 שנים,אשדוד,המלכים,11.48,2393-5-33,2393/5,10661.764705882351,31.7720063455,34.6416841555,2012
2012-12-16,2012-12-16,"תש""ח 7, אשדוד","תש""ח 7",2448-9-37,דירה בבית קומות,4.0,שביעית,89.5,1180000,,,2000.0,,14.0,9435051108,1,24489,False,,אשדוד,"תש""ח",,2448-9-37,2448/9,13184.35754189944,31.7877164622,34.6454638673,2012
2012-12-16,2012-12-16,"אריה בן-אליעזר 27, אשדוד",אריה בן-אליעזר 27,2189-43-1,דירה בבית קומות,4.0,ראשונה,84.6,996000,,,1980.0,,7.0,9434599272,1,218943,False,24% ב 1.6 שנים,אשדוד,בן אליעזר אריה,15.0,2189-43-1,2189/43,11773.049645390072,31.8028671961,34.6458596948,2012
2012-12-16,2012-12-16,"עופר אברהם 7, אשדוד",עופר אברהם 7,2189-91-15,דירה בבית קומות,3.0,רביעית,92.6,855000,,,1980.0,,4.0,9435328980,1,218991,False,,אשדוד,עופר אברהם,,2189-91-15,2189/91,9233.261339092873,31.8009743347,34.6459891119,2012
2012-12-15,2012-12-15,"שבי ציון 25, אשדוד",שבי ציון 25,2086-48-58,דירה בבית קומות,3.0,קרקע,80.0,690000,,,1965.0,,3.0,9492029400,1,208648,False,,אשדוד,שבי ציון,,2086-48-58,2086/48,8625.0,31.8078514135,34.6492231643,2012
2012-12-13,2012-12-13,"רוגוזין 41, אשדוד",רוגוזין 41,2189-18-44,דירה בבית קומות,5.0,שלישית,109.0,1195000,,,1980.0,,10.0,9434980380,1,218918,False,14% ב 2 שנים,אשדוד,רוגוזין,7.0,2189-18-44,2189/18,10963.302752293575,31.8014726503,34.6413922597,2012
2012-12-13,2012-12-13,"רוגוזין 48, אשדוד",רוגוזין 48,2076-140-18,דירה בבית קומות,4.0,חמישית,110.58,1030000,,,1970.0,,8.0,9434921496,1,2076140,False,123% ב 13.3 שנים,אשדוד,רוגוזין,9.25,2076-140-18,2076/140,9314.523421956954,31.8044919084,34.6423823451,2012
2012-12-13,2012-12-13,"ענבים 4, אשדוד",ענבים 4,2815-20-2,דירה בבית קומות,4.0,קרקע,102.55,1570000,,,2013.0,,12.0,9492231840,1,281520,False,83% ב 0.7 שנים,אשדוד,ענבים,118.57,2815-20-2,2815/20,15309.605070697222,31.7702135544,34.6408962042,2012
2012-12-13,2012-12-13,"העצמאות 24, אשדוד",העצמאות 24,2448-10-358,דירה בבית קומות,3.0,חמישית,83.2,700000,,,2004.0,,10.0,9435104448,1,244810,False,,אשדוד,העצמאות,,2448-10-358,2448/10,8413.461538461539,31.7910669676,34.6446673382,2012
2012-12-12,2012-12-12,"הטיילת 3, אשדוד",הטיילת 3,2061-127-147,דירה בבית קומות,2.0,שמינית,50.0,590000,,,2007.0,,12.0,9434654712,1,2061127,False,,אשדוד,הטיילת,,2061-127-147,2061/127,11800.0,31.8128222901,34.6418738779,2012
2012-12-12,2012-12-12,"שבט בנימין 28, אשדוד",שבט בנימין 28,2437-4-20,דירה בבית קומות,4.0,חמישית,93.61,1290000,,,2001.0,,7.0,9435253548,1,24374,False,131% ב 12.5 שנים,אשדוד,שבט בנימין,10.48,2437-4-20,2437/4,13780.578997970302,31.7761492849,34.6353524853,2012
2012-12-12,2012-12-12,"קרן היסוד 32, אשדוד",קרן היסוד 32,2191-11-34,דירה בבית קומות,4.0,שישית,97.0,1100000,1.0,,1970.0,2012.0,4.0,9492276276,1,219111,False,,אשדוד,קרן היסוד,,2191-11-34,2191/11,11340.20618556701,31.7976440929,34.6407429133,2012
2012-12-12,2012-12-12,"עזרא הסופר 17, אשדוד",עזרא הסופר 17,2398-114-22,דירה בבית קומות,4.0,ראשונה,83.0,970000,,,1992.0,,2.0,9435134940,1,2398114,False,,אשדוד,עזרא הסופר,,2398-114-22,2398/114,11686.746987951808,31.7817292343,34.6503994928,2012
2012-12-12,2012-12-12,"המלכים 22, אשדוד",המלכים 22,2393-5-6,דירה בבית קומות,5.0,קרקע,108.0,1550000,,,1997.0,,2.0,9492169512,1,23935,False,58% ב 4.9 שנים,אשדוד,המלכים,11.84,2393-5-6,2393/5,14351.851851851852,31.7720063455,34.6416841555,2012
2012-12-12,2012-12-12,"יאיר 12, אשדוד",יאיר 12,2061-79-32,דירה בבית קומות,3.5,רביעית,62.5,805000,,,1970.0,,4.0,9494448096,1,206179,True,-6% ב 1.8 שנים,אשדוד,יאיר,-3.33,2061-79-32,2061/79,12880.0,31.8113451468,34.6452203192,2012
2012-12-11,2012-11-12,"שבט שמעון 2, אשדוד",שבט שמעון 2,2438-9-10,דירה בבית קומות,3.5,שניה,90.72,1200000,,,2003.0,,9.0,9432478104,1,24389,False,,אשדוד,שבט שמעון,,2438-9-10,2438/9,13227.513227513227,31.7787620884,34.6347710126,2012
2012-12-11,2012-11-12,"הציונות 79, אשדוד",הציונות 79,2449-8-58,דירה בבית קומות,5.0,שניה,166.0,1780000,,,2000.0,,9.0,9434103000,1,24498,False,,אשדוד,הציונות,,2449-8-58,2449/8,10722.89156626506,31.7856752114,34.6445305045,2012
2012-12-11,2012-11-12,"אבן עזרא 15, אשדוד",אבן עזרא 15,2068-206-59,דירה בבית קומות,5.0,שביעית,120.15,1200000,,,1992.0,,8.0,9432197292,1,2068206,False,48% ב 5.5 שנים,אשדוד,אבן עזרא,8.73,2068-206-59,2068/206,9987.515605493134,31.7985112057,34.650358273,2012
2012-12-11,2012-11-12,"דב גור 39, אשדוד",דב גור 39,2456-71-9,דירה בבית קומות,3.0,שלישית,49.5,650000,,,1970.0,,4.0,9433119780,1,245671,False,76% ב 4.5 שנים,אשדוד,גור דב,16.89,2456-71-9,2456/71,13131.31313131313,31.7915050189,34.6573654385,2012
2012-12-11,2012-11-12,"מצדה 95, אשדוד",מצדה 95,2193-18-39,דירה בבית קומות,4.0,שלישית,86.22,1125000,,,1990.0,,7.0,9431476656,1,219318,False,83% ב 6.5 שנים,אשדוד,מצדה,12.77,2193-18-39,2193/18,13048.016701461378,31.7784078539,34.6287328101,2012
2012-12-11,2012-11-12,"הרב מימון 15, אשדוד",הרב מימון 15,2066-427-6,דירה בבית קומות,2.0,קרקע,39.0,550000,,,1960.0,,2.0,9433350444,1,2066427,False,37% ב 3 שנים,אשדוד,הרב מימון,12.33,2066-427-6,2066/427,14102.564102564103,31.8016756417,34.6531067243,2012
2012-12-11,2012-11-12,"הרימון 8, אשדוד",הרימון 8,2815-17-153,דירה בבית קומות,6.0,"קרקע, ראשונה",153.1,2255000,,,2011.0,,17.0,9434588184,1,281517,False,,אשדוד,הרימון,,2815-17-153,2815/17,14728.93533638145,31.771292334,34.6405416081,2012
2012-12-11,2012-11-12,"הראשונים 35, אשדוד",הראשונים 35,2085-45-29,דירה בבית קומות,4.0,שמינית,67.0,890000,,,1980.0,,8.0,9432962364,1,208545,False,115% ב 14.5 שנים,אשדוד,הראשונים,7.93,2085-45-29,2085/45,13283.58208955224,31.8053809366,34.64544109,2012
2012-12-09,2012-09-12,"נחל לכיש 11, אשדוד",נחל לכיש 11,2197-106-23,דירה בבית קומות,4.0,שישית,71.55,1050000,,,1980.0,,9.0,9427432980,1,2197106,False,,אשדוד,נחל לכיש,,2197-106-23,2197/106,14675.052410901468,31.7888269776,34.6318815136,2012
2012-12-09,2012-09-12,"הרב קוק 39, אשדוד",הרב קוק 39,2066-216-46,דירה בבית קומות,3.0,שמינית,54.7,660000,,,1970.0,,8.0,9427425252,1,2066216,False,,אשדוד,הרב קוק,,2066-216-46,2066/216,12065.81352833638,31.808299788,34.656498861,2012
2012-12-09,2012-09-12,"נעמי 16, אשדוד",נעמי 16,2497-9-1,קוטג' דו משפחתי,6.0,,276.0,3100000,,,1995.0,,1.0,9428913312,1,24979,False,,אשדוד,נעמי,,2497-9-1,2497/9,11231.884057971014,31.7732975101,34.6308307659,2012
2012-12-09,2012-09-12,"הציונות 91, אשדוד",הציונות 91,2450-7-9,דירה בבית קומות,6.0,ראשונה,132.51,1420000,,,1998.0,,12.0,9429226548,1,24507,False,,אשדוד,הציונות,,2450-7-9,2450/7,10716.17236434986,31.7842074188,34.6410796315,2012
2012-12-09,2012-09-12,"שבט לוי 19, אשדוד",שבט לוי 19,2438-22-56,דירה בבית קומות,5.0,חמישית,130.66,1630000,,,2007.0,,,9427798800,1,243822,False,68% ב 5.5 שנים,אשדוד,שבט לוי,12.36,2438-22-56,2438/22,12475.126281953162,31.7780015592,34.6348120013,2012
2012-12-09,2012-09-12,"יהואש 3, אשדוד",יהואש 3,2396-25-22,דירה בבית קומות,4.0,שישית,85.8,870000,,,1992.0,,9.0,9427697076,1,239625,False,47% ב 4 שנים,אשדוד,יהואש,11.75,2396-25-22,2396/25,10139.86013986014,31.775207883,34.6455237404,2012
2012-12-08,2012-08-12,"יהויכין המלך 13, אשדוד",יהויכין המלך 13,2393-10-18,דירה בבית קומות,3.0,חמישית,65.0,865000,,,1997.0,,8.0,9424958256,1,239310,False,104% ב 10.8 שנים,אשדוד,המלך יהויכין,9.63,2393-10-18,2393/10,13307.692307692309,31.7731330093,34.6429477246,2012
2012-12-08,2012-08-12,"רוגוזין 11, אשדוד",רוגוזין 11,2077-117-6,דירה בבית קומות,5.0,קומה ‎2‏,106.14,980000,,,1986.0,,7.0,9425508456,1,2077117,False,,אשדוד,רוגוזין,,2077-117-6,2077/117,9233.088373845863,31.8059748759,34.6443627297,2012
2012-12-08,2012-08-12,"אליהו הנביא 1, אשדוד",אליהו הנביא 1,2398-5-1,דירה בבית קומות,3.0,קרקע,64.0,950000,,,1993.0,,2.0,9424763628,1,23985,False,33% ב 3.8 שנים,אשדוד,הנביא אליהו,8.68,2398-5-1,2398/5,14843.75,31.7834185051,34.6506192238,2012
2012-12-08,2012-08-12,"הצבעוני 9, אשדוד",הצבעוני 9,2465-24-3,דירה בבית קומות,3.5,ראשונה,85.65,820000,,,1980.0,,4.0,9424425360,1,246524,False,122% ב 13.4 שנים,אשדוד,הצבעוני,9.1,2465-24-3,2465/24,9573.847051955632,31.7890885117,34.6500850125,2012
2012-12-07,2012-07-12,"אבן עזרא 23, אשדוד",אבן עזרא 23,2071-196-61,משרד,,ראשונה,40.0,125000,,,1994.0,,1.0,9423376872,1,2071196,False,,אשדוד,אבן עזרא,,2071-196-61,2071/196,3125.0,31.7962392012,34.6488089616,2012
2012-12-07,2012-07-12,"יוספטל 5, אשדוד",יוספטל 5,2066-266-16,דירה בבית קומות,3.0,שלישית,65.0,535000,,,1970.0,,3.0,9422273028,1,2066266,False,,אשדוד,יוספטל,,2066-266-16,2066/266,8230.76923076923,31.8081626992,34.6546140928,2012
2012-12-07,2012-07-12,"אפרסק 3, אשדוד",אפרסק 3,2815-16-6,דירה בבית קומות,4.0,שניה,107.7,1460000,,,2007.0,,12.0,9422368452,1,281516,False,50% ב 3 שנים,אשדוד,אפרסק,16.67,2815-16-6,2815/16,13556.174558960074,31.7712410733,34.6391472594,2012
2012-12-07,2012-07-12,"הרימון 6, אשדוד",הרימון 6,2815-17-86,דירה בבית קומות,3.0,ראשונה,71.0,703000,,,2011.0,,17.0,9422577948,1,281517,False,,אשדוד,הרימון,,2815-17-86,2815/17,9901.408450704226,31.771292334,34.6405416081,2012
2012-12-06,2012-06-12,"נחל לכיש 23, אשדוד",נחל לכיש 23,2196-67-51,דירה בבית קומות,4.0,עשירית,103.55,1320000,,,2007.0,,13.0,9420000576,1,219667,False,,אשדוד,נחל לכיש,,2196-67-51,2196/67,12747.464992757124,31.7880389553,34.6330118482,2012
2012-12-06,2012-06-12,"נחל לכיש 23, אשדוד",נחל לכיש 23,2196-67-57,דירה בבית קומות,6.0,שתים עשרה,207.73,1700000,,,2007.0,,13.0,9427133520,1,219667,False,,אשדוד,נחל לכיש,,2196-67-57,2196/67,8183.699995186059,31.7880389553,34.6330118482,2012
2012-12-06,2012-06-12,"העצמאות 8, אשדוד",העצמאות 8,2448-10-85,דירה בבית קומות,4.0,שלישית,95.8,1165000,,,1998.0,,10.0,9421177920,1,244810,False,,אשדוד,העצמאות,,2448-10-85,2448/10,12160.751565762004,31.7910669676,34.6446673382,2012
2012-12-06,2012-06-12,"הפלמ""ח 31, אשדוד","הפלמ""ח 31",2463-35-1,דירה בבית קומות,3.0,קרקע,90.8,1057000,,,2001.0,,4.0,9422378952,1,246335,False,145% ב 4.6 שנים,אשדוד,"הפלמ""ח",31.52,2463-35-1,2463/35,11640.969162995596,31.7983972014,34.6634368876,2012
2012-12-06,2012-06-12,"שבי ציון 29, אשדוד",שבי ציון 29,2086-48-100,דירה בבית קומות,3.5,ראשונה,80.0,790000,,,1980.0,,4.0,9420145476,1,208648,False,73% ב 4.5 שנים,אשדוד,שבי ציון,16.22,2086-48-100,2086/48,9875.0,31.8078514135,34.6492231643,2012
2012-12-06,2012-06-12,"חסן ובן גרה 2, אשדוד",חסן ובן גרה 2,2457-2-5,דירה בבית קומות,3.0,שלישית,56.7,415000,,,1970.0,,4.0,9421712244,1,24572,False,18% ב 2 שנים,אשדוד,חסן ובן גרה,9.0,2457-2-5,2457/2,7319.223985890652,31.7954989803,34.6527997929,2012
2012-12-05,2012-05-12,"האורגים 35, אשדוד",האורגים 35,2062-67-68,עסק,1.0,רביעית,54.0,359600,1.0,בר סנטר,2011.0,,10.0,11181203005,1,206267,False,,אשדוד,האורגים,,2062-67-68,2062/67,6659.259259259259,31.8157325008,34.6567762057,2012
2012-12-04,2012-04-12,"פתח תקווה 9, אשדוד",פתח תקווה 9,2385-165-11,דירה בבית קומות,3.0,שישית,75.0,865000,,,1995.0,,6.0,9417066372,1,2385165,False,,אשדוד,פתח תקווה,,2385-165-11,2385/165,11533.333333333334,31.7838443963,34.6624841615,2012
2012-12-04,2012-04-12,"שבט נפתלי 11, אשדוד",שבט נפתלי 11,2438-48-121,דירה בבית קומות,5.0,,162.0,2187000,,,2012.0,,11.0,9416290968,1,243848,False,,אשדוד,שבט נפתלי,,2438-48-121,2438/48,13500.0,31.7764500913,34.6324992668,2012
2012-12-03,2012-03-12,"תמוז 2, אשדוד",תמוז 2,2439-24-29,דירה בבית קומות,5.0,שמינית+תשיעית,120.05,1600000,,,2000.0,,9.0,9414003396,1,243924,False,26% ב 2.4 שנים,אשדוד,תמוז,10.83,2439-24-29,2439/24,13327.780091628489,31.782482249,34.6361353351,2012
2012-12-03,2012-03-12,"עמרי המלך 4, אשדוד",עמרי המלך 4,2396-26-8,דירה בבית קומות,3.5,שניה,71.3,870000,,,1992.0,,9.0,9414115032,1,239626,False,,אשדוד,המלך עמרי,,2396-26-8,2396/26,12201.963534361852,31.7755252285,34.6449161677,2012
2012-12-03,2012-03-12,"האורגים 35, אשדוד",האורגים 35,2062-67-158,משרד,,שניה,34.0,241000,,,2011.0,,10.0,9413742072,1,206267,False,,אשדוד,האורגים,,2062-67-158,2062/67,7088.235294117647,31.8157325008,34.6567762057,2012
2012-12-03,2012-03-12,"ספיר 11, אשדוד",ספיר 11,3172-30-75,דירה בבית קומות,5.0,שמינית,166.8,1813000,,,2012.0,,12.0,9414159972,1,317230,False,,אשדוד,ספיר,,3172-30-75,3172/30,10869.304556354917,31.766210559,34.6284428276,2012
2012-12-02,2012-02-12,"סיני 14, אשדוד",סיני 14,2080-44-16,דירה בבית קומות,2.5,שלישית,38.4,500000,,,1960.0,,3.0,9411595956,1,208044,False,96% ב 10.6 שנים,אשדוד,סיני,9.06,2080-44-16,2080/44,13020.833333333334,31.8035888835,34.6465189486,2012
2012-12-02,2012-02-12,"מאיר בעל הנס 26, אשדוד",מאיר בעל הנס 26,472-104-12,דירה בבית קומות,4.0,שלישית,118.1,910000,,,1998.0,,5.0,9411947160,1,472104,False,59% ב 4.5 שנים,אשדוד,מאיר בעל הנס,13.11,472-104-12,472/104,7705.334462320068,31.7885718222,34.6606281961,2012
2012-12-02,2012-02-12,"נורדאו 11, אשדוד",נורדאו 11,2061-30-48,דירה בבית קומות,3.0,שניה,56.0,600000,,,1997.0,,2.0,9414468924,1,206130,False,,אשדוד,נורדאו,,2061-30-48,2061/30,10714.285714285714,31.8104907273,34.640884445,2012
2012-12-01,2012-01-12,"רוגוזין 21, אשדוד",רוגוזין 21,2189-41-32,דירה בבית קומות,4.0,שישית,108.6,920000,,,1970.0,,10.0,9409624896,1,218941,False,,אשדוד,רוגוזין,,2189-41-32,2189/41,8471.45488029466,31.8039696568,34.6431447024,2012
2012-12-01,2012-01-12,"נורדאו 11, אשדוד",נורדאו 11,2061-30-50,דירה בבית קומות,3.0,רביעית,60.0,650000,,,1997.0,,2.0,9409215396,1,206130,False,,אשדוד,נורדאו,,2061-30-50,2061/30,10833.333333333334,31.8104907273,34.640884445,2012
2012-12-01,2012-01-12,"הבנאים 12, אשדוד",הבנאים 12,2062-39-28,חנות,,ראשונה,105.5,390000,,,1995.0,,1.0,9410974188,1,206239,False,5% ב 4.3 שנים,אשדוד,הבנאים,1.16,2062-39-28,2062/39,3696.682464454977,31.8155162705,34.6587909454,2012
2012-12-01,2012-01-12,"הרב קוק 17, אשדוד",הרב קוק 17,2066-135-7,דירה בבית קומות,3.0,שלישית,56.0,550000,,,1960.0,,3.0,9410583336,1,2066135,False,,אשדוד,הרב קוק,,2066-135-7,2066/135,9821.42857142857,31.8089303932,34.6537694246,2012
2012-11-29,2012-11-29,"הרב דוד בוזגלו 7, אשדוד",הרב דוד בוזגלו 7,2384-39-1,קוטג' חד משפחתי,7.0,,170.0,2000000,,,2000.0,,,9433586148,1,238439,False,,אשדוד,הרב בוזגלו דוד,,2384-39-1,2384/39,11764.70588235294,31.7869162932,34.6602547637,2012
2012-11-29,2012-11-29,"הבנאים 14, אשדוד",הבנאים 14,2062-20-20,מחסנים,,ראשונה,142.0,209000,,,2012.0,,1.0,9434398932,1,206220,False,,אשדוד,הבנאים,,2062-20-20,2062/20,1471.8309859154929,,,2012
2012-11-29,2012-11-29,"הבטיחות 2, אשדוד",הבטיחות 2,2026-28-1,תעשיה,,,45.0,1740000,,,1982.0,,,9492842436,1,202628,False,,אשדוד,הבטיחות,,2026-28-1,2026/28,38666.66666666666,31.8310369048,34.6802694567,2012
2012-11-29,2012-11-29,"הדודאים 3, אשדוד",הדודאים 3,2188-14-8,דירה בבית קומות,4.0,רביעית,79.8,750000,,,2021.0,,5.0,9434089224,1,218814,False,,אשדוד,הדודאים,,2188-14-8,2188/14,9398.496240601504,31.7885292181,34.6572865366,2012
2012-11-29,2012-11-29,"המעפילים 20, אשדוד",המעפילים 20,2066-467-17,דירה בבית קומות,2.0,קרקע,39.0,530000,,,1960.0,,3.0,9433795308,1,2066467,False,19% ב 2.9 שנים,אשדוד,המעפילים,6.55,2066-467-17,2066/467,13589.74358974359,31.8076744269,34.6508058485,2012
2012-11-29,2012-11-29,"כינרת 96, אשדוד",כינרת 96,2193-13-19,דירה בבית קומות,5.0,ראשונה,124.29,1300000,,,1980.0,,5.0,9434091240,1,219313,False,,אשדוד,כנרת,,2193-13-19,2193/13,10459.4094456513,31.7821544839,34.6335398858,2012
2012-11-29,2012-11-29,"קרן היסוד 32, אשדוד",קרן היסוד 32,2191-11-1,דירה בבית קומות,4.0,ראשונה,61.3,1030000,,,1970.0,2013.0,4.0,9434591628,1,219111,False,,אשדוד,קרן היסוד,,2191-11-1,2191/11,16802.610114192496,31.7976440929,34.6407429133,2012
2012-11-28,2012-11-28,"יבנאל 13, אשדוד",יבנאל 13,2386-54-1,קוטג' דו משפחתי,6.0,,235.0,1600000,,,1997.0,,2.0,9495414852,1,238654,False,,אשדוד,יבנאל,,2386-54-1,2386/54,6808.510638297872,31.7823245296,34.6569425913,2012
2012-11-28,2012-11-28,"מצדה 87, אשדוד",מצדה 87,2192-82-6,דירה בבית קומות,4.0,ראשונה,123.61,1200000,,,2007.0,,13.0,9434150124,1,219282,False,,אשדוד,מצדה,,2192-82-6,2192/82,9707.952431033087,31.7791483718,34.6272387608,2012
2012-11-28,2012-11-28,"מצדה 106, אשדוד",מצדה 106,2193-20-37,דירה בבית קומות,4.0,שלישית,79.0,1020000,,,1990.0,,7.0,9434089896,1,219320,False,,אשדוד,מצדה,,2193-20-37,2193/20,12911.39240506329,31.7782159627,34.630998947,2012
2012-11-27,2012-11-27,"נחל לכיש 23, אשדוד",נחל לכיש 23,2196-67-10,דירה בבית קומות,4.0,שניה,117.8,1520000,,,2007.0,,13.0,9434246556,1,219667,False,,אשדוד,נחל לכיש,,2196-67-10,2196/67,12903.225806451614,31.7880389553,34.6330118482,2012
2012-11-27,2012-11-27,"אבן גבירול 12, אשדוד",אבן גבירול 12,2066-29-4,דירה בבית קומות,2.0,ראשונה,36.5,400000,,,1960.0,,1.0,9433153044,1,206629,False,,אשדוד,אבן גבירול,,2066-29-4,2066/29,10958.90410958904,31.8064138793,34.6552664867,2012
2012-11-27,2012-11-27,"יותם המלך 2, אשדוד",יותם המלך 2,2395-24-38,דירה בבית קומות,4.0,חמישית,68.48,990000,,,1990.0,,5.0,9432913980,1,239524,False,,אשדוד,המלך יותם,,2395-24-38,2395/24,14456.77570093458,31.7774669927,34.6420050351,2012
2012-11-26,2012-11-26,"המליץ 9, אשדוד",המליץ 9,2068-166-1,קוטג' דו משפחתי,6.0,,160.0,1700000,,,1986.0,,1.0,9434699736,1,2068166,False,,אשדוד,המליץ,,2068-166-1,2068/166,10625.0,31.7979709275,34.6521243707,2012
2012-11-26,2012-11-26,"תל חי 49, אשדוד",תל חי 49,2648-59-60,דירה בבית קומות,4.0,שביעית,107.0,1382000,,,1999.0,,7.0,9434904864,1,264859,False,,אשדוד,תל חי,,2648-59-60,2648/59,12915.88785046729,31.7681592967,34.6303160893,2012
2012-11-26,2012-11-26,"עזרא הסופר 15, אשדוד",עזרא הסופר 15,2398-114-15,דירה בבית קומות,5.0,ראשונה,101.0,1080000,,,1992.0,,2.0,9433137000,1,2398114,False,,אשדוד,עזרא הסופר,,2398-114-15,2398/114,10693.069306930693,31.7817292343,34.6503994928,2012
2012-11-26,2012-11-26,"שבט לוי 4, אשדוד",שבט לוי 4,2440-3-23,דירה בבית קומות,5.5,שישית + שביעית,155.05,1930000,,,2001.0,,6.0,9433239480,1,24403,False,52% ב 6.2 שנים,אשדוד,שבט לוי,8.39,2440-3-23,2440/3,12447.597549177684,31.7785190709,34.6379259129,2012
2012-11-26,2012-11-26,"בורחס חורחה 13, אשדוד",בורחס חורחה 13,2680-13-1,קוטג' דו משפחתי,6.0,מרתף וקרקע,199.3,2400000,,,1992.0,,,9435321924,1,268013,False,,אשדוד,בורחס חורחה,,2680-13-1,2680/13,12042.147516307074,31.7704013796,34.6279218423,2012
2012-11-25,2012-11-25,"הצוללים 8, אשדוד",הצוללים 8,2191-45-25,דירה בבית קומות,4.0,שישית,69.9,1150000,,,1980.0,,7.0,9432801672,1,219145,False,110% ב 10.3 שנים,אשדוד,הצוללים,10.68,2191-45-25,2191/45,16452.074391988554,31.7967961016,34.6387007111,2012
2012-11-25,2012-11-25,"סיגל 4, אשדוד",סיגל 4,2071-54-40,דירה בבית קומות,4.0,שניה,77.5,865000,,,1970.0,,8.0,9433342800,1,207154,False,,אשדוד,סיגל,,2071-54-40,2071/54,11161.290322580646,31.7932474313,34.6459353215,2012
2012-11-25,2012-11-25,"יהוא המלך 3, אשדוד",יהוא המלך 3,2395-26-74,דירה בבית קומות,3.0,שניה,66.7,920000,,,1992.0,,10.0,9432887520,1,239526,False,,אשדוד,המלך יהוא,,2395-26-74,2395/26,13793.103448275862,31.7767879126,34.6446424814,2012
2012-11-25,2012-11-25,"אקסודוס 20, אשדוד",אקסודוס 20,2791-13-66,דירה בבית קומות,2.0,קומה ‎12‏,61.0,1360000,,,2005.0,,19.0,9432981852,1,279113,False,51% ב 3.4 שנים,אשדוד,אקסודוס,15.0,2791-13-66,2791/13,22295.081967213115,31.7950859686,34.6336635173,2012
2012-11-25,2012-11-25,"אדר 13, אשדוד",אדר 13,2440-4-18,דירה בבית קומות,3.0,קומה ‎4‏,81.1,1280000,,,2002.0,,7.0,9433150356,1,24404,False,25% ב 1.5 שנים,אשדוד,אדר,16.67,2440-4-18,2440/4,15782.983970406904,31.7787905875,34.6396516781,2012
2012-11-25,2012-11-25,"דוד וולפסון 2, אשדוד",דוד וולפסון 2,2648-61-28,דירה בבית קומות,3.0,קרקע,39.1,920000,,,2000.0,,7.0,9433518948,1,264861,False,12% ב 2.6 שנים,אשדוד,וולפסון דוד,4.62,2648-61-28,2648/61,23529.41176470588,31.7681678385,34.6322973044,2012
2012-11-22,2012-11-22,"הרב קוק 19, אשדוד",הרב קוק 19,2066-224-2,דירה בבית קומות,3.0,ראשונה,54.7,690000,,,1970.0,,8.0,9432886176,1,2066224,False,,אשדוד,הרב קוק,,2066-224-2,2066/224,12614.259597806216,31.8095225413,34.6535103919,2012
2012-11-22,2012-11-22,"שבזי 1, אשדוד",שבזי 1,2068-91-9,דירה בבית קומות,3.0,ראשונה,64.24,725000,,,1970.0,,4.0,9433202100,1,206891,False,,אשדוד,שבזי,,2068-91-9,2068/91,11285.803237858034,31.7996687585,34.6482121009,2012
2012-11-21,2012-11-21,"אדר 6, אשדוד",אדר 6,2440-6-37,דירה בבית קומות,3.5,שניה,94.4,1140000,,,2000.0,,9.0,9433342128,1,24406,False,,אשדוד,אדר,,2440-6-37,2440/6,12076.271186440676,31.7803012383,34.639037461,2012
2012-11-21,2012-11-21,"אריה בן-אליעזר 14, אשדוד",אריה בן-אליעזר 14,2189-31-8,דירה בבית קומות,3.0,שניה,72.4,880000,,,1970.0,,4.0,9433779516,1,218931,False,18% ב 2.5 שנים,אשדוד,בן אליעזר אריה,7.2,2189-31-8,2189/31,12154.696132596684,31.8024420724,34.6442135539,2012
2012-11-20,2012-11-20,"רוגוזין 41, אשדוד",רוגוזין 41,2189-18-102,דירה בבית קומות,4.0,תשיעית,96.0,940000,,,1980.0,,10.0,9433083156,1,218918,False,,אשדוד,רוגוזין,,2189-18-102,2189/18,9791.666666666666,31.8014726503,34.6413922597,2012
2012-11-20,2012-11-20,"כפתור החולות 2, אשדוד",כפתור החולות 2,2074-165-13,דירה בבית קומות,4.0,רביעית,64.0,610000,1.0,,1978.0,,4.0,9434252100,1,2074165,False,,אשדוד,כפתור החולות,,2074-165-13,2074/165,9531.25,31.7847091311,34.6545156904,2012
2012-11-20,2012-11-20,"הרב אבן-דנן 6, אשדוד",הרב אבן-דנן 6,2462-7-15,דירה בבית קומות,3.0,רביעית,61.0,650000,,,1970.0,,4.0,9432193848,1,24627,False,,אשדוד,הרב אבן דנן,,2462-7-15,2462/7,10655.737704918032,31.7975317259,34.6595783104,2012
2012-11-20,2012-11-20,"האצ""ל 4, אשדוד","האצ""ל 4",2061-135-16,דירה בבית קומות,2.0,שלישית,38.5,720000,,,2019.0,,5.0,9432534804,1,2061135,False,80% ב 4.6 שנים,אשדוד,"האצ""ל",17.39,2061-135-16,2061/135,18701.2987012987,31.8109966592,34.644356426,2012
2012-11-20,2012-11-20,"העצמאות 89, אשדוד",העצמאות 89,2447-8-37,דירה בבית קומות,4.0,שביעית,106.0,1130000,,,1997.0,,10.0,9432523800,1,24478,False,,אשדוד,העצמאות,,2447-8-37,2447/8,10660.377358490568,31.7891807054,34.642139194,2012
2012-11-19,2012-11-19,"תל חי 32, אשדוד",תל חי 32,2670-22-96,דירה בבית קומות,5.0,חמישית,128.5,1599000,,,2007.0,,9.0,9433912404,1,267022,False,,אשדוד,תל חי,,2670-22-96,2670/22,12443.579766536965,31.768703081,34.6268907946,2012
2012-11-19,2012-11-19,"אבות ישורון 4, אשדוד",אבות ישורון 4,2071-194-42,דירה בבית קומות,4.0,אחת עשרה,97.6,1195000,,,1996.0,,14.0,9432981180,1,2071194,False,171% ב 9.4 שנים,אשדוד,אבות ישורון,18.19,2071-194-42,2071/194,12243.852459016394,31.7958067668,34.649149292,2012
2012-11-19,2012-11-19,"האמוראים 4, אשדוד",האמוראים 4,472-47-67,דירה בבית קומות,4.0,שלישית,104.0,1150000,,,1991.0,,4.0,9432200820,1,47247,False,,אשדוד,האמוראים,,472-47-67,472/47,11057.692307692309,31.7907582729,34.6619746315,2012
2012-11-19,2012-11-19,"הראשונים 13, אשדוד",הראשונים 13,2086-33-23,דירה בבית קומות,3.0,שלישית,82.0,720000,,,1960.0,,4.0,9432171000,1,208633,False,53% ב 5.2 שנים,אשדוד,הראשונים,10.19,2086-33-23,2086/33,8780.487804878048,31.8089921318,34.6475999139,2012
2012-11-19,2012-11-19,"יורדי הסירה 8, אשדוד",יורדי הסירה 8,2066-181-16,דירה בבית קומות,3.0,רביעית,64.45,570000,,,2021.0,,4.0,9432173184,1,2066181,False,,אשדוד,יורדי הסירה,,2066-181-16,2066/181,8844.065166795965,31.8021413324,34.6497161443,2012
2012-11-18,2012-11-18,"שבט יששכר 11, אשדוד",שבט יששכר 11,2437-17-6,דירה בבית קומות,4.0,שניה,112.7,1409000,,,2000.0,,6.0,9431868852,1,243717,False,54% ב 4.9 שנים,אשדוד,שבט יששכר,11.02,2437-17-6,2437/17,12502.218278615794,31.7762179194,34.6369745795,2012
2012-11-18,2012-11-18,"המעפילים 10, אשדוד",המעפילים 10,2066-229-10,דירה בבית קומות,3.0,שלישית,63.43,720000,,,1970.0,,4.0,9431868264,1,2066229,False,,אשדוד,המעפילים,,2066-229-10,2066/229,11351.09569604288,31.8090026441,34.6514784779,2012
2012-11-18,2012-11-18,"הפרחים 26, אשדוד",הפרחים 26,2073-86-41,דירה בבית קומות,4.0,שניה,85.2,1120000,,,1997.0,,6.0,9431753940,1,207386,False,,אשדוד,הפרחים,,2073-86-41,2073/86,13145.539906103286,31.7856673382,34.6507278283,2012
2012-11-16,2012-11-16,"היסמין 18, אשדוד",היסמין 18,2465-16-15,דירה בבית קומות,4.0,ראשונה,85.65,910000,,,1990.0,,4.0,9433940208,1,246516,False,,אשדוד,היסמין,,2465-16-15,2465/16,10624.635143023934,31.7898135332,34.6491937717,2012
2012-11-15,2012-11-15,"אפרסק 6, אשדוד",אפרסק 6,2815-18-24,דירה בבית קומות,5.0,קומה ‎6‏,131.5,1500000,,,2012.0,,18.0,9432190488,1,281518,False,0% ב 0.4 שנים,אשדוד,ענבים,0.0,2815-18-24,2815/18,11406.84410646388,31.7707158975,34.6399874286,2012
2012-11-15,2012-11-15,"יהודה המכבי 21, אשדוד",יהודה המכבי 21,2456-2-16,דירה בבית קומות,2.0,רביעית,37.5,499000,,,1965.0,,4.0,9433143384,1,24562,False,,אשדוד,יהודה המכבי,,2456-2-16,2456/2,13306.666666666666,31.79634001,34.6581495069,2012
2012-11-14,2012-11-14,"אקסודוס 7, אשדוד",אקסודוס 7,2791-34-44,דירה בבית קומות,4.0,חמישית,100.0,1780000,,,2004.0,,9.0,9434936784,1,279134,False,11% ב 2.1 שנים,אשדוד,אקסודוס,5.24,2791-34-44,2791/34,17800.0,31.7946630078,34.6326545143,2012
2012-11-14,2012-11-14,"קבוץ גלויות 18, אשדוד",קבוץ גלויות 18,2066-328-23,דירה בבית קומות,2.0,שניה,42.0,439000,,,1960.0,,2.0,9431742180,1,2066328,False,,אשדוד,קבוץ גלויות,,2066-328-23,2066/328,10452.380952380952,31.8021024381,34.6506680551,2012
2012-11-14,2012-11-14,"נורדאו 11, אשדוד",נורדאו 11,2061-30-43,דירה בבית קומות,3.0,רביעית,68.0,700000,,,1997.0,,2.0,9433072656,1,206130,False,,אשדוד,נורדאו,,2061-30-43,2061/30,10294.117647058823,31.8104907273,34.640884445,2012
2012-11-14,2012-11-14,"אקסודוס 12, אשדוד",אקסודוס 12,2791-14-19,דירה בבית קומות,3.0,שלישית,81.6,1350000,,,2001.0,,18.0,9434608932,1,279114,False,17% ב 3.2 שנים,אשדוד,אקסודוס,5.31,2791-14-19,2791/14,16544.117647058825,31.794202852,34.634053613,2012
2012-11-14,2012-11-14,"רבי יהודה הנשיא 10, אשדוד",רבי יהודה הנשיא 10,472-144-44,דירה בבית קומות,5.0,,130.0,1420000,,,2005.0,,6.0,9434908392,1,472144,False,,אשדוד,רבי יהודה הנשיא,,472-144-44,472/144,10923.076923076924,31.790672991,34.6655904162,2012
2012-11-14,2012-11-14,"החרצית 5, אשדוד",החרצית 5,2465-7-7,דירה בבית קומות,3.0,שניה,66.0,730000,,,2022.0,,4.0,9432982524,1,24657,False,100% ב 13.8 שנים,אשדוד,החרצית,7.25,2465-7-7,2465/7,11060.60606060606,31.7897821596,34.6523916938,2012
2012-11-14,2012-11-14,"הכלנית 38, אשדוד",הכלנית 38,2073-37-14,דירה בבית קומות,3.0,רביעית,62.8,615000,,,1970.0,,4.0,9434870928,1,207337,False,135% ב 7.3 שנים,אשדוד,הכלנית,18.49,2073-37-14,2073/37,9792.993630573248,31.786953564,34.6498219853,2012
2012-11-13,2012-11-13,"חרמון 6, אשדוד",חרמון 6,2194-13-20,דירה בבית קומות,5.0,עשירית,140.97,2100000,,,1998.0,,18.0,9434243784,1,219413,False,,אשדוד,חרמון,,2194-13-20,2194/13,14896.786550329858,31.7841547557,34.6304407551,2012
2012-11-13,2012-11-13,"רוגוזין 4, אשדוד",רוגוזין 4,2088-7-59,דירה בבית קומות,4.0,שישית,100.8,850000,,,1970.0,,14.0,9431311680,1,20887,False,,אשדוד,רוגוזין,,2088-7-59,2088/7,8432.539682539682,31.8080783613,34.6439264261,2012
2012-11-13,2012-11-13,"רוגוזין 4, אשדוד",רוגוזין 4,2088-7-18,חנות,,ראשונה,22.3,272000,,,1970.0,,14.0,9433147500,1,20887,False,,אשדוד,רוגוזין,,2088-7-18,2088/7,12197.309417040358,31.8080783613,34.6439264261,2012
2012-11-13,2012-11-13,"קק""ל 8, אשדוד","קק""ל 8",2397-49-22,דירה בבית קומות,5.0,ראשונה,103.0,1265000,,,1992.0,,3.0,9431911272,1,239749,False,94% ב 14 שנים,אשדוד,"קק""ל",6.71,2397-49-22,2397/49,12281.553398058251,31.7842215002,34.6490245859,2012
2012-11-13,2012-11-13,"אדר 4, אשדוד",אדר 4,2440-19-36,דירה בבית קומות,4.0,קומה ‎10‏,96.0,1220000,,,2006.0,,17.0,9431746296,1,244019,False,,אשדוד,אדר,,2440-19-36,2440/19,12708.333333333334,31.780818951,34.6386429333,2012
2012-11-13,2012-11-13,"רוטשילד 30, אשדוד",רוטשילד 30,2648-55-94,דירה בבית קומות,5.5,ראשונה+שניה,126.76,1600000,,,1998.0,,8.0,9492334488,1,264855,False,,אשדוד,רוטשילד,,2648-55-94,2648/55,12622.278321236983,31.7692182769,34.6330162793,2012
2012-11-13,2012-11-13,"הרימון 4, אשדוד",הרימון 4,2815-17-74,דירת גן,6.0,"קרקע, ראשונה",153.1,2255000,,,2011.0,,17.0,9433294920,1,281517,False,,אשדוד,הרימון,,2815-17-74,2815/17,14728.93533638145,31.771292334,34.6405416081,2012
2012-11-13,2012-11-13,"אבות ישורון 14, אשדוד",אבות ישורון 14,2071-187-9,דירה בבית קומות,5.0,שלישית ורביעית,144.1,1400000,,,1993.0,,3.0,9433678884,1,2071187,False,,אשדוד,אבות ישורון,,2071-187-9,2071/187,9715.475364330328,31.7946728296,34.6508279857,2012
2012-11-12,2012-12-11,"חרמון 6, אשדוד",חרמון 6,2194-13-8,דירה בבית קומות,5.0,רביעית,135.45,1620000,,,1998.0,,18.0,9433981788,1,219413,False,,אשדוד,חרמון,,2194-13-8,2194/13,11960.13289036545,31.7841547557,34.6304407551,2012
2012-11-12,2012-12-11,"נורדאו 14, אשדוד",נורדאו 14,2061-97-14,דירה בבית קומות,3.0,רביעית,77.0,950000,,,1970.0,,8.0,9492170856,1,206197,False,85% ב 13.4 שנים,אשדוד,נורדאו,6.34,2061-97-14,2061/97,12337.662337662336,31.8107381359,34.64290979,2012
2012-11-12,2012-12-11,"דקר 43, אשדוד",דקר 43,2076-46-1,קוטג' חד משפחתי,5.0,,190.0,3050000,,,2000.0,,1.0,9434714940,1,207646,False,,אשדוד,דקר,,2076-46-1,2076/46,16052.631578947368,31.8016406623,34.6373732059,2012
2012-11-12,2012-12-11,"אלבז 22, אשדוד",אלבז 22,2457-7-6,דירה בבית קומות,2.0,שניה,46.8,610000,,,1970.0,,4.0,9434713596,1,24577,False,,אשדוד,אלבז נתן,,2457-7-6,2457/7,13034.188034188037,31.794863457,34.6530188584,2012
2012-11-12,2012-12-11,"הכלנית 9, אשדוד",הכלנית 9,2074-186-93,דירה בבית קומות,4.0,תשיעית,102.4,1180000,,,2001.0,,15.0,9493312248,1,2074186,False,86% ב 5.5 שנים,אשדוד,הכלנית,15.64,2074-186-93,2074/186,11523.4375,31.7845459565,34.6530109031,2012
2012-11-12,2012-12-11,"הלל 7, אשדוד",הלל 7,472-122-31,דירה בבית קומות,3.0,,95.0,950000,,,2001.0,,4.0,9435036576,1,472122,False,,אשדוד,הלל,,472-122-31,472/122,10000.0,31.7920803494,34.6673862551,2012
2012-11-11,2012-11-11,"הציונות 47, אשדוד",הציונות 47,2449-8-57,דירה,5.0,שניה,166.0,1750000,1.0,"שומרז סיטי""",2000.0,,9.0,11181205819,1,24498,False,,אשדוד,הציונות,,2449-8-57,2449/8,10542.168674698794,31.7856752114,34.6445305045,2012
2012-11-11,2012-11-11,"ציזלינג 1, אשדוד",ציזלינג 1,2455-14-18,דירה בבית קומות,2.5,ראשונה,38.3,570000,,,1970.0,,4.0,9432986640,1,245514,False,,אשדוד,ציזלינג,,2455-14-18,2455/14,14882.506527415144,31.7978695485,34.6548582543,2012
2012-11-11,2012-11-11,"רוגוזין 22, אשדוד",רוגוזין 22,2088-50-4,דירה בבית קומות,3.0,שלישית,56.0,833300,,,1960.0,,4.0,9432968076,1,208850,False,,אשדוד,רוגוזין,,2088-50-4,2088/50,14880.357142857143,31.8066906593,34.6435880721,2012
2012-11-11,2012-11-11,"רוגוזין 43, אשדוד",רוגוזין 43,2191-76-136,חנות,,קרקע תחתונה,46.98,179000,,,1970.0,,8.0,9435184164,1,219176,False,,אשדוד,רוגוזין,,2191-76-136,2191/76,3810.131971051512,31.8003976503,34.6416580117,2012
2012-11-11,2012-11-11,"משה חיים שפירא 11, אשדוד",משה חיים שפירא 11,2189-100-13,דירה בבית קומות,4.0,רביעית,89.93,1065000,,,1990.0,,7.0,9432217452,1,2189100,False,26% ב 2.9 שנים,אשדוד,שפירא משה חיים,8.97,2189-100-13,2189/100,11842.544201045255,31.8004772135,34.6435038815,2012
2012-11-11,2012-11-11,"החרצית 13, אשדוד",החרצית 13,2465-14-17,דירה בבית קומות,3.5,ראשונה,69.4,736000,,,1970.0,,4.0,9432485076,1,246514,False,47% ב 4.1 שנים,אשדוד,החרצית,11.46,2465-14-17,2465/14,10605.187319884726,31.7903879808,34.6506002527,2012
2012-11-11,2012-11-11,"הנביא עובדיה 10, אשדוד",הנביא עובדיה 10,2400-8-17,דירה בבית קומות,4.0,ראשונה,74.0,930000,,,1992.0,,3.0,9431642976,1,24008,False,82% ב 2.8 שנים,אשדוד,הנביא עובדיה,29.29,2400-8-17,2400/8,12567.567567567568,31.7827380875,34.6443771214,2012
2012-11-10,2012-10-11,"אגוז 15, אשדוד",אגוז 15,2791-48-15,דירה בבית קומות,4.0,,122.0,2600000,,,2008.0,,6.0,9429414372,1,279148,False,,אשדוד,אגוז,,2791-48-15,2791/48,21311.475409836065,31.7925002051,34.6321770942,2012
2012-11-10,2012-10-11,"גבעת עדה 8, אשדוד",גבעת עדה 8,2386-133-20,דירה בבית קומות,5.0,ראשונה,106.0,576000,,,1993.0,,3.0,9428743548,1,2386133,False,,אשדוד,גבעת עדה,,2386-133-20,2386/133,5433.962264150943,31.7840932828,34.6583376922,2012
2012-11-10,2012-10-11,"הנורית 7, אשדוד",הנורית 7,2188-78-21,דירה בבית קומות,3.0,שישית,79.0,1045000,,,1998.0,,8.0,9429112812,1,218878,False,,אשדוד,הנורית,,2188-78-21,2188/78,13227.848101265825,31.7866800529,34.6569264902,2012
2012-11-10,2012-10-11,"החלוצים 11, אשדוד",החלוצים 11,2447-5-29,דירה בבית קומות,4.0,שמינית,114.3,1200000,,,1997.0,,9.0,9428494068,1,24475,False,84% ב 9.4 שנים,אשדוד,החלוצים,8.94,2447-5-29,2447/5,10498.687664041994,31.7931119327,34.6421069642,2012
2012-11-10,2012-10-11,"המעפילים 18, אשדוד",המעפילים 18,2066-466-6,דירה בבית קומות,2.5,שניה,44.0,550000,,,1965.0,,3.0,9429075516,1,2066466,False,,אשדוד,המעפילים,,2066-466-6,2066/466,12500.0,31.8079251982,34.6509308956,2012
2012-11-10,2012-10-11,"הרב בלולו 11, אשדוד",הרב בלולו 11,2455-51-2,קוטג' דו משפחתי,4.0,ראשונה + שניה,91.2,1200000,,,1964.0,,1.0,9428865432,1,245551,False,,אשדוד,הרב בלולו,,2455-51-2,2455/51,13157.894736842103,31.7955961882,34.6557004248,2012
2012-11-10,2012-10-11,"נחל לכיש 36, אשדוד",נחל לכיש 36,2195-60-8,דירה בבית קומות,5.0,ראשונה,175.6,1750000,,,2011.0,,9.0,9430485708,1,219560,False,,אשדוד,נחל לכיש,,2195-60-8,2195/60,9965.831435079726,31.7858203851,34.6348361511,2012
2012-11-10,2012-10-11,"אקסודוס 32, אשדוד",אקסודוס 32,2791-11-161,קוטג' טורי,5.0,,150.0,4250000,,,2009.0,,18.0,9429423948,1,279111,False,,אשדוד,אקסודוס,,2791-11-161,2791/11,28333.33333333333,31.7969005959,34.6329188957,2012
2012-11-10,2012-10-11,"הנביא צפניה 4, אשדוד",הנביא צפניה 4,2397-26-9,דירה בבית קומות,3.0,שניה,65.4,800000,,,1990.0,,3.0,9428913984,1,239726,False,,אשדוד,הנביא צפניה,,2397-26-9,2397/26,12232.415902140672,31.7845620805,34.6456210561,2012
2012-11-09,2012-09-11,"האלמוגים 17, אשדוד",האלמוגים 17,2076-77-2,דירה בבית קומות,4.0,ראשונה,118.91,1500000,,,2022.0,,3.0,9427665156,1,207677,False,,אשדוד,האלמוגים,,2076-77-2,2076/77,12614.582457320665,31.8036531462,34.6392052799,2012
2012-11-09,2012-09-11,"ספיר 11, אשדוד",ספיר 11,3172-30-43,דירה בבית קומות,5.0,שתים עשרה,216.65,3126000,,,2012.0,,12.0,9427618704,1,317230,False,,אשדוד,ספיר,,3172-30-43,3172/30,14428.802215555042,31.766210559,34.6284428276,2012
2012-11-09,2012-09-11,"יורדי הסירה 6, אשדוד",יורדי הסירה 6,2066-180-2,דירה בבית קומות,3.0,ראשונה,33.88,845000,,,1960.0,,4.0,9429622860,1,2066180,False,,אשדוד,יורדי הסירה,,2066-180-2,2066/180,24940.968122786304,31.8022132039,34.6493708801,2012
2012-11-09,2012-09-11,"אהרונסון שרה 21, אשדוד",אהרונסון שרה 21,2489-56-1,קוטג' דו משפחתי,6.0,קרקע וראשונה,155.4,2325000,,,1990.0,,,9427037256,1,248956,False,,אשדוד,אהרונסון שרה,,2489-56-1,2489/56,14961.38996138996,31.7767517251,34.6303785318,2012
2012-11-09,2012-09-11,"חשוון 9, אשדוד",חשוון 9,2440-16-44,דירה בבית קומות,4.0,חמישית,108.22,1280000,,,2002.0,,,9427469688,1,244016,False,137% ב 9.3 שנים,אשדוד,חשון,14.73,2440-16-44,2440/16,11827.758270190354,31.7824436212,34.6412689781,2012
2012-11-07,2012-07-11,"קרן היסוד 49, אשדוד",קרן היסוד 49,2190-23-9,דירה בבית קומות,5.0,שניה,130.0,1265000,,,1989.0,,3.0,9423153684,1,219023,False,,אשדוד,קרן היסוד,,2190-23-9,2190/23,9730.76923076923,31.7957364753,34.640671728,2012
2012-11-07,2012-07-11,"תש""ח 2, אשדוד","תש""ח 2",2448-7-794,דירה בבית קומות,5.0,חמישית,120.0,1240000,,,2019.0,,16.0,9422396928,1,24487,False,,אשדוד,"תש""ח",,2448-7-794,2448/7,10333.333333333334,31.7884022023,34.646324433,2012
2012-11-07,2012-07-11,"משה חיים שפירא 15, אשדוד",משה חיים שפירא 15,2189-99-18,דירה בבית קומות,4.0,חמישית,78.55,910000,,,1986.0,,7.0,9422308308,1,218999,False,,אשדוד,שפירא משה חיים,,2189-99-18,2189/99,11584.97772119669,31.8007459311,34.6430486756,2012
2012-11-07,2012-07-11,"אחד העם 18, אשדוד",אחד העם 18,2068-76-8,דירה בבית קומות,3.0,רביעית,69.01,650000,,,1970.0,,4.0,9422440020,1,206876,False,44% ב 2.5 שנים,אשדוד,אחד העם,17.6,2068-76-8,2068/76,9418.924793508186,31.801626666,34.6474576849,2012
2012-11-06,2012-06-11,"החרצית 16, אשדוד",החרצית 16,2465-12-3,דירה בבית קומות,3.0,ראשונה,64.3,650000,,,1970.0,,4.0,9420468960,1,246512,False,117% ב 6.1 שנים,אשדוד,החרצית,19.18,2465-12-3,2465/12,10108.86469673406,31.7905695635,34.6514007497,2012
2012-11-06,2012-06-11,"קורל 9, אשדוד",קורל 9,3172-120-1,קוטג' חד משפחתי,6.0,,169.0,2920000,,,2012.0,,2.0,9420512640,1,3172120,False,,אשדוד,קורל,,3172-120-1,3172/120,17278.10650887574,31.7674646977,34.6266462403,2012
2012-11-06,2012-06-11,"הרימון 6, אשדוד",הרימון 6,2815-17-106,דירה בבית קומות,3.0,חמישית,84.8,770000,,,2011.0,,17.0,9420301884,1,281517,False,,אשדוד,הרימון,,2815-17-106,2815/17,9080.188679245284,31.771292334,34.6405416081,2012
2012-11-06,2012-06-11,"חנה סנש 14, אשדוד",חנה סנש 14,2462-35-41,דירה בבית קומות,4.0,שישית,77.0,918000,,,2012.0,,6.0,9420117672,1,246235,False,,אשדוד,סנש חנה,,2462-35-41,2462/35,11922.077922077922,31.7992832109,34.6609341572,2012
2012-11-06,2012-06-11,"שער האריות 2, אשדוד",שער האריות 2,2072-45-66,דירה בבית קומות,4.0,חמישית,98.9,1350000,,,1988.0,,6.0,9420492564,1,207245,False,,אשדוד,שער האריות,,2072-45-66,2072/45,13650.15166835187,31.7950679593,34.6382906058,2012
2012-11-06,2012-06-11,"שבט דן 8, אשדוד",שבט דן 8,2438-11-27,דירה בבית קומות,4.0,שביעית,100.0,1290000,,,2000.0,,10.0,9421187748,1,243811,False,111% ב 9.2 שנים,אשדוד,שבט דן,12.07,2438-11-27,2438/11,12900.0,31.7785768482,34.6334138171,2012
2012-11-05,2012-05-11,"הטיילת 3, אשדוד",הטיילת 3,2061-127-43,דירה בבית קומות,2.0,אחת עשרה,52.0,725000,,,2007.0,,12.0,9417927708,1,2061127,False,,אשדוד,הטיילת,,2061-127-43,2061/127,13942.307692307691,31.8128222901,34.6418738779,2012
2012-11-05,2012-05-11,"זלמן ארן 3, אשדוד",זלמן ארן 3,2189-13-27,דירה בבית קומות,4.0,שביעית,85.1,800000,,,1980.0,,8.0,9418649184,1,218913,False,0% ב 2.6 שנים,אשדוד,ארן זלמן,0.0,2189-13-27,2189/13,9400.705052878966,31.8026332854,34.6467526304,2012
2012-11-04,2012-04-11,"הציונות 50, אשדוד",הציונות 50,2449-2-34,דירה בבית קומות,4.0,שישית,107.4,1260000,,,2003.0,,12.0,9416286768,1,24492,False,98% ב 7.8 שנים,אשדוד,הציונות,12.56,2449-2-34,2449/2,11731.843575418994,31.7863327354,34.6401579294,2012
2012-11-04,2012-04-11,"שבט נפתלי 11, אשדוד",שבט נפתלי 11,2438-48-27,דירה,5.0,חמישית,162.0,2150000,1.0,קדמת הים,2012.0,,11.0,11181205425,1,243848,False,,אשדוד,שבט נפתלי,,2438-48-27,2438/48,13271.604938271605,31.7764500913,34.6324992668,2012
2012-11-03,2012-03-11,"האורגים 35, אשדוד",האורגים 35,2062-67-63,אחר,1.0,שניה,44.0,280140,1.0,בר סנטר,2011.0,,10.0,11181203000,1,206267,False,,אשדוד,האורגים,,2062-67-63,2062/67,6366.818181818182,31.8157325008,34.6567762057,2012
2012-11-03,2012-03-11,"משה מרזוק ושמואל עזאר 13, אשדוד",משה מרזוק ושמואל עזאר 13,2087-5-3,דירה בבית קומות,4.0,שניה,110.0,850000,,,1950.0,,2.0,9414711600,1,20875,False,,אשדוד,מרזוק ושמואל,,2087-5-3,2087/5,7727.272727272727,31.810044498,34.6452133058,2012
2012-11-03,2012-03-11,"העצמאות 21, אשדוד",העצמאות 21,2448-6-6,דירה בבית קומות,6.0,שניה,135.85,1625000,,,1997.0,,10.0,9414828024,1,24486,False,81% ב 9.7 שנים,אשדוד,העצמאות,8.35,2448-6-6,2448/6,11961.722488038278,31.7917926547,34.6466480257,2012
2012-11-01,2012-01-11,"חטיבת הנגב 23, אשדוד",חטיבת הנגב 23,2463-5-33,דירה בבית קומות,3.0,ראשונה,72.0,560000,,,1970.0,,4.0,9410360148,1,24635,False,,אשדוד,חטיבת הנגב,,2463-5-33,2463/5,7777.777777777777,31.8013805838,34.665248669,2012
2012-11-01,2012-01-11,"אלבז 15, אשדוד",אלבז 15,2455-60-35,דירה בבית קומות,2.5,שניה,44.7,500000,,,1970.0,,4.0,9409731660,1,245560,False,35% ב 3.1 שנים,אשדוד,אלבז נתן,11.29,2455-60-35,2455/60,11185.682326621923,31.7955299452,34.6544292766,2012
2012-11-01,2012-01-11,"אבות ישורון 11, אשדוד",אבות ישורון 11,2071-188-77,דירה בבית קומות,4.0,רביעית,82.02,910000,,,1992.0,,8.0,9409411452,1,2071188,False,,אשדוד,אבות ישורון,,2071-188-77,2071/188,11094.854913435747,31.7944082097,34.6506045083,2012
2012-11-01,2012-01-11,"יותם המלך 2, אשדוד",יותם המלך 2,2395-24-3,דירה בבית קומות,5.0,ראשונה,90.74,945000,,,1990.0,,5.0,9409254204,1,239524,False,,אשדוד,המלך יותם,,2395-24-3,2395/24,10414.370729556977,31.7774669927,34.6420050351,2012
2012-11-01,2012-01-11,"שמואל הנביא 4, אשדוד",שמואל הנביא 4,2398-20-11,דירה בבית קומות,3.0,ראשונה,65.11,770000,,,1990.0,,2.0,9409743420,1,239820,False,,אשדוד,הנביא שמואל,,2398-20-11,2398/20,11826.140377822148,31.7807467514,34.6523301881,2012
2012-10-31,2012-10-31,"אריה בן-אליעזר 16, אשדוד",אריה בן-אליעזר 16,2189-30-15,דירה בבית קומות,4.0,רביעית,78.0,997000,,,1970.0,,7.0,9430654044,1,218930,False,,אשדוד,בן אליעזר אריה,,2189-30-15,2189/30,12782.05128205128,31.8024090946,34.6445379409,2012
2012-10-31,2012-10-31,"הדגנית 4, אשדוד",הדגנית 4,2188-4-5,דירה בבית קומות,3.0,שלישית,60.1,750000,,,2017.0,,4.0,9430446144,1,21884,False,,אשדוד,הדגנית,,2188-4-5,2188/4,12479.201331114808,31.7892720006,34.6549684548,2012
2012-10-31,2012-10-31,"הר גלבוע 24, אשדוד",הר גלבוע 24,2192-17-3,קוטג' דו משפחתי,7.0,,371.0,4950000,,,1978.0,,2.0,9430696968,1,219217,False,,אשדוד,הר גלבוע,,2192-17-3,2192/17,13342.318059299192,31.7798649362,34.6253588386,2012
2012-10-31,2012-10-31,"חיבת ציון 9, אשדוד",חיבת ציון 9,2077-204-17,דירה בבית קומות,5.0,רביעית,106.0,1360000,,,2007.0,,9.0,9430706796,1,2077204,False,,אשדוד,חיבת ציון,,2077-204-17,2077/204,12830.188679245282,31.8113889394,34.6465375163,2012
2012-10-31,2012-10-31,"שבט שמעון 2, אשדוד",שבט שמעון 2,2438-9-37,דירה בבית קומות,5.0,תשיעית,151.9,2000000,,,2003.0,,9.0,9430411536,1,24389,False,13% ב 4.2 שנים,אשדוד,שבט שמעון,3.1,2438-9-37,2438/9,13166.556945358789,31.7787620884,34.6347710126,2012
2012-10-30,2012-10-30,"הבנאים 12, אשדוד",הבנאים 12,2062-39-32,תעשיה,,ראשונה,48.9,360000,,,1995.0,,1.0,9433206888,1,206239,False,,אשדוד,הבנאים,,2062-39-32,2062/39,7361.963190184049,31.8155162705,34.6587909454,2012
2012-10-30,2012-10-30,"העצמאות 38, אשדוד",העצמאות 38,2448-8-168,דירה בבית קומות,5.0,חמישית,166.0,1884000,,,2018.0,,13.0,9431263296,1,24488,False,,אשדוד,העצמאות,,2448-8-168,2448/8,11349.397590361446,31.7896347252,34.6452386087,2012
2012-10-30,2012-10-30,"האדמו""ר מבלעז 2, אשדוד","האדמו""ר מבלעז 2",2464-29-5,דירה בבית קומות,5.0,,120.0,1100000,,,1990.0,,2.0,9435031788,1,246429,False,,אשדוד,"האדמו""ר מבעלז",,2464-29-5,2464/29,9166.666666666666,31.8044349924,34.6632922296,2012
2012-10-30,2012-10-30,"הטיילת 3, אשדוד",הטיילת 3,2061-127-148,דירה בבית קומות,2.0,שביעית,50.0,650000,,,2007.0,,12.0,9430367772,1,2061127,False,,אשדוד,הטיילת,,2061-127-148,2061/127,13000.0,31.8128222901,34.6418738779,2012
2012-10-30,2012-10-30,"עופר אברהם 13, אשדוד",עופר אברהם 13,2189-92-32,דירה בבית קומות,4.5,רביעית,75.68,950000,,,1988.0,,4.0,9430628424,1,218992,False,,אשדוד,עופר אברהם,,2189-92-32,2189/92,12552.854122621564,31.8006078747,34.6457371657,2012
2012-10-30,2012-10-30,"דוד וולפסון 1, אשדוד",דוד וולפסון 1,2648-55-8,דירה בבית קומות,5.0,ראשונה+שניה,126.76,1710000,,,1998.0,,8.0,9430902264,1,264855,False,26% ב 3.3 שנים,אשדוד,וולפסון דוד,7.88,2648-55-8,2648/55,13490.059955822026,31.7692182769,34.6330162793,2012
2012-10-30,2012-10-30,"הנביא חבקוק 9, אשדוד",הנביא חבקוק 9,2397-35-25,דירה בבית קומות,3.0,שניה,66.0,840000,,,1980.0,,,9430807260,1,239735,False,15% ב 2 שנים,אשדוד,הנביא חבקוק,7.5,2397-35-25,2397/35,12727.272727272728,31.785205411,34.6482736098,2012
2012-10-30,2012-10-30,"קיבוץ גלויות 4, אשדוד",קיבוץ גלויות 4,2066-90-36,דירה בבית קומות,2.0,שניה,42.8,510000,,,1960.0,,4.0,9432485748,1,206690,False,24% ב 2.5 שנים,אשדוד,קבוץ גלויות,9.6,2066-90-36,2066/90,11915.88785046729,31.8057374303,34.6516415366,2012
2012-10-30,2012-10-30,"תש""ח 2, אשדוד","תש""ח 2",2448-7-783,דירה בבית קומות,3.0,שישית,80.0,1305000,,,2019.0,,16.0,9430652028,1,24487,False,,אשדוד,"תש""ח",,2448-7-783,2448/7,16312.5,31.7884022023,34.646324433,2012
2012-10-30,2012-10-30,"כוכב הדרום 5, אשדוד",כוכב הדרום 5,2437-11-3,דירה בבית קומות,5.5,ראשונה,112.0,1320000,,,2002.0,,,9430404564,1,243711,False,103% ב 10.5 שנים,אשדוד,כוכב הדרום,9.81,2437-11-3,2437/11,11785.714285714286,31.7765392915,34.6356535615,2012
2012-10-29,2012-10-29,"הכלנית 9, אשדוד",הכלנית 9,2074-186-79,דירה בבית קומות,3.0,חמישית,86.5,1000000,,,2001.0,,15.0,9430708812,1,2074186,False,128% ב 14.5 שנים,אשדוד,הכלנית,8.83,2074-186-79,2074/186,11560.693641618496,31.7845459565,34.6530109031,2012
2012-10-29,2012-10-29,"הציונות 47, אשדוד",הציונות 47,2449-8-55,דירה,5.0,חמישית,166.0,1820000,1.0,"שומרז סיטי""",2000.0,,9.0,11181205817,1,24498,False,,אשדוד,הציונות,,2449-8-55,2449/8,10963.855421686749,31.7856752114,34.6445305045,2012
2012-10-29,2012-10-29,"הבעל שם טוב 3, אשדוד",הבעל שם טוב 3,2462-64-62,דירה בבית קומות,6.0,קרקע,137.2,1499000,,,1996.0,,5.0,9430665888,1,246264,False,,אשדוד,הבעל שם טוב,,2462-64-62,2462/64,10925.655976676386,31.7972728497,34.6623325032,2012
2012-10-29,2012-10-29,"הרימון 2, אשדוד",הרימון 2,2815-17-57,מחסנים,5.0,שתים עשרה,123.6,1607000,,,2011.0,,17.0,9431106552,1,281517,False,0% ב 0.2 שנים,אשדוד,הרימון,0.0,2815-17-57,2815/17,13001.618122977348,31.771292334,34.6405416081,2012
2012-10-29,2012-10-29,"אבן עזרא 18, אשדוד",אבן עזרא 18,2071-128-29,דירה בבית קומות,4.0,ראשונה,98.0,1140000,,,1994.0,,7.0,9429875868,1,2071128,False,,אשדוד,אבן עזרא,,2071-128-29,2071/128,11632.65306122449,31.7955654856,34.6462870707,2012
2012-10-28,2012-10-28,"גשר עד הלום 7, אשדוד",גשר עד הלום 7,2462-103-24,דירה בבית קומות,3.0,שישית,89.0,849000,,,1998.0,,6.0,9431401140,1,2462103,False,65% ב 4.9 שנים,אשדוד,גשר עד הלום,13.27,2462-103-24,2462/103,9539.32584269663,31.8003887485,34.6610234425,2012
2012-10-28,2012-10-28,"רשב""י 10, אשדוד","רשב""י 10",472-76-1,דירה בבית קומות,5.0,קרקע,124.0,2000000,,,1995.0,,4.0,9430854972,1,47276,False,240% ב 13.9 שנים,אשדוד,"רשב""י",17.27,472-76-1,472/76,16129.032258064515,31.7897501934,34.6607120163,2012
2012-10-28,2012-10-28,"הסחלב 17, אשדוד",הסחלב 17,2188-60-1,קוטג' דו משפחתי,6.0,,160.0,3600000,,,2005.0,,,9430846824,1,218860,False,,אשדוד,הסחלב,,2188-60-1,2188/60,22500.0,31.7869018736,34.6556203288,2012
2012-10-28,2012-10-28,"יואב בן-צרויה 9, אשדוד",יואב בן-צרויה 9,2397-14-80,דירה בבית קומות,4.0,שמינית,90.3,940000,,,1994.0,,9.0,9429848736,1,239714,False,,אשדוד,יואב בן צרויה,,2397-14-80,2397/14,10409.745293466223,31.7854485788,34.6462168882,2012
2012-10-28,2012-10-28,"שבי ציון 15, אשדוד",שבי ציון 15,2086-37-19,דירה בבית קומות,4.0,שניה,88.6,830000,,,1970.0,,4.0,9429998592,1,208637,False,,אשדוד,שבי ציון,,2086-37-19,2086/37,9367.945823927766,31.8080354925,34.6472446489,2012
2012-10-28,2012-10-28,"קיבוץ גלויות 21, אשדוד",קיבוץ גלויות 21,2066-337-3,דירה בבית קומות,3.0,ראשונה,76.0,750000,,,1960.0,,3.0,9430858500,1,2066337,False,,אשדוד,קבוץ גלויות,,2066-337-3,2066/337,9868.421052631578,31.8031115652,34.6514144936,2012
2012-10-28,2012-10-28,"תל חי 21, אשדוד",תל חי 21,2649-3-18,דירה בבית קומות,4.0,חמישית,117.3,1240000,,,1998.0,,8.0,9430968792,1,26493,False,71% ב 6 שנים,אשדוד,תל חי,11.83,2649-3-18,2649/3,10571.184995737423,31.7703062059,34.6260208177,2012
2012-10-28,2012-10-28,"חטיבת הנגב 23, אשדוד",חטיבת הנגב 23,2463-5-18,דירה בבית קומות,3.0,ראשונה,72.0,950000,,,1970.0,,4.0,9433417644,1,24635,False,197% ב 13.4 שנים,אשדוד,חטיבת הנגב,14.7,2463-5-18,2463/5,13194.444444444443,31.8013805838,34.665248669,2012
2012-10-26,2012-10-26,"מכישווילי 4, אשדוד",מכישווילי 4,2458-52-20,דירה בבית קומות,3.0,חמישית,62.0,600000,,,1970.0,,8.0,9430058148,1,245852,False,,אשדוד,מיכשוילי,,2458-52-20,2458/52,9677.41935483871,31.7913039528,34.6513922486,2012
2012-10-25,2012-10-25,"עקביא בן מהללאל 7, אשדוד",עקביא בן מהללאל 7,472-45-127,דירה בבית קומות,4.0,שניה,104.0,1100000,,,1994.0,,4.0,9429879312,1,47245,False,169% ב 9.5 שנים,אשדוד,עקביא בן מהללאל,17.79,472-45-127,472/45,10576.923076923076,31.7932231635,34.6627497208,2012
2012-10-25,2012-10-25,"הר כנען 8, אשדוד",הר כנען 8,2193-7-19,דירה בבית קומות,4.0,שניה,66.24,573000,,,1980.0,,4.0,9429510552,1,21937,False,,אשדוד,הר כנען,,2193-7-19,2193/7,8650.36231884058,31.7790608047,34.6301518334,2012
2012-10-25,2012-10-25,"מנחם בגין 126, אשדוד",מנחם בגין 126,2074-189-10,משרד,,ראשונה,1291.0,11500000,,,2019.0,,16.0,9432236268,1,2074189,False,,אשדוד,בגין מנחם,,2074-189-10,2074/189,8907.823392718823,31.783551433,34.6538359615,2012
2012-10-25,2012-10-25,"הבנאים 12, אשדוד",הבנאים 12,2062-39-5,תעשיה,,קרקע,62.2,1740000,,,1995.0,,1.0,9433164132,1,206239,True,-4% ב 12.5 שנים,אשדוד,הבנאים,-0.32,2062-39-5,2062/39,27974.27652733119,31.8155162705,34.6587909454,2012
2012-10-25,2012-10-25,"שלמה בן-יוסף 7, אשדוד",שלמה בן-יוסף 7,2456-13-40,דירה בבית קומות,3.0,רביעית,65.3,730000,,,1970.0,,4.0,9429729624,1,245613,False,21% ב 2.2 שנים,אשדוד,בן יוסף שלמה,9.55,2456-13-40,2456/13,11179.1730474732,31.7951192086,34.6577424695,2012
2012-10-25,2012-10-25,"אליעזר בן-הורקנוס 2, אשדוד",אליעזר בן-הורקנוס 2,472-152-13,דירה בבית קומות,3.0,רביעית,71.85,1070000,,,1990.0,,5.0,9430450932,1,472152,False,136% ב 8.2 שנים,אשדוד,אליעזר בן הורקנוס,16.59,472-152-13,472/152,14892.13639526792,31.7907471725,34.660828117,2012
2012-10-25,2012-10-25,"הבנאים 12, אשדוד",הבנאים 12,2062-39-20,תעשיה,,ראשונה,119.8,1300000,,,1995.0,,1.0,9433164804,1,206239,False,20% ב 8.7 שנים,אשדוד,הבנאים,2.3,2062-39-20,2062/39,10851.419031719532,31.8155162705,34.6587909454,2012
2012-10-25,2012-10-25,"שוהם 2, אשדוד",שוהם 2,2670-19-2,דירה בבית קומות,4.0,קומה ‎1‏,107.3,1250000,,,2005.0,,16.0,9430299228,1,267019,True,-27% ב 0.4 שנים,אשדוד,שהם,-67.5,2670-19-2,2670/19,11649.580615097855,31.7661653646,34.6315695045,2012
2012-10-24,2012-10-24,"כינור 4, אשדוד",כינור 4,3174-68-21,דירה בבית קומות,5.0,שלוש עשרה,147.0,1900000,,,2013.0,,7.0,9429955500,1,317468,False,,אשדוד,כינור,,3174-68-21,3174/68,12925.170068027212,31.7907938054,34.635746908,2012
2012-10-24,2012-10-24,"שבט 12, אשדוד",שבט 12,2440-11-41,דירת גן,5.0,קרקע ראשונה,111.0,1770000,,,1998.0,,1.0,9430055964,1,244011,False,,אשדוד,שבט,,2440-11-41,2440/11,15945.945945945949,31.781618505,34.6398692903,2012
2012-10-24,2012-10-24,"הפרחים 8, אשדוד",הפרחים 8,2465-30-7,דירה בבית קומות,4.0,שלישית,83.0,977000,,,1980.0,,4.0,9493568700,1,246530,False,,אשדוד,הפרחים,,2465-30-7,2465/30,11771.084337349395,31.7887984447,34.6527018763,2012
2012-10-24,2012-10-24,"רב ינאי 3, אשדוד",רב ינאי 3,2023-85-5,דירה בבית קומות,4.0,שלישית,84.0,1000000,,,1999.0,,4.0,9430071924,1,202385,False,,אשדוד,רב ינאי,,2023-85-5,2023/85,11904.761904761905,31.7880579566,34.6652618251,2012
2012-10-24,2012-10-24,"תש""ח 2, אשדוד","תש""ח 2",2448-7-784,דירה בבית קומות,3.0,שמינית,88.0,1150000,,,2019.0,,16.0,9429578592,1,24487,False,,אשדוד,"תש""ח",,2448-7-784,2448/7,13068.181818181818,31.7884022023,34.646324433,2012
2012-10-24,2012-10-24,"הרב שאולי 33, אשדוד",הרב שאולי 33,2190-18-25,דירה בבית קומות,4.0,שביעית,82.06,935000,,,1977.0,,8.0,9430857828,1,219018,False,,אשדוד,הרב שאולי,,2190-18-25,2190/18,11394.101876675602,31.7953028923,34.642045572,2012
2012-10-24,2012-10-24,"יואב בן-צרויה 7, אשדוד",יואב בן-צרויה 7,2397-14-39,דירה בבית קומות,3.0,עשירית,60.5,950000,,,1994.0,,11.0,9429965160,1,239714,False,68% ב 5 שנים,אשדוד,יואב בן צרויה,13.6,2397-14-39,2397/14,15702.479338842975,31.7854485788,34.6462168882,2012
2012-10-24,2012-10-24,"נחל לכיש 11, אשדוד",נחל לכיש 11,2197-106-30,דירה בבית קומות,4.0,שמינית,68.17,1060000,,,1980.0,,9.0,9430417836,1,2197106,False,,אשדוד,נחל לכיש,,2197-106-30,2197/106,15549.361889394162,31.7888269776,34.6318815136,2012
2012-10-23,2012-10-23,"הרב קוק 29, אשדוד",הרב קוק 29,2066-213-44,דירה בבית קומות,3.0,שמינית,54.7,660000,,,1970.0,,8.0,9430918224,1,2066213,True,-1% ב 1.4 שנים,אשדוד,הרב קוק,-0.71,2066-213-44,2066/213,12065.81352833638,31.8089105843,34.6549582034,2012
2012-10-23,2012-10-23,"החלוצים 9, אשדוד",החלוצים 9,2447-5-155,דירה בבית קומות,4.0,שמינית,101.8,1270000,,,2000.0,,14.0,9430965936,1,24475,False,,אשדוד,החלוצים,,2447-5-155,2447/5,12475.442043222003,31.7931119327,34.6421069642,2012
2012-10-23,2012-10-23,"הציונות 79, אשדוד",הציונות 79,2449-8-256,דירה בבית קומות,5.0,שלישית,166.0,1775000,,,2000.0,,9.0,9430763664,1,24498,False,,אשדוד,הציונות,,2449-8-256,2449/8,10692.77108433735,31.7856752114,34.6445305045,2012
2012-10-23,2012-10-23,"תש""ח 2, אשדוד","תש""ח 2",2448-7-785,דירה בבית קומות,5.0,ראשונה,100.0,2000000,,,2019.0,,16.0,9430962408,1,24487,False,,אשדוד,"תש""ח",,2448-7-785,2448/7,20000.0,31.7884022023,34.646324433,2012
2012-10-23,2012-10-23,"חזקיה המלך 24, אשדוד",חזקיה המלך 24,2396-15-4,דירה בבית קומות,3.0,ראשונה,65.0,975000,,,1992.0,,3.0,9431080344,1,239615,False,8% ב 1.4 שנים,אשדוד,המלך חזקיה,5.71,2396-15-4,2396/15,15000.0,31.7759807284,34.648270875,2012
2012-10-23,2012-10-23,"יוספטל 10, אשדוד",יוספטל 10,2066-117-62,דירה בבית קומות,3.5,רביעית,80.5,585000,,,1970.0,,4.0,9429390684,1,2066117,False,157% ב 9.4 שנים,אשדוד,יוספטל,16.7,2066-117-62,2066/117,7267.080745341615,31.8083049645,34.6539996002,2012
2012-10-23,2012-10-23,"הרימון 6, אשדוד",הרימון 6,2815-17-94,דירה בבית קומות,3.0,שלישית,77.0,687000,,,2011.0,,17.0,9431110752,1,281517,False,,אשדוד,הרימון,,2815-17-94,2815/17,8922.077922077922,31.771292334,34.6405416081,2012
2012-10-23,2012-10-23,"חזקיה המלך 35, אשדוד",חזקיה המלך 35,2396-31-8,דירה בבית קומות,3.0,שניה,63.0,950000,,,1992.0,,8.0,9429424536,1,239631,False,95% ב 5.8 שנים,אשדוד,המלך חזקיה,16.38,2396-31-8,2396/31,15079.36507936508,31.7763066502,34.6492389884,2012
2012-10-22,2012-10-22,"עקביא בן מהללאל 9, אשדוד",עקביא בן מהללאל 9,472-45-54,דירה בבית קומות,4.0,רביעית וחמישית,130.0,1300000,,,1996.0,,4.0,9429770364,1,47245,False,,אשדוד,עקביא בן מהללאל,,472-45-54,472/45,10000.0,31.7932231635,34.6627497208,2012
2012-10-22,2012-10-22,"הסייפן 14, אשדוד",הסייפן 14,2074-160-157,דירה בבית קומות,4.0,שניה,67.15,945000,,,1998.0,,8.0,9429880656,1,2074160,False,105% ב 9.9 שנים,אשדוד,הסייפן,10.61,2074-160-157,2074/160,14072.970960536111,31.7846745195,34.6515142713,2012
2012-10-22,2012-10-22,"ירמוך 6, אשדוד",ירמוך 6,2192-106-56,דירה בבית קומות,4.0,שביעית,83.0,1325000,,,1990.0,,7.0,9429493248,1,2192106,False,,אשדוד,ירמוך,,2192-106-56,2192/106,15963.855421686749,31.7809159741,34.6291862998,2012
2012-10-22,2012-10-22,"מכישווילי 12, אשדוד",מכישווילי 12,2458-57-18,דירה בבית קומות,4.0,חמישית,78.0,519000,,,1970.0,,8.0,9590615160,1,245857,False,,אשדוד,מיכשוילי,,2458-57-18,2458/57,6653.846153846154,31.7908214179,34.6529200082,2012
2012-10-22,2012-10-22,"מכישווילי 34, אשדוד",מכישווילי 34,2459-20-25,דירה בבית קומות,3.5,שלישית,57.9,700000,,,1970.0,,4.0,9430154496,1,245920,False,,אשדוד,מיכשוילי,,2459-20-25,2459/20,12089.810017271158,31.7893921209,34.6578842761,2012
2012-10-22,2012-10-22,"הציונות 47, אשדוד",הציונות 47,2449-8-54,דירה,5.0,שלישית,166.0,1745000,1.0,"שומרז סיטי""",2000.0,,9.0,11181205816,1,24498,False,,אשדוד,הציונות,,2449-8-54,2449/8,10512.048192771084,31.7856752114,34.6445305045,2012
2012-10-21,2012-10-21,"הרימון 2, אשדוד",הרימון 2,2815-17-13,דירה בבית קומות,4.0,שלישית,104.6,1275000,,,2011.0,,17.0,9431116212,1,281517,False,,אשדוד,הרימון,,2815-17-13,2815/17,12189.292543021033,31.771292334,34.6405416081,2012
2012-10-21,2012-10-21,"הרימון 4, אשדוד",הרימון 4,2815-17-70,דירה בבית קומות,6.0,"קרקע, ראשונה",149.4,2420000,,,2011.0,,17.0,9431238936,1,281517,False,,אשדוד,הרימון,,2815-17-70,2815/17,16198.125836680052,31.771292334,34.6405416081,2012
2012-10-21,2012-10-21,"שבי ציון 31, אשדוד",שבי ציון 31,2086-48-82,דירה בבית קומות,5.0,חמישית,135.0,800000,1.0,שבי ציון,1960.0,,3.0,9431650620,1,208648,False,,אשדוד,שבי ציון,,2086-48-82,2086/48,5925.925925925926,31.8078514135,34.6492231643,2012
2012-10-21,2012-10-21,"אחד העם 20, אשדוד",אחד העם 20,2068-79-45,דירה בבית קומות,3.0,שלישית,51.75,240000,,,1970.0,,4.0,9429565320,1,206879,False,,אשדוד,אחד העם,,2068-79-45,2068/79,4637.68115942029,31.8008052434,34.6468813889,2012
2012-10-21,2012-10-21,"מצדה 94, אשדוד",מצדה 94,2193-5-20,דירה בבית קומות,5.5,שלישית,139.0,1500000,,,1995.0,,4.0,9429110796,1,21935,False,,אשדוד,מצדה,,2193-5-20,2193/5,10791.36690647482,31.7786780983,34.6297312056,2012
2012-10-20,2012-10-20,"אגס 3, אשדוד",אגס 3,2815-12-29,דירה בבית קומות,4.0,שמינית,105.85,1430000,,,2010.0,,12.0,9430875132,1,281512,False,22% ב 2.1 שנים,אשדוד,אגס,10.48,2815-12-29,2815/12,13509.68351440718,31.7711387057,34.6377490937,2012
2012-10-19,2012-10-19,"עקביא בן מהללאל 9, אשדוד",עקביא בן מהללאל 9,472-45-50,דירה בבית קומות,4.0,שניה,92.0,1000000,,,1996.0,,4.0,9429572964,1,47245,False,,אשדוד,עקביא בן מהללאל,,472-45-50,472/45,10869.565217391304,31.7932231635,34.6627497208,2012
2012-10-18,2012-10-18,"הפרחים 26, אשדוד",הפרחים 26,2073-86-39,דירה בבית קומות,5.0,ראשונה,103.1,1200000,,,1997.0,,6.0,9430146768,1,207386,False,,אשדוד,הפרחים,,2073-86-39,2073/86,11639.185257032008,31.7856673382,34.6507278283,2012
2012-10-18,2012-10-18,"אגס 7, אשדוד",אגס 7,2815-11-28,דירה בבית קומות,5.0,שביעית,132.8,1630000,,,2006.0,,18.0,9432878532,1,281511,False,,אשדוד,אגס,,2815-11-28,2815/11,12274.096385542169,31.7714559324,34.6370408431,2012
2012-10-18,2012-10-18,"הרימון 8, אשדוד",הרימון 8,2815-17-154,דירה בבית קומות,6.0,"קרקע, ראשונה",153.1,2245000,,,2011.0,,17.0,9431123184,1,281517,False,,אשדוד,הרימון,,2815-17-154,2815/17,14663.618549967345,31.771292334,34.6405416081,2012
2012-10-18,2012-10-18,"אלבז 18, אשדוד",אלבז 18,2457-3-26,דירה בבית קומות,2.0,ראשונה,44.0,510000,,,1960.0,,4.0,9429220920,1,24573,False,,אשדוד,אלבז נתן,,2457-3-26,2457/3,11590.90909090909,31.7954856276,34.6533261994,2012
2012-10-18,2012-10-18,"ארלוזורוב 9, אשדוד",ארלוזורוב 9,2071-138-23,דירה בבית קומות,4.0,שישית,101.9,1300000,,,2000.0,,9.0,9429244524,1,2071138,False,,אשדוד,ארלוזורוב,,2071-138-23,2071/138,12757.605495583904,31.7951999247,34.6486809702,2012
2012-10-18,2012-10-18,"דוד וולפסון 12, אשדוד",דוד וולפסון 12,2648-57-74,דירה בבית קומות,3.0,רביעית,72.15,1035000,,,2000.0,,11.0,9429986832,1,264857,False,,אשדוד,וולפסון דוד,,2648-57-74,2648/57,14345.114345114343,31.7676808122,34.6327004742,2012
2012-10-17,2012-10-17,"קבוץ גלויות 39, אשדוד",קבוץ גלויות 39,2066-346-11,דירה בבית קומות,3.0,שלישית,72.0,562000,,,1960.0,,3.0,9429348516,1,2066346,False,,אשדוד,קבוץ גלויות,,2066-346-11,2066/346,7805.555555555556,31.8015539059,34.6509784215,2012
2012-10-17,2012-10-17,"שבט נפתלי 1, אשדוד",שבט נפתלי 1,2437-59-22,דירה בבית קומות,4.0,שלישית,101.2,1325000,,,2001.0,,8.0,9428882064,1,243759,False,77% ב 7.4 שנים,אשדוד,שבט נפתלי,10.41,2437-59-22,2437/59,13092.88537549407,31.7758280164,34.6341236424,2012
2012-10-17,2012-10-17,"שבט זבולון 7, אשדוד",שבט זבולון 7,2437-7-49,דירה בבית קומות,4.0,חמישית,101.0,1260000,,,2001.0,,7.0,9429174468,1,24377,False,130% ב 11 שנים,אשדוד,שבט זבולון,11.82,2437-7-49,2437/7,12475.247524752474,31.7743380012,34.6367540431,2012
2012-10-17,2012-10-17,"הציונות 79, אשדוד",הציונות 79,2449-8-257,דירה בבית קומות,5.0,רביעית,166.0,1755000,,,2000.0,,9.0,9430671516,1,24498,False,,אשדוד,הציונות,,2449-8-257,2449/8,10572.289156626506,31.7856752114,34.6445305045,2012
2012-10-17,2012-10-17,"הציונות 67, אשדוד",הציונות 67,2449-8-53,דירה בבית קומות,3.0,שלישית,93.0,1080000,,,2000.0,,9.0,9430122492,1,24498,False,,אשדוד,הציונות,,2449-8-53,2449/8,11612.90322580645,31.7856752114,34.6445305045,2012
2012-10-17,2012-10-17,"דב גור 9, אשדוד",דב גור 9,2457-38-60,דירה בבית קומות,3.0,שניה,80.7,680000,,,1970.0,,4.0,9429409500,1,245738,False,,אשדוד,גור דב,,2457-38-60,2457/38,8426.27013630731,31.7932580702,34.6533836034,2012
2012-10-17,2012-10-17,"מצדה 109, אשדוד",מצדה 109,2193-30-76,דירה בבית קומות,4.0,עשירית,105.24,1350000,,,1992.0,,13.0,9498390636,1,219330,False,171% ב 8.9 שנים,אשדוד,מצדה,19.21,2193-30-76,2193/30,12827.822120866593,31.7773570381,34.6311065319,2012
2012-10-16,2012-10-16,"סיגל 7, אשדוד",סיגל 7,2071-55-39,דירה בבית קומות,4.0,עשירית,100.0,1445000,,,1970.0,2012.0,4.0,9431932104,1,207155,False,,אשדוד,סיגל,,2071-55-39,2071/55,14450.0,31.7933229009,34.6469642931,2012
2012-10-16,2012-10-16,"אבן גבירול 24, אשדוד",אבן גבירול 24,2066-34-11,דירה בבית קומות,2.0,ראשונה,36.5,460000,,,1957.0,,1.0,9429405384,1,206634,True,-17% ב 4.4 שנים,אשדוד,אבן גבירול,-3.86,2066-34-11,2066/34,12602.739726027396,31.8054315001,34.6550021338,2012
2012-10-16,2012-10-16,"הציונות 123, אשדוד",הציונות 123,2449-1-244,דירה בבית קומות,5.5,שניה,118.77,1230000,,,1998.0,,16.0,9430846152,1,24491,False,,אשדוד,הציונות,,2449-1-244,2449/1,10356.150543066433,31.7868024966,34.6394090803,2012
2012-10-16,2012-10-16,"הציונות 47, אשדוד",הציונות 47,2449-8-51,דירה בבית קומות,6.0,ראשונה,150.0,2842000,,,2000.0,,9.0,9431006172,1,24498,False,,אשדוד,הציונות,,2449-8-51,2449/8,18946.666666666668,31.7856752114,34.6445305045,2012
2012-10-16,2012-10-16,"הציונות 47, אשדוד",הציונות 47,2449-8-52,דירה,5.0,רביעית,166.0,1725000,1.0,"שומרז סיטי""",2000.0,,9.0,11181205815,1,24498,False,,אשדוד,הציונות,,2449-8-52,2449/8,10391.56626506024,31.7856752114,34.6445305045,2012
2012-10-16,2012-10-16,"האורגים 35, אשדוד",האורגים 35,2062-67-149,משרד,,שניה,80.0,640000,,,2011.0,,10.0,9429905604,1,206267,False,,אשדוד,האורגים,,2062-67-149,2062/67,8000.0,31.8157325008,34.6567762057,2012
2012-10-15,2012-10-15,"ביאליק 44, אשדוד",ביאליק 44,2071-219-13,דירה בבית קומות,4.0,רביעית,104.15,1160000,,,1994.0,,9.0,9431139816,1,2071219,False,114% ב 11.1 שנים,אשדוד,ביאליק,10.27,2071-219-13,2071/219,11137.78204512722,31.7940805334,34.6438858634,2012
2012-10-15,2012-10-15,"הציונות 47, אשדוד",הציונות 47,2449-8-50,דירה,6.0,תשיעית,230.0,2800000,1.0,"שומרז סיטי""",2000.0,,9.0,11181205814,1,24498,False,,אשדוד,הציונות,,2449-8-50,2449/8,12173.91304347826,31.7856752114,34.6445305045,2012
2012-10-15,2012-10-15,"העצמאות 24, אשדוד",העצמאות 24,2448-10-344,דירה בבית קומות,4.0,ראשונה,115.9,1350000,,,2004.0,,10.0,9428873076,1,244810,False,,אשדוד,העצמאות,,2448-10-344,2448/10,11647.972389991372,31.7910669676,34.6446673382,2012
2012-10-15,2012-10-15,"ביאליק 1, אשדוד",ביאליק 1,2071-123-31,דירה בבית קומות,3.0,שמינית,62.2,850000,,,1991.0,,9.0,9429327012,1,2071123,False,118% ב 9.6 שנים,אשדוד,ביאליק,12.29,2071-123-31,2071/123,13665.594855305466,31.7965684121,34.6471971345,2012
2012-10-15,2012-10-15,"ספיר 3, אשדוד",ספיר 3,2670-20-13,דירת גן,5.0,קרקע,189.0,2200000,,,2002.0,,9.0,9429871668,1,267020,False,,אשדוד,ספיר,,2670-20-13,2670/20,11640.21164021164,31.7672189612,34.6298577902,2012
2012-10-15,2012-10-15,"העלייה 4, אשדוד",העלייה 4,2399-26-12,דירה בבית קומות,3.0,שניה,70.95,955000,,,1992.0,,2.0,9431306136,1,239926,False,91% ב 6.4 שנים,אשדוד,העליה,14.22,2399-26-12,2399/26,13460.183227625088,31.7804037279,34.6487919979,2012
2012-10-15,2012-10-15,"אלול 1, אשדוד",אלול 1,2439-23-19,דירה בבית קומות,3.0,חמישית,88.1,1065000,,,2000.0,,7.0,9428924316,1,243923,False,46% ב 4.8 שנים,אשדוד,אלול,9.58,2439-23-19,2439/23,12088.535754824064,31.7821469718,34.6367633763,2012
2012-10-14,2012-10-14,"ארלוזורוב 23, אשדוד",ארלוזורוב 23,2071-253-64,דירה בבית קומות,3.0,תשיעית,80.0,1020000,,,1999.0,,12.0,9428922804,1,2071253,False,,אשדוד,ארלוזורוב,,2071-253-64,2071/253,12750.0,31.7937799832,34.6499259468,2012
2012-10-14,2012-10-14,"הרב קוק 31, אשדוד",הרב קוק 31,2066-214-5,דירה בבית קומות,3.0,שניה,61.1,635000,,,1970.0,,5.0,9429443352,1,2066214,False,,אשדוד,הרב קוק,,2066-214-5,2066/214,10392.79869067103,31.8087039703,34.6554339132,2012
2012-10-14,2012-10-14,"הרי""ף 16, אשדוד","הרי""ף 16",2385-139-1,קוטג' דו משפחתי,6.0,,325.0,1657000,,,1980.0,,,9431861208,1,2385139,False,,אשדוד,"הרי""ף",,2385-139-1,2385/139,5098.461538461538,31.7849898685,34.6659345803,2012
2012-10-14,2012-10-14,"שבט לוי 17, אשדוד",שבט לוי 17,2438-22-27,דירה בבית קומות,5.0,שישית,139.77,1810000,,,2007.0,,,9428592936,1,243822,False,,אשדוד,שבט לוי,,2438-22-27,2438/22,12949.84617586034,31.7780015592,34.6348120013,2012
2012-10-14,2012-10-14,"אבן עזרא 8, אשדוד",אבן עזרא 8,2068-96-17,דירה בבית קומות,3.0,ראשונה,64.24,600000,,,1970.0,,4.0,9429681072,1,206896,False,,אשדוד,אבן עזרא,,2068-96-17,2068/96,9339.975093399751,31.7986691344,34.6496053666,2012
2012-10-14,2012-10-14,"החובלים 4, אשדוד",החובלים 4,2189-22-16,דירה בבית קומות,4.0,שישית,100.0,1100000,1.0,החובלים,2012.0,,3.0,9429733824,1,218922,False,,אשדוד,החובלים,,2189-22-16,2189/22,11000.0,31.8018723447,34.6419459344,2012
2012-10-12,2012-12-10,"אח""י אילת 21, אשדוד","אח""י אילת 21",2080-131-15,דירה בבית קומות,3.0,רביעית,54.3,550000,,,1970.0,,4.0,9494535372,1,2080131,False,157% ב 6 שנים,אשדוד,"אח""י אילת",26.17,2080-131-15,2080/131,10128.913443830572,31.8050120889,34.6480821481,2012
2012-10-12,2012-12-10,"יהויכין המלך 11, אשדוד",יהויכין המלך 11,2393-11-64,דירה בבית קומות,4.0,שמינית,83.0,1130000,,,1997.0,,8.0,9434920824,1,239311,False,,אשדוד,המלך יהויכין,,2393-11-64,2393/11,13614.4578313253,31.772771962,34.6435679002,2012
2012-10-12,2012-12-10,"מצדה 84, אשדוד",מצדה 84,2193-9-3,דירה בבית קומות,3.0,שניה,67.0,940000,,,1980.0,,4.0,9435604080,1,21939,False,112% ב 9.3 שנים,אשדוד,מצדה,12.04,2193-9-3,2193/9,14029.850746268658,31.7790553457,34.6290406023,2012
2012-10-11,2012-11-10,"הרב משאש יוסף 22, אשדוד",הרב משאש יוסף 22,2384-91-7,דירה בבית קומות,4.0,שלישית,75.1,910000,,,1980.0,,3.0,9492379596,1,238491,False,9% ב 2.1 שנים,אשדוד,הרב משאש יוסף,4.29,2384-91-7,2384/91,12117.177097203728,31.7860344024,34.6592272119,2012
2012-10-10,2012-10-10,"שבט לוי 17, אשדוד",שבט לוי 17,2438-22-29,דירה בבית קומות,5.0,שביעית,138.4,1680000,,,2007.0,,,9431701188,1,243822,False,31% ב 4.5 שנים,אשדוד,שבט לוי,6.89,2438-22-29,2438/22,12138.72832369942,31.7780015592,34.6348120013,2012
2012-10-10,2012-10-10,"ענבר 19, אשדוד",ענבר 19,3172-128-1,דירה בבית קומות,5.0,,167.0,2580000,,,2012.0,,2.0,9429579936,1,3172128,False,,אשדוד,עינבר,,3172-128-1,3172/128,15449.101796407183,31.767418338,34.6263718237,2012
2012-10-10,2012-10-10,"הרימון 2, אשדוד",הרימון 2,2815-17-58,דירה בבית קומות,6.0,שתים עשרה,128.9,1795000,,,2011.0,,17.0,9431121000,1,281517,False,,אשדוד,הרימון,,2815-17-58,2815/17,13925.523661753296,31.771292334,34.6405416081,2012
2012-10-10,2012-10-10,"אקסודוס 32, אשדוד",אקסודוס 32,2791-11-35,חד משפחתי (וילה),5.0,,340.0,4250000,1.0,Sea Side,2009.0,,18.0,11181208449,1,279111,False,,אשדוד,אקסודוס,,2791-11-35,2791/11,12500.0,31.7969005959,34.6329188957,2012
2012-10-10,2012-10-10,"מצדה 4, אשדוד",מצדה 4,2197-7-2,קוטג' דו משפחתי,6.0,,230.0,11000000,,,1989.0,,,9428783616,1,21977,False,,אשדוד,מצדה,,2197-7-2,2197/7,47826.086956521736,31.7886611409,34.6306761493,2012
2012-10-10,2012-10-10,"ביאליק 9, אשדוד",ביאליק 9,2071-120-69,דירה בבית קומות,4.0,שלישית,89.2,1120000,,,1996.0,,8.0,9429548016,1,2071120,False,,אשדוד,ביאליק,,2071-120-69,2071/120,12556.053811659192,31.7968042041,34.6455444119,2012
2012-10-10,2012-10-10,"הרב קוק 29, אשדוד",הרב קוק 29,2066-213-43,דירה בבית קומות,3.0,שמינית,54.7,580000,,,1970.0,,8.0,9429263844,1,2066213,False,13% ב 4.1 שנים,אשדוד,הרב קוק,3.17,2066-213-43,2066/213,10603.290676416818,31.8089105843,34.6549582034,2012
2012-10-10,2012-10-10,"האדמו""ר מבלעז 17, אשדוד","האדמו""ר מבלעז 17",2464-24-30,דירה בבית קומות,3.5,רביעית,95.9,1100000,,,1990.0,,5.0,9428661648,1,246424,False,,אשדוד,"האדמו""ר מבעלז",,2464-24-30,2464/24,11470.281543274245,31.8058400309,34.6625587911,2012
2012-10-09,2012-09-10,"הציונות 55, אשדוד",הציונות 55,2449-8-259,דירה בבית קומות,3.0,חמישית,78.0,1020000,,,2000.0,,9.0,9429367080,1,24498,False,,אשדוד,הציונות,,2449-8-259,2449/8,13076.923076923076,31.7856752114,34.6445305045,2012
2012-10-09,2012-09-10,"ספיר 3, אשדוד",ספיר 3,2670-20-23,דירה בבית קומות,4.0,שלישית,109.6,1470000,,,2002.0,,9.0,9427671960,1,267020,False,17% ב 1.7 שנים,אשדוד,ספיר,10.0,2670-20-23,2670/20,13412.408759124088,31.7672189612,34.6298577902,2012
2012-10-09,2012-09-10,"חסן ובן גרה 6, אשדוד",חסן ובן גרה 6,2457-14-10,דירה בבית קומות,3.0,ראשונה,40.8,640000,,,1970.0,,4.0,9428708100,1,245714,False,,אשדוד,חסן ובן גרה,,2457-14-10,2457/14,15686.274509803923,31.794457909,34.6521469439,2012
2012-10-09,2012-09-10,"אקסודוס 32, אשדוד",אקסודוס 32,2791-11-162,דירה בבית קומות,5.0,תשיעית,141.0,2338000,,,2009.0,,18.0,9427658856,1,279111,False,,אשדוד,אקסודוס,,2791-11-162,2791/11,16581.560283687944,31.7969005959,34.6329188957,2012
2012-10-09,2012-09-10,"גאפונוב 5, אשדוד",גאפונוב 5,2067-33-4,דירה בבית קומות,3.0,שניה,64.6,630000,,,1970.0,,4.0,9428861904,1,206733,False,,אשדוד,גאפונוב,,2067-33-4,2067/33,9752.32198142415,31.7985780629,34.6452273675,2012
2012-10-09,2012-09-10,"אגס 13, אשדוד",אגס 13,2815-9-31,דירה בבית קומות,4.0,שמינית,111.65,1435000,,,2008.0,,18.0,9427079508,1,28159,False,,אשדוד,אגס,,2815-9-31,2815/9,12852.664576802506,31.7707797502,34.6365914317,2012
2012-10-09,2012-09-10,"שבט שמעון 3, אשדוד",שבט שמעון 3,2438-8-24,דירה בבית קומות,4.0,שישית,98.2,1160000,,,2003.0,,,9428373360,1,24388,False,107% ב 10.5 שנים,אשדוד,שבט שמעון,10.19,2438-8-24,2438/8,11812.627291242365,31.7792709973,34.6338665935,2012
2012-10-07,2012-07-10,"אוריה החיתי 21, אשדוד",אוריה החיתי 21,2395-18-1,דירה בבית קומות,4.0,קרקע,81.1,1125000,,,1992.0,,5.0,9422222292,1,239518,False,66% ב 4.5 שנים,אשדוד,אוריה החיתי,14.67,2395-18-1,2395/18,13871.763255240445,31.7803171275,34.6428199636,2012
2012-10-07,2012-07-10,"רוגוזין 41, אשדוד",רוגוזין 41,2189-18-8,דירה בבית קומות,5.0,שניה,110.3,1100000,,,1980.0,,10.0,9422231280,1,218918,False,94% ב 13.7 שנים,אשדוד,רוגוזין,6.86,2189-18-8,2189/18,9972.801450589302,31.8014726503,34.6413922597,2012
2012-10-07,2012-07-10,"רוגוזין 26, אשדוד",רוגוזין 26,2088-51-4,דירה בבית קומות,3.0,שלישית,56.0,750000,,,1970.0,,4.0,9422796684,1,208851,False,2% ב 2.1 שנים,אשדוד,רוגוזין,0.95,2088-51-4,2088/51,13392.857142857143,31.8063785882,34.6434603185,2012
2012-10-07,2012-07-10,"יאנוש קורצ'אק 3, אשדוד",יאנוש קורצ'אק 3,2679-6-26,דירה בבית קומות,5.0,קרקע,131.89,2015000,,,1995.0,,1.0,9422114856,1,26796,False,121% ב 9 שנים,אשדוד,קורצ'ק יאנוש,13.44,2679-6-26,2679/6,15277.883084388508,31.7725798832,34.624792309,2012
2012-10-07,2012-07-10,"הציונות 50, אשדוד",הציונות 50,2449-2-41,דירה בבית קומות,5.0,שמינית,122.5,1750000,,,2003.0,,12.0,9422373324,1,24492,False,140% ב 8.5 שנים,אשדוד,הציונות,16.47,2449-2-41,2449/2,14285.714285714286,31.7863327354,34.6401579294,2012
2012-10-07,2012-07-10,"הר כנען 9, אשדוד",הר כנען 9,2193-20-62,דירה בבית קומות,4.0,שלישית,79.0,1030000,,,1990.0,,7.0,9422102508,1,219320,False,,אשדוד,הר כנען,,2193-20-62,2193/20,13037.974683544304,31.7782159627,34.630998947,2012
2012-10-07,2012-07-10,"מכישווילי 20, אשדוד",מכישווילי 20,2459-16-13,דירה בבית קומות,4.0,רביעית,76.5,768000,,,1970.0,,7.0,9423909768,1,245916,False,12% ב 1.5 שנים,אשדוד,מיכשוילי,8.0,2459-16-13,2459/16,10039.21568627451,31.7905003622,34.6547676233,2012
2012-10-07,2012-07-10,"שבט לוי 14, אשדוד",שבט לוי 14,2437-24-4,חנות,,קומה ‎0‏,38.8,600000,,,2003.0,,20.0,9424582692,1,243724,False,39% ב 0.2 שנים,אשדוד,שבט לוי,195.0,2437-24-4,2437/24,15463.917525773197,31.7778515721,34.6366537366,2012
2012-10-06,2012-06-10,"הרימון 6, אשדוד",הרימון 6,2815-17-116,דירה בבית קומות,3.0,שביעית,84.8,763000,,,2011.0,,17.0,9421571628,1,281517,False,,אשדוד,הרימון,,2815-17-116,2815/17,8997.641509433963,31.771292334,34.6405416081,2012
2012-10-06,2012-06-10,"חנה סנש 14, אשדוד",חנה סנש 14,2462-35-40,דירה,4.0,שישית,96.0,918000,1.0,גני יואל,2012.0,,6.0,11181206013,1,246235,False,,אשדוד,סנש חנה,,2462-35-40,2462/35,9562.5,31.7992832109,34.6609341572,2012
2012-10-06,2012-06-10,"העצמאות 2, אשדוד",העצמאות 2,2447-7-33,דירה בבית קומות,4.0,חמישית,105.75,1250000,,,1996.0,,8.0,9420283992,1,24477,False,96% ב 7.8 שנים,אשדוד,העצמאות,12.31,2447-7-33,2447/7,11820.33096926714,31.7918062612,34.64299363,2012
2012-10-06,2012-06-10,"חיים חורי 10, אשדוד",חיים חורי 10,2455-49-2,קוטג' דו משפחתי,4.0,ראשונה + שניה,102.6,880000,,,1969.0,,2.0,9420508524,1,245549,False,,אשדוד,חורי חיים,,2455-49-2,2455/49,8576.998050682261,31.7958073738,34.6558409966,2012
2012-10-05,2012-05-10,"נחל שניר 19, אשדוד",נחל שניר 19,2193-26-28,דירה בבית קומות,4.0,שישית,84.1,1310000,,,1995.0,,9.0,9418484292,1,219326,False,124% ב 10.5 שנים,אשדוד,נחל שניר,11.81,2193-26-28,2193/26,15576.694411414985,31.780252853,34.6333332386,2012
2012-10-05,2012-05-10,"הזית 7, אשדוד",הזית 7,2088-22-1,קוטג' דו משפחתי,3.0,ראשונה,96.4,1900000,,,1982.0,,1.0,9420015108,1,208822,False,,אשדוד,הזית,,2088-22-1,2088/22,19709.54356846473,31.8078566987,34.6408466004,2012
2012-10-05,2012-05-10,"יהודה המכבי 15, אשדוד",יהודה המכבי 15,2455-22-2,דירה בבית קומות,4.0,ראשונה,67.1,909000,,,1970.0,,4.0,9417755088,1,245522,False,,אשדוד,יהודה המכבי,,2455-22-2,2455/22,13546.94485842027,31.7966522543,34.6575487811,2012
2012-10-05,2012-05-10,"החובלים 7, אשדוד",החובלים 7,2189-17-49,דירה בבית קומות,3.0,רביעית,68.6,820000,,,1990.0,,9.0,9418304112,1,218917,False,,אשדוד,החובלים,,2189-17-49,2189/17,11953.3527696793,31.8010588898,34.6423433405,2012
2012-10-05,2012-05-10,"החלוצים 7, אשדוד",החלוצים 7,2447-5-205,דירה בבית קומות,5.0,שביעית,111.3,1320000,,,2001.0,,14.0,9417671928,1,24475,False,131% ב 11 שנים,אשדוד,החלוצים,11.91,2447-5-205,2447/5,11859.838274932616,31.7931119327,34.6421069642,2012
2012-10-05,2012-05-10,"ראש פינה 8, אשדוד",ראש פינה 8,2386-124-25,דירה בבית קומות,4.0,חמישית,90.8,1100000,,,1995.0,,9.0,9418484964,1,2386124,False,,אשדוד,ראש פינה,,2386-124-25,2386/124,12114.537444933922,31.7843672634,34.6592854646,2012
2012-10-04,2012-04-10,"הרימון 8, אשדוד",הרימון 8,2815-17-158,דירה בבית קומות,3.0,ראשונה,71.2,675000,,,2011.0,,17.0,9417061500,1,281517,False,,אשדוד,הרימון,,2815-17-158,2815/17,9480.337078651684,31.771292334,34.6405416081,2012
2012-10-04,2012-04-10,"תש""ח 11, אשדוד","תש""ח 11",2448-9-1,חנות,,קרקע,245.1,7000000,,,2000.0,,14.0,9416965236,1,24489,False,,אשדוד,"תש""ח",,2448-9-1,2448/9,28559.771521827824,31.7877164622,34.6454638673,2012
2012-10-01,2012-01-10,"גבעת עדה 2, אשדוד",גבעת עדה 2,2386-132-8,דירה בבית קומות,4.0,שניה,80.0,880000,,,1993.0,,3.0,9409730316,1,2386132,False,,אשדוד,גבעת עדה,,2386-132-8,2386/132,11000.0,31.7832085947,34.657879642,2012
2012-10-01,2012-01-10,"אלכסנדר פן 8, אשדוד",אלכסנדר פן 8,2071-166-7,דירה בבית קומות,6.0,ראשונה+שניה+שלישית,135.0,1400000,,,2000.0,,1.0,9409081668,1,2071166,False,40% ב 3.9 שנים,אשדוד,פן אלכסנדר,10.26,2071-166-7,2071/166,10370.37037037037,31.7925133735,34.6485893093,2012
2012-10-01,2012-01-10,"אבן גבירול 15, אשדוד",אבן גבירול 15,2066-281-8,דירה בבית קומות,6.0,שניה,109.0,1200000,,,1960.0,,3.0,9409137108,1,2066281,False,25% ב 1.2 שנים,אשדוד,אבן גבירול,20.83,2066-281-8,2066/281,11009.174311926605,31.8062807056,34.6557534158,2012
2012-10-01,2012-01-10,"ארלוזורוב 1, אשדוד",ארלוזורוב 1,2071-144-26,דירה בבית קומות,5.0,שביעית,127.6,1440000,,,1997.0,,9.0,9409216068,1,2071144,False,23% ב 1.8 שנים,אשדוד,ארלוזורוב,12.78,2071-144-26,2071/144,11285.26645768025,31.7954607977,34.6477989107,2012
2012-10-01,2012-01-10,"נחל לכיש 36, אשדוד",נחל לכיש 36,2195-60-14,דירה בבית קומות,5.0,שלישית,175.6,1800000,,,2011.0,,9.0,9409051764,1,219560,False,,אשדוד,נחל לכיש,,2195-60-14,2195/60,10250.569476082004,31.7858203851,34.6348361511,2012
2012-10-01,2012-01-10,"רבי יהודה הנשיא 8, אשדוד",רבי יהודה הנשיא 8,472-145-50,דירה בבית קומות,5.0,ראשונה,123.0,1135000,,,2000.0,,6.0,9411220896,1,472145,False,,אשדוד,רבי יהודה הנשיא,,472-145-50,472/145,9227.642276422765,31.791501467,34.6655327499,2012
2012-10-01,2012-01-10,"הפלמ""ח 14, אשדוד","הפלמ""ח 14",2460-12-53,דירה בבית קומות,3.0,שניה,52.2,600000,,,1965.0,,3.0,9409509900,1,246012,False,,אשדוד,"הפלמ""ח",,2460-12-53,2460/12,11494.25287356322,31.80171817,34.6620337423,2012
2012-10-01,2012-01-10,"אברהם שפירא 31, אשדוד",אברהם שפירא 31,2456-68-35,דירה בבית קומות,3.0,שניה,58.5,710000,,,1970.0,,4.0,9409304688,1,245668,False,42% ב 3.5 שנים,אשדוד,שפירא אברהם,12.0,2456-68-35,2456/68,12136.752136752137,31.7913043198,34.6589028627,2012
2012-09-30,2012-09-30,"ביאליק 11, אשדוד",ביאליק 11,2071-120-47,דירה בבית קומות,4.0,חמישית,89.2,1200000,,,1995.0,,8.0,9428703900,1,2071120,False,29% ב 2.5 שנים,אשדוד,ביאליק,11.6,2071-120-47,2071/120,13452.914798206277,31.7968042041,34.6455444119,2012
2012-09-30,2012-09-30,"המלך שאול 10, אשדוד",המלך שאול 10,2394-7-3,דירה בבית קומות,3.0,ראשונה,75.2,910000,,,1993.0,,4.0,9428986056,1,23947,False,18% ב 3.5 שנים,אשדוד,המלך שאול,5.14,2394-7-3,2394/7,12101.063829787234,31.7734759293,34.6409487759,2012
2012-09-28,2012-09-28,"כינרת 61, אשדוד",כינרת 61,2194-52-123,דירה בבית קומות,4.0,שביעית,89.0,1050000,,,1993.0,,9.0,9428374788,1,219452,False,,אשדוד,כנרת,,2194-52-123,2194/52,11797.752808988764,31.7824869354,34.6326845208,2012
2012-09-28,2012-09-28,"אבן עזרא 22, אשדוד",אבן עזרא 22,2071-131-56,דירה בבית קומות,5.0,שביעית ושמינית,114.0,1500000,,,1995.0,,7.0,9428146140,1,2071131,False,50% ב 3.5 שנים,אשדוד,אבן עזרא,14.29,2071-131-56,2071/131,13157.894736842103,31.7949677257,34.6459250756,2012
2012-09-27,2012-09-27,"הרב שאולי 23, אשדוד",הרב שאולי 23,2190-14-38,דירה בבית קומות,3.0,שלישית,61.0,745000,,,1970.0,,16.0,9428665008,1,219014,False,,אשדוד,הרב שאולי,,2190-14-38,2190/14,12213.11475409836,31.7968550324,34.6433048733,2012
2012-09-27,2012-09-27,"כוכב הדרום 3, אשדוד",כוכב הדרום 3,2437-23-45,דירה בבית קומות,5.0,שניה,145.61,1900000,,,2005.0,,9.0,9428221656,1,243723,False,,אשדוד,כוכב הדרום,,2437-23-45,2437/23,13048.554357530387,31.7771409468,34.636269463,2012
2012-09-27,2012-09-27,"הרב אבוחצירא 6, אשדוד",הרב אבוחצירא 6,2462-11-7,דירה בבית קומות,3.0,שניה,58.5,660000,,,1970.0,,5.0,9428907012,1,246211,False,108% ב 7.2 שנים,אשדוד,הרב אבוחצירה,15.0,2462-11-7,2462/11,11282.05128205128,31.7967298453,34.6588046066,2012
2012-09-27,2012-09-27,"אדר 8, אשדוד",אדר 8,2440-6-17,דירה בבית קומות,5.0,קרקע+ראשונה,113.8,1570000,,,2000.0,,9.0,9428853588,1,24406,False,141% ב 11.7 שנים,אשדוד,אדר,12.05,2440-6-17,2440/6,13796.133567662566,31.7803012383,34.639037461,2012
2012-09-27,2012-09-27,"שבט לוי 5, אשדוד",שבט לוי 5,2437-19-30,דירה בבית קומות,4.0,ראשונה,102.0,1240000,,,2003.0,,5.0,9427897920,1,243719,False,,אשדוד,שבט לוי,,2437-19-30,2437/19,12156.862745098038,31.7773838419,34.638009338,2012
2012-09-27,2012-09-27,"רבי יהודה הנשיא 8, אשדוד",רבי יהודה הנשיא 8,472-145-41,דירה בבית קומות,5.0,,128.0,1170000,,,2000.0,,6.0,9431259768,1,472145,False,,אשדוד,רבי יהודה הנשיא,,472-145-41,472/145,9140.625,31.791501467,34.6655327499,2012
2012-09-27,2012-09-27,"גשר עד הלום 7, אשדוד",גשר עד הלום 7,2462-103-22,דירה בבית קומות,4.0,שישית,116.0,875000,,,1998.0,,6.0,9430132992,1,2462103,False,65% ב 10 שנים,אשדוד,גשר עד הלום,6.5,2462-103-22,2462/103,7543.103448275862,31.8003887485,34.6610234425,2012
2012-09-26,2012-09-26,"רבי יהודה הנשיא 8, אשדוד",רבי יהודה הנשיא 8,472-145-20,דירה,5.0,רביעית,129.0,1170000,1.0,"בונייך לבניה לעמי בע""מ",2000.0,,6.0,11181249540,1,472145,False,,אשדוד,רבי יהודה הנשיא,,472-145-20,472/145,9069.767441860466,31.791501467,34.6655327499,2012
2012-09-24,2012-09-24,"מקלנבורג 4, אשדוד",מקלנבורג 4,2066-282-7,דירה בבית קומות,3.0,שניה,54.0,600000,,,1970.0,,3.0,9428780088,1,2066282,False,,אשדוד,מקלנבורג,,2066-282-7,2066/282,11111.111111111111,31.8060993071,34.6559599482,2012
2012-09-24,2012-09-24,"הפלדה 345, אשדוד",הפלדה 345,2026-2-19,מלאכה,,,261.0,325000,,,1970.0,,2.0,9431225832,1,20262,False,,אשדוד,הפלדה,,2026-2-19,2026/2,1245.210727969349,31.833172698,34.681615046,2012
2012-09-24,2012-09-24,"החובלים 4, אשדוד",החובלים 4,2189-22-14,דירה בבית קומות,4.0,שישית,100.0,1100000,1.0,החובלים,2012.0,,3.0,9429733152,1,218922,False,34% ב 1.8 שנים,אשדוד,החובלים,18.89,2189-22-14,2189/22,11000.0,31.8018723447,34.6419459344,2012
2012-09-24,2012-09-24,"זלמן ארן 6, אשדוד",זלמן ארן 6,2189-26-26,דירה בבית קומות,6.0,קרקע,110.6,1700000,,,1990.0,,7.0,9428977740,1,218926,False,,אשדוד,ארן זלמן,,2189-26-26,2189/26,15370.705244122966,31.8011736803,34.6446165876,2012
2012-09-24,2012-09-24,"הרב שאולי 39, אשדוד",הרב שאולי 39,2190-20-3,דירה בבית קומות,3.0,ראשונה,60.5,830000,,,1970.0,,8.0,9428763456,1,219020,False,44% ב 4.1 שנים,אשדוד,הרב שאולי,10.73,2190-20-3,2190/20,13719.00826446281,31.7952847473,34.641025274,2012
2012-09-23,2012-09-23,"ביאליק 38, אשדוד",ביאליק 38,2071-219-133,דירה בבית קומות,4.0,רביעית,127.7,1400000,,,1995.0,,9.0,9428384448,1,2071219,False,,אשדוד,ביאליק,,2071-219-133,2071/219,10963.19498825372,31.7940805334,34.6438858634,2012
2012-09-23,2012-09-23,"הלל 7, אשדוד",הלל 7,472-122-33,דירה בבית קומות,3.0,שניה,75.0,975000,,,2001.0,,4.0,9428729520,1,472122,False,,אשדוד,הלל,,472-122-33,472/122,13000.0,31.7920803494,34.6673862551,2012
2012-09-23,2012-09-23,"הנרקיס 9, אשדוד",הנרקיס 9,2073-62-51,דירה בבית קומות,3.0,תשיעית,62.8,785000,,,1980.0,,9.0,9428401080,1,207362,False,,אשדוד,הנרקיס,,2073-62-51,2073/62,12500.0,31.7862998184,34.6479848081,2012
2012-09-23,2012-09-23,"העצמאות 24, אשדוד",העצמאות 24,2448-10-370,דירה בבית קומות,5.0,תשיעית,144.7,1650000,,,2004.0,,10.0,9427884144,1,244810,False,24% ב 4.4 שנים,אשדוד,העצמאות,5.45,2448-10-370,2448/10,11402.902557014511,31.7910669676,34.6446673382,2012
2012-09-23,2012-09-23,"כינור 10, אשדוד",כינור 10,3174-1-1,דירה בבית קומות,5.0,אחת עשרה,175.0,2284000,,,2022.0,,31.0,9428372688,1,31741,False,,אשדוד,כינור,,3174-1-1,3174/1,13051.42857142857,31.7912646711,34.6328776399,2012
2012-09-23,2012-09-23,"דוד וולפסון 2, אשדוד",דוד וולפסון 2,2648-61-60,דירה בבית קומות,3.0,שלישית,57.5,972000,,,2000.0,,7.0,9428211996,1,264861,False,,אשדוד,וולפסון דוד,,2648-61-60,2648/61,16904.347826086956,31.7681678385,34.6322973044,2012
2012-09-23,2012-09-23,"נתן אלבז 34, אשדוד",נתן אלבז 34,2458-34-68,דירה בבית קומות,4.0,ראשונה,77.4,800000,,,1970.0,2008.0,8.0,9428148912,1,245834,False,23% ב 4.2 שנים,אשדוד,אלבז נתן,5.48,2458-34-68,2458/34,10335.9173126615,31.7927369913,34.6513625783,2012
2012-09-20,2012-09-20,"הפלדה 345, אשדוד",הפלדה 345,2026-2-20,תעשיה,,ראשונה,1260.0,1450000,,,1970.0,,2.0,9429789852,1,20262,False,,אשדוד,הפלדה,,2026-2-20,2026/2,1150.7936507936508,31.833172698,34.681615046,2012
