DEALDATE,DEALDATETIME,FULLADRESS,DISPLAYADRESS,GUSH,DEALNATUREDESCRIPTION,ASSETROOMNUM,FLOORNO,DEALNATURE,DEALAMOUNT,NEWPROJECTTEXT,PROJECTNAME,BUILDINGYEAR,YEARBUILT,BUILDINGFLOORS,KEYVALUE,TYPE,POLYGON_ID,TREND_IS_NEGATIVE,TREND_FORMAT,city_name,street,presentage per year,GUSH - Copy,Gush_Helka,Price per sqm,lat,lon,Year
2006-12-31,2006-12-31,"זלמן ארן 31, באר שבע",זלמן ארן 31,38105-138-1,קוטג' חד משפחתי,5.0,,217.0,809000,,,1987.0,,1.0,9630299610,1,38105138,False,,באר שבע,ארן זלמן,,38105-138-1,38105/138,3728.110599078341,31.2552767148,34.7606606461,2006
2006-12-30,2006-12-30,"אינשטיין 8, באר שבע",אינשטיין 8,38070-40-1,דירה בבית קומות,4.0,ראשונה,90.0,253000,,,1950.0,,2.0,10208056590,1,3807040,False,0% ב 1.5 שנים,באר שבע,אינשטיין,0.0,38070-40-1,38070/40,2811.1111111111118,31.2553276329,34.7916458335,2006
2006-12-29,2006-12-29,"אהוד בן-גרא 11, באר שבע",אהוד בן-גרא 11,38006-108-14,דירה בבית קומות,3.0,,75.0,274000,,,1996.0,,,9630395280,1,38006108,False,,באר שבע,אהוד בן גרא,,38006-108-14,38006/108,3653.3333333333335,31.2411271081,34.7806605394,2006
2006-12-25,2006-12-25,"גוש עציון 37, באר שבע",גוש עציון 37,38028-48-8,חנות,,,172.0,250000,,,1970.0,,1.0,9631696950,1,3802848,False,,באר שבע,גוש עציון,,38028-48-8,38028/48,1453.4883720930231,31.2558523896,34.8067813086,2006
2006-12-24,2006-12-24,"יפה לייב 15, באר שבע",יפה לייב 15,38018-18-13,דירה בבית קומות,3.0,קרקע,63.7,292000,,,1960.0,,3.0,9630279450,1,3801818,False,,באר שבע,יפה לייב,,38018-18-13,38018/18,4583.987441130298,31.2466341297,34.8008621785,2006
2006-12-24,2006-12-24,,,38068-1-191,דירה בבית קומות,4.0,,83.0,232000,,,1800.0,,,9632776500,2,380681,False,,באר שבע,קפריסין,,38068-1-191,38068/1,2795.1807228915663,31.2526849461,34.779672642,2006
2006-12-19,2006-12-19,"אביגדור המאירי 16, באר שבע",אביגדור המאירי 16,38190-11-25,דירה בבית קומות,3.0,שישית,78.0,301000,,,1999.0,,8.0,9630291420,1,3819011,True,-21% ב 7.8 שנים,באר שבע,אביגדור המאירי,-2.69,38190-11-25,38190/11,3858.974358974359,31.240221719,34.7750843433,2006
2006-12-18,2006-12-18,"ברנע דב 27, באר שבע",ברנע דב 27,38367-9-31,דירה בבית קומות,6.0,שניה שלישית,134.0,665000,,,2005.0,,2.0,9630236520,1,383679,False,,באר שבע,ברנע דב,,38367-9-31,38367/9,4962.686567164179,31.2850705815,34.8026559212,2006
2006-12-18,2006-12-18,"ברנע דב 25, באר שבע",ברנע דב 25,38367-9-17,דירה בבית קומות,5.0,ראשונה,112.0,600000,,,2005.0,,2.0,9630234180,1,383679,False,,באר שבע,ברנע דב,,38367-9-17,38367/9,5357.142857142857,31.2850705815,34.8026559212,2006
2006-12-17,2006-12-17,"הנוקם 6, באר שבע",הנוקם 6,38006-174-10,דירה בבית קומות,4.0,,120.0,361000,,,1990.0,,,9552782610,1,38006174,False,,באר שבע,הנוקם,,38006-174-10,38006/174,3008.333333333333,31.2421085432,34.7833725562,2006
2006-12-14,2006-12-14,"ביאליק 1, באר שבע",ביאליק 1,38074-1-34,דירה בבית קומות,4.0,ראשונה,65.0,273000,,,1960.0,,3.0,9630135450,1,380741,False,,באר שבע,ביאליק,,38074-1-34,38074/1,4200.0,31.2549643106,34.7967157187,2006
2006-12-12,2006-12-12,"המשחררים 14, באר שבע",המשחררים 14,38074-160-4,דירת גן,4.0,קרקע,97.0,640000,,,2004.0,,17.0,9552801150,1,38074160,False,,באר שבע,המשחררים,,38074-160-4,38074/160,6597.938144329897,31.2519313544,34.7951495936,2006
2006-12-10,2006-10-12,"וינגייט 3, באר שבע",וינגייט 3,38028-94-3,דירה בבית קומות,3.0,ראשונה,51.5,226000,,,1960.0,,3.0,9550687320,1,3802894,False,18% ב 5.1 שנים,באר שבע,וינגייט,3.53,38028-94-3,38028/94,4388.349514563107,31.2562299949,34.809590965,2006
2006-12-06,2006-06-12,"נחום שריג 41, באר שבע",נחום שריג 41,38368-18-15,דירה בבית קומות,4.0,ראשונה,91.0,447000,,,2005.0,,5.0,9546779520,1,3836818,True,-5% ב 0.7 שנים,באר שבע,שריג נחום,-7.14,38368-18-15,38368/18,4912.087912087912,31.284764986,34.805521102,2006
2006-12-06,2006-06-12,"גמל 15, באר שבע",גמל 15,38058-1-94,דירה בבית קומות,4.0,שניה,85.0,300000,,,1970.0,,3.0,9546111270,1,380581,False,,באר שבע,גמל,,38058-1-94,38058/1,3529.4117647058824,31.2487189013,34.7792235087,2006
2006-12-05,2006-05-12,"נגבה 68, באר שבע",נגבה 68,38006-1-22,בית בודד,3.5,,86.0,130000,,,1900.0,,1.0,9545230620,1,380061,False,,באר שבע,נגבה,,38006-1-22,38006/1,1511.6279069767445,31.2432183697,34.7802596113,2006
2006-12-05,2006-05-12,"ברנע דב 27, באר שבע",ברנע דב 27,38367-9-29,דירה בבית קומות,5.0,ראשונה,112.0,590000,,,2005.0,,2.0,9545237190,1,383679,False,,באר שבע,ברנע דב,,38367-9-29,38367/9,5267.857142857143,31.2850705815,34.8026559212,2006
2006-12-03,2006-03-12,"דבורה 12, באר שבע",דבורה 12,38006-3-2,דירה בבית קומות,4.0,שמינית,100.0,191000,,,1994.0,,1.0,9547028100,1,380063,False,,באר שבע,דבורה,,38006-3-2,38006/3,1910.0,31.243435346,34.780452997,2006
2006-12-02,2006-02-12,"חומה ומגדל 21, באר שבע",חומה ומגדל 21,38029-34-3,דירה בבית קומות,2.0,,34.0,164000,,,1951.0,,,9542313990,1,3802934,False,,באר שבע,חומה ומגדל,,38029-34-3,38029/34,4823.529411764706,31.2541937227,34.8048072968,2006
2006-12-01,2006-01-12,"הנוטר 27, באר שבע",הנוטר 27,38029-69-3,דירה בבית קומות,3.0,ראשונה,76.0,277000,,,1950.0,,1.0,9541219500,1,3802969,False,,באר שבע,הנוטר,,38029-69-3,38029/69,3644.7368421052633,31.253263858,34.8057452631,2006
2006-11-30,2006-11-30,"הערים התאומות 23, באר שבע",הערים התאומות 23,38371-3-21,דירה בבית קומות,5.0,שניה,124.2,658000,,,2001.0,,5.0,9632058570,1,383713,False,16% ב 5.4 שנים,באר שבע,הערים התאומות,2.96,38371-3-21,38371/3,5297.906602254428,31.2804217123,34.7989336766,2006
2006-11-30,2006-11-30,"נחום שריג 31, באר שבע",נחום שריג 31,38370-14-32,חנות,,,,600000,,,2005.0,,3.0,9552934800,1,3837014,False,,באר שבע,שריג נחום,,38370-14-32,38370/14,,31.2827832502,34.8055374844,2006
2006-11-28,2006-11-28,"יסקי 4, באר שבע",יסקי 4,38035-5-8,דירה בבית קומות,2.0,ראשונה,48.0,136000,,,1950.0,,1.0,9552138930,1,380355,False,,באר שבע,יסקי,,38035-5-8,38035/5,2833.333333333333,31.2429095794,34.7872226348,2006
2006-11-27,2006-11-27,"השלום 133, באר שבע",השלום 133,38027-21-10,דירה בבית קומות,2.0,שניה,37.0,86000,,,1960.0,,3.0,9630402750,1,3802721,False,,באר שבע,השלום,,38027-21-10,38027/21,2324.324324324324,31.2578568883,34.8111306673,2006
2006-11-23,2006-11-23,"דוד טוביהו 59, באר שבע",דוד טוביהו 59,38035-43-45,דירה בבית קומות,4.0,שניה,128.0,392000,,,1995.0,,8.0,9551806920,1,3803543,False,,באר שבע,טוביהו דוד,,38035-43-45,38035/43,3062.5,31.2451000871,34.7865082576,2006
2006-11-22,2006-11-22,"יד ושם 24, באר שבע",יד ושם 24,38030-4-185,דירה בבית קומות,3.0,ראשונה,70.0,155000,,,1996.0,,17.0,9551877480,1,380304,False,,באר שבע,יד ושם,,38030-4-185,38030/4,2214.285714285714,31.2494969321,34.8017107307,2006
2006-11-21,2006-11-21,"קרן היסוד 17, באר שבע",קרן היסוד 17,38018-23-9,דירה בבית קומות,3.0,קרקע,57.3,259000,,,1970.0,,3.0,9551724390,1,3801823,True,-11% ב 4.5 שנים,באר שבע,קרן היסוד,-2.44,38018-23-9,38018/23,4520.069808027924,31.244871286,34.800381827,2006
2006-11-20,2006-11-20,"שומרון 62, באר שבע",שומרון 62,38321-36-4,חנות,,קרקע,23.0,130000,,,1994.0,,,9552738780,1,3832136,False,,באר שבע,שומרון,,38321-36-4,38321/36,5652.173913043478,31.2458279221,34.7654277541,2006
2006-11-16,2006-11-16,"עגנון 4, באר שבע",עגנון 4,38081-1-69,דירה בבית קומות,3.0,שלישית,66.0,163000,,,1980.0,,14.0,9552198960,1,380811,False,,באר שבע,עגנון,,38081-1-69,38081/1,2469.696969696969,31.2527808896,34.7775180397,2006
2006-11-15,2006-11-15,"ברק 36, באר שבע",ברק 36,38006-50-6,דירה בבית קומות,5.0,,130.0,470000,,,1960.0,,1.0,9551893050,1,3800650,False,,באר שבע,ברק,,38006-50-6,38006/50,3615.3846153846152,31.2424355881,34.7803099273,2006
2006-11-07,2006-07-11,"ביאליק 13, באר שבע",ביאליק 13,38074-17-32,דירה בבית קומות,4.0,חמישית,76.0,350000,,,1960.0,,3.0,9547176060,1,3807417,False,,באר שבע,ביאליק,,38074-17-32,38074/17,4605.263157894737,31.2547493994,34.7931352798,2006
2006-11-07,2006-07-11,"אהרונסון 37, באר שבע",אהרונסון 37,38177-27-1,קוטג' דו משפחתי,3.0,,60.0,416000,,,1992.0,,1.0,9547299900,1,3817727,False,,באר שבע,אהרונסון,,38177-27-1,38177/27,6933.333333333333,31.2668694728,34.7602423185,2006
2006-11-01,2006-01-11,"חברון 107, באר שבע",חברון 107,38014-24-2,תעשיה,,קרקע,100.0,136000,,,1960.0,,,9541108890,1,3801424,False,,באר שבע,חברון,,38014-24-2,38014/24,1360.0,31.2416531422,34.8031305665,2006
2006-11-01,2006-01-11,"העלייה 68, באר שבע",העלייה 68,38069-1-14,דירה בבית קומות,3.0,ראשונה,76.0,185000,,,1960.0,,,9540932220,1,380691,False,,באר שבע,העליה,,38069-1-14,38069/1,2434.2105263157896,31.256344827,34.7783349984,2006
2006-11-01,2006-01-11,"ביאליק 13, באר שבע",ביאליק 13,38074-17-33,דירה בבית קומות,5.0,שישית,100.0,556000,,,1960.0,,3.0,9540857250,1,3807417,False,,באר שבע,ביאליק,,38074-17-33,38074/17,5560.0,31.2547493994,34.7931352798,2006
2006-11-01,2006-01-11,"בר-כוכבא 14, באר שבע",בר-כוכבא 14,38006-20-2,דירה בבית קומות,3.0,,89.0,169000,,,1999.0,,1.0,9547022250,1,3800620,False,,באר שבע,בר כוכבא,,38006-20-2,38006/20,1898.876404494382,31.2435029929,34.7813901986,2006
2006-11-01,2006-01-11,"יסקי 4, באר שבע",יסקי 4,38035-5-9,דירה בבית קומות,4.0,,81.0,296000,,,1950.0,,1.0,9540895860,1,380355,False,,באר שבע,יסקי,,38035-5-9,38035/5,3654.320987654321,31.2429095794,34.7872226348,2006
2006-11-01,2006-01-11,"כרמלי 7, באר שבע",כרמלי 7,38026-60-2,דירה בבית קומות,4.0,ראשונה,96.6,463000,,,1956.0,,1.0,9540964890,1,3802660,False,18% ב 7.6 שנים,באר שבע,כרמלי,2.37,38026-60-2,38026/60,4792.96066252588,31.2580900098,34.8078422914,2006
2006-10-31,2006-10-31,"נחום שריג 23, באר שבע",נחום שריג 23,38370-13-9,דירה בבית קומות,4.0,שניה,95.0,449000,,,2003.0,,5.0,9551122290,1,3837013,False,,באר שבע,שריג נחום,,38370-13-9,38370/13,4726.315789473684,31.2822440394,34.8053747831,2006
2006-10-29,2006-10-29,"החיד""א 4, באר שבע","החיד""א 4",38118-35-22,דירה בבית קומות,4.0,שישית,79.8,283000,,,1980.0,,8.0,9551116440,1,3811835,False,,באר שבע,"החיד""א",,38118-35-22,38118/35,3546.365914786968,31.2543014824,34.7692103292,2006
2006-10-26,2006-10-26,"פורת קלמן 7, באר שבע",פורת קלמן 7,38365-7-14,דירה בבית קומות,4.0,רביעית,84.95,450000,,,2006.0,,5.0,9551303460,1,383657,False,,באר שבע,פורת קלמן,,38365-7-14,38365/7,5297.23366686286,31.2854375414,34.8050739737,2006
2006-10-24,2006-10-24,"סוסיה 6, באר שבע",סוסיה 6,38111-201-64,דירה בבית קומות,5.0,קומה ‎4‏,116.0,560000,,,2005.0,,10.0,9551052630,1,38111201,False,,באר שבע,סוסיה,,38111-201-64,38111/201,4827.586206896552,31.2448368207,34.7732079901,2006
2006-10-23,2006-10-23,"המשחררים 14, באר שבע",המשחררים 14,38074-160-81,דירה בבית קומות,4.0,שש עשרה,98.0,615000,,,2004.0,,17.0,9551308590,1,38074160,False,,באר שבע,המשחררים,,38074-160-81,38074/160,6275.510204081633,31.2519313544,34.7951495936,2006
2006-10-19,2006-10-19,"יסקי 4, באר שבע",יסקי 4,38035-6-22,דירה בבית קומות,4.0,שניה,76.0,179000,,,1950.0,,1.0,9550494090,1,380356,False,,באר שבע,יסקי,,38035-6-22,38035/6,2355.2631578947367,31.2430209002,34.7873282824,2006
2006-10-19,2006-10-19,"יפתח הגלעדי 18, באר שבע",יפתח הגלעדי 18,38006-104-5,דירה בבית קומות,4.0,,100.0,337000,,,1960.0,,1.0,9551804580,1,38006104,False,,באר שבע,יפתח הגלעדי,,38006-104-5,38006/104,3370.0,31.2412484942,34.7801482257,2006
2006-10-19,2006-10-19,"חז""ל 88, באר שבע","חז""ל 88",38071-1-15,דירה בבית קומות,3.0,,60.0,136000,,,1970.0,,,9639750060,1,380711,False,,באר שבע,"חז""ל",,38071-1-15,38071/1,2266.6666666666665,31.2577584424,34.7905175695,2006
2006-10-16,2006-10-16,"מוריה 20, באר שבע",מוריה 20,38116-15-1,דירה בבית קומות,2.0,קרקע,46.2,181000,,,1970.0,,3.0,9550442790,1,3811615,False,,באר שבע,מוריה,,38116-15-1,38116/15,3917.748917748917,31.2470162749,34.7846790296,2006
2006-10-15,2006-10-15,"שמשון 10, באר שבע",שמשון 10,38021-31-20,דירה בבית קומות,4.0,,76.0,123000,,,1970.0,,5.0,9550676790,1,3802131,False,,באר שבע,שמשון,,38021-31-20,38021/31,1618.421052631579,31.2561331638,34.7806691804,2006
2006-10-12,2006-12-10,"הערים התאומות 23, באר שבע",הערים התאומות 23,38371-3-2,דירה בבית קומות,4.0,ראשונה,91.4,500000,,,2001.0,,5.0,9552575520,1,383713,True,-11% ב 5.1 שנים,באר שבע,הערים התאומות,-2.16,38371-3-2,38371/3,5470.459518599562,31.2804217123,34.7989336766,2006
2006-10-11,2006-11-10,"צבי אבידוב 5, באר שבע",צבי אבידוב 5,38163-52-1,דירה בבית קומות,5.0,ראשונה,120.0,462000,,,1980.0,,1.0,9551321280,1,3816352,False,,באר שבע,אבידוב צבי,,38163-52-1,38163/52,3850.0,31.270027255,34.7714158663,2006
2006-10-09,2006-09-10,"אריה דולצ'ין 12, באר שבע",אריה דולצ'ין 12,38130-66-5,דירה בבית קומות,4.0,שניה,78.0,289000,,,1991.0,,3.0,9549921600,1,3813066,False,,באר שבע,דולצ'ין אריה,,38130-66-5,38130/66,3705.128205128205,31.2636114194,34.7665250594,2006
2006-10-09,2006-09-10,"אסוולדו ארניה 9, באר שבע",אסוולדו ארניה 9,38092-44-39,דירה בבית קומות,3.0,רביעית,47.1,168000,,,1960.0,,4.0,9549657270,1,3809244,True,-6% ב 4.9 שנים,באר שבע,ארניה אסוולדו,-1.22,38092-44-39,38092/44,3566.8789808917195,31.2671547322,34.8014069577,2006
2006-10-04,2006-04-10,"תמר 37, באר שבע",תמר 37,38010-231-1,קוטג' חד משפחתי,6.0,,173.0,759000,,,1982.0,,,9544306320,1,38010231,False,,באר שבע,תמר,,38010-231-1,38010/231,4387.28323699422,31.2296855578,34.7885903203,2006
2006-10-04,2006-04-10,"ברק 16, באר שבע",ברק 16,38006-140-6,דירה בבית קומות,5.0,,110.0,507000,,,1960.0,,1.0,9543983220,1,38006140,False,,באר שבע,ברק,,38006-140-6,38006/140,4609.090909090909,31.2418163365,34.7812261132,2006
2006-10-04,2006-04-10,"חיים יחיל 10, באר שבע",חיים יחיל 10,38013-19-64,משרד,,,546.0,2290000,,,1970.0,,2.0,9544379670,1,3801319,False,,באר שבע,יחיל חיים,,38013-19-64,38013/19,4194.139194139194,31.2430567596,34.7990852302,2006
2006-10-04,2006-04-10,"יד ושם 4, באר שבע",יד ושם 4,38030-15-95,חנות,,,25.0,90000,,,1960.0,,3.0,9546408180,1,3803015,False,,באר שבע,יד ושם,,38030-15-95,38030/15,3600.0,31.2521496443,34.8034240066,2006
2006-10-04,2006-04-10,"המשחררים 14, באר שבע",המשחררים 14,38074-160-37,דירה בבית קומות,4.0,שביעית,96.0,605000,,,2004.0,,17.0,9544284720,1,38074160,False,,באר שבע,המשחררים,,38074-160-37,38074/160,6302.083333333333,31.2519313544,34.7951495936,2006
2006-10-03,2006-03-10,"יעקב כהן 9, באר שבע",יעקב כהן 9,38074-149-77,דירה בבית קומות,4.0,שביעית,86.0,620000,,,2005.0,,9.0,9543368430,1,38074149,False,,באר שבע,כהן יעקב,,38074-149-77,38074/149,7209.302325581395,31.2540122092,34.7970244377,2006
2006-10-03,2006-03-10,"עגנון 4, באר שבע",עגנון 4,38081-1-72,דירה בבית קומות,3.0,שלישית,64.0,263000,,,1980.0,,14.0,9543407040,1,380811,False,,באר שבע,עגנון,,38081-1-72,38081/1,4109.375,31.2527808896,34.7775180397,2006
2006-10-02,2006-02-10,"ברק 20, באר שבע",ברק 20,38006-141-8,דירה בבית קומות,4.0,,85.0,422000,,,1960.0,,1.0,9542358540,1,38006141,False,,באר שבע,ברק,,38006-141-8,38006/141,4964.705882352941,31.2418759716,34.7811374452,2006
2006-10-02,2006-02-10,"מוצא 7, באר שבע",מוצא 7,38111-109-23,דירה בבית קומות,4.0,רביעית,88.0,378000,,,2001.0,,11.0,9543276270,1,38111109,True,-24% ב 5.7 שנים,באר שבע,מוצא,-4.21,38111-109-23,38111/109,4295.454545454545,31.245074087,34.7693075804,2006
2006-10-01,2006-01-10,"נגבה 54, באר שבע",נגבה 54,38006-162-13,דירה בבית קומות,4.0,,109.0,356000,,,1980.0,,1.0,9540939600,1,38006162,False,,באר שבע,נגבה,,38006-162-13,38006/162,3266.05504587156,31.2421921355,34.7818564194,2006
2006-10-01,2006-01-10,"אלפרד פריד 20, באר שבע",אלפרד פריד 20,38157-86-1,קוטג' דו משפחתי,5.0,ראשונה,120.0,602000,,,1900.0,,1.0,9542707470,1,3815786,False,,באר שבע,פריד אלפרד,,38157-86-1,38157/86,5016.666666666667,31.2715562298,34.8025718383,2006
2006-09-25,2006-09-25,"ישראל גלילי 11, באר שבע",ישראל גלילי 11,38368-7-17,דירה בבית קומות,4.0,,107.0,459000,,,1992.0,,2.0,9551053350,1,383687,False,,באר שבע,גלילי ישראל,,38368-7-17,38368/7,4289.719626168225,31.2836317014,34.8035871155,2006
2006-09-25,2006-09-25,"העלייה 62, באר שבע",העלייה 62,38069-4-4,דירה בבית קומות,3.0,,60.0,172000,,,1980.0,,,9549694530,1,380694,False,,באר שבע,העליה,,38069-4-4,38069/4,2866.6666666666665,31.2559454896,34.7789532439,2006
2006-09-18,2006-09-18,"השלום 111, באר שבע",השלום 111,38028-90-10,דירה בבית קומות,3.0,,70.0,87000,,,1960.0,,1.0,9549704160,1,3802890,False,,באר שבע,השלום,,38028-90-10,38028/90,1242.857142857143,31.255631442,34.8100789159,2006
2006-09-18,2006-09-18,"הצבי 17, באר שבע",הצבי 17,38081-47-11,דירה בבית קומות,4.0,שלישית,91.1,206000,,,1970.0,,3.0,9549422820,1,3808147,False,,באר שבע,הצבי,,38081-47-11,38081/47,2261.251372118551,31.2487226848,34.7778520497,2006
2006-09-15,2006-09-15,"יהודה בורלא 1, באר שבע",יהודה בורלא 1,38081-5-78,דירה בבית קומות,3.0,שניה,63.2,148000,,,1970.0,,3.0,9549556200,1,380815,False,,באר שבע,בורלא יהודה,,38081-5-78,38081/5,2341.772151898734,31.2510979371,34.7760680793,2006
2006-09-11,2006-11-09,"העלייה 56, באר שבע",העלייה 56,38069-8-1,דירה בבית קומות,4.0,קרקע,95.0,324000,,,1980.0,,,9551365110,1,380698,False,,באר שבע,העליה,,38069-8-1,38069/8,3410.5263157894738,31.2555367449,34.779584174,2006
2006-09-05,2006-05-09,"רוטנברג 16, באר שבע",רוטנברג 16,38027-4-66,דירה בבית קומות,3.0,,60.0,183000,,,1960.0,,4.0,9544650750,1,380274,False,,באר שבע,רוטנברג,,38027-4-66,38027/4,3050.0,31.2594656894,34.8080641036,2006
2006-09-05,2006-05-09,"משה קהירי 8, באר שבע",משה קהירי 8,38367-7-33,דירה בבית קומות,4.0,ראשונה,83.9,415000,,,2005.0,,5.0,9545154120,1,383677,False,,באר שבע,קהירי,,38367-7-33,38367/7,4946.364719904648,31.2853094342,34.8010535196,2006
2006-09-03,2006-03-09,"ברק 15, באר שבע",ברק 15,38006-124-5,דירה בבית קומות,3.0,רביעית,76.0,360000,,,1800.0,,,9543395880,1,38006124,False,,באר שבע,ברק,,38006-124-5,38006/124,4736.8421052631575,31.2416877194,34.7807587315,2006
2006-09-03,2006-03-09,"ישראל גלילי 32, באר שבע",ישראל גלילי 32,38368-11-3,דירה בבית קומות,4.0,ראשונה,91.0,470000,,,2005.0,,5.0,9544070700,1,3836811,False,,באר שבע,גלילי ישראל,,38368-11-3,38368/11,5164.8351648351645,31.2853150845,34.8044444756,2006
2006-09-03,2006-03-09,"נחום גולדמן 21, באר שבע",נחום גולדמן 21,38373-3-69,דירה בבית קומות,4.0,שלישית,112.0,480000,,,2000.0,,3.0,9543574080,1,383733,False,,באר שבע,גולדמן נחום,,38373-3-69,38373/3,4285.714285714285,31.2792856987,34.802685277,2006
2006-09-01,2006-01-09,"הגדודים 15, באר שבע",הגדודים 15,38032-2-11,דירה בבית קומות,4.0,,96.0,433000,,,1960.0,,1.0,9540878040,1,380322,False,,באר שבע,הגדודים,,38032-2-11,38032/2,4510.416666666667,31.2357592813,34.7817327231,2006
2006-08-30,2006-08-30,"חיים יחיל 10, באר שבע",חיים יחיל 10,38013-19-63,משרד,,שישית,52.0,283000,,,1970.0,,2.0,9631742940,1,3801319,False,,באר שבע,יחיל חיים,,38013-19-63,38013/19,5442.307692307692,31.2430567596,34.7990852302,2006
2006-08-25,2006-08-25,"יסקי 4, באר שבע",יסקי 4,38035-6-23,דירה בבית קומות,4.0,שלישית,83.0,248000,,,1950.0,,1.0,9549282420,1,380356,False,,באר שבע,יסקי,,38035-6-23,38035/6,2987.951807228916,31.2430209002,34.7873282824,2006
2006-08-22,2006-08-22,"אלעזר בן-יאיר 23, באר שבע",אלעזר בן-יאיר 23,38078-1-18,דירה בבית קומות,3.0,שלישית,48.4,196000,,,1960.0,,3.0,9549399690,1,380781,False,,באר שבע,אלעזר בן יאיר,,38078-1-18,38078/1,4049.586776859504,31.2625239399,34.7906528559,2006
2006-08-20,2006-08-20,"העליה 54, באר שבע",העליה 54,38069-10-3,דירה בבית קומות,3.0,ראשונה,47.9,174000,,,1962.0,,1.0,9550140750,1,3806910,False,,באר שבע,העליה,,38069-10-3,38069/10,3632.567849686848,31.2552757603,34.7799881099,2006
2006-08-20,2006-08-20,"הנרי קנדל 10, באר שבע",הנרי קנדל 10,38035-60-351,דירה בבית קומות,6.0,,200.0,796000,,,2000.0,,18.0,9549550350,1,3803560,False,,באר שבע,קנדל הנרי,,38035-60-351,38035/60,3980.0,31.2452471681,34.7832342939,2006
2006-08-14,2006-08-14,"יעקב כהן 9, באר שבע",יעקב כהן 9,38074-149-69,דירה בבית קומות,4.0,חמישית,86.0,600000,,,2005.0,,9.0,9548565930,1,38074149,False,,באר שבע,כהן יעקב,,38074-149-69,38074/149,6976.744186046512,31.2540122092,34.7970244377,2006
2006-08-12,2006-12-08,"הנוקם 6, באר שבע",הנוקם 6,38006-174-11,דירה בבית קומות,3.0,,96.0,293000,,,1996.0,,,9552533760,1,38006174,False,,באר שבע,הנוקם,,38006-174-11,38006/174,3052.083333333333,31.2421085432,34.7833725562,2006
2006-08-11,2006-11-08,,,38068-1-192,דירה בבית קומות,4.0,,100.0,180000,,,1800.0,,,9630364770,2,380681,False,,באר שבע,קפריסין,,38068-1-192,38068/1,1800.0,31.2526849461,34.779672642,2006
2006-08-10,2006-10-08,"אהוד בן-גרא 4, באר שבע",אהוד בן-גרא 4,38006-115-4,דירה בבית קומות,4.0,,109.0,444000,,,1960.0,,1.0,9550194210,1,38006115,False,,באר שבע,אהוד בן גרא,,38006-115-4,38006/115,4073.394495412844,31.2409963934,34.7813796164,2006
2006-08-06,2006-06-08,"יוהנה ז'בוטינסקי 4, באר שבע",יוהנה ז'בוטינסקי 4,38190-1-57,בית בודד,5.0,עשירית,121.8,740000,,,2001.0,,12.0,9545725890,1,381901,True,-3% ב 4.1 שנים,באר שבע,יוהנה ז'בוטינסקי,-0.73,38190-1-57,38190/1,6075.533661740558,31.2426432742,34.7780823176,2006
2006-08-02,2006-02-08,"בני אור 27, באר שבע",בני אור 27,38020-8-9,דירה בבית קומות,3.0,שניה,69.2,216000,,,1970.0,,3.0,9542695680,1,380208,True,-31% ב 7.5 שנים,באר שבע,בני אור,-4.13,38020-8-9,38020/8,3121.387283236994,31.2580348019,34.7844635161,2006
2006-08-02,2006-02-08,"יד ושם 4, באר שבע",יד ושם 4,38030-15-97,דירה בבית קומות,2.0,שלוש עשרה,50.0,145000,,,1960.0,,3.0,9542955600,1,3803015,False,,באר שבע,יד ושם,,38030-15-97,38030/15,2900.0,31.2521496443,34.8034240066,2006
2006-08-01,2006-01-08,"עין גדי 11, באר שבע",עין גדי 11,38122-5-3,דירה בבית קומות,4.0,ראשונה,89.2,494000,,,1990.0,,2.0,9540947790,1,381225,True,-3% ב 5.8 שנים,באר שבע,עין גדי,-0.52,38122-5-3,38122/5,5538.116591928251,31.2484902053,34.7691296983,2006
2006-08-01,2006-01-08,"שיזף 51, באר שבע",שיזף 51,38010-140-1,בית בודד,3.0,,57.0,475000,,,1960.0,,,9541155060,1,38010140,False,,באר שבע,שיזף,,38010-140-1,38010/140,8333.333333333334,31.2312686746,34.7887865465,2006
2006-07-27,2006-07-27,"הגאולים 22, באר שבע",הגאולים 22,38030-152-4,דירה בבית קומות,2.0,ראשונה,30.0,221000,,,1970.0,,1.0,9548129430,1,38030152,False,,באר שבע,הגאולים,,38030-152-4,38030/152,7366.666666666667,31.2482959861,34.8047318554,2006
2006-07-25,2006-07-25,"הנרי קנדל 10, באר שבע",הנרי קנדל 10,38035-60-352,דירה בבית קומות,4.0,,100.0,600000,,,2000.0,,18.0,9548122590,1,3803560,False,,באר שבע,קנדל הנרי,,38035-60-352,38035/60,6000.0,31.2452471681,34.7832342939,2006
2006-07-23,2006-07-23,"שמעוני 13, באר שבע",שמעוני 13,38074-27-14,דירה בבית קומות,4.0,רביעית,84.5,446000,,,1990.0,,10.0,9547882920,1,3807427,False,,באר שבע,שמעוני,,38074-27-14,38074/27,5278.10650887574,31.2529895491,34.7958893526,2006
2006-07-21,2006-07-21,"לאה 11, באר שבע",לאה 11,38385-3-22,דירה בבית קומות,4.0,קרקע,81.0,472000,,,1996.0,,3.0,9547441920,1,383853,False,,באר שבע,לאה,,38385-3-22,38385/3,5827.16049382716,31.2679930167,34.7609862995,2006
2006-07-21,2006-07-21,"מרבד הקסמים 7, באר שבע",מרבד הקסמים 7,38098-93-1,דירה בבית קומות,2.0,קרקע,44.3,164000,,,1955.0,,,9547417350,1,3809893,False,,באר שבע,מרבד הקסמים,,38098-93-1,38098/93,3702.031602708804,31.2501116787,34.7827626996,2006
2006-07-20,2006-07-20,"אהוד בן-גרא 11, באר שבע",אהוד בן-גרא 11,38006-108-15,דירה בבית קומות,4.0,רביעית,85.0,355000,,,1997.0,,,9547464240,1,38006108,False,,באר שבע,אהוד בן גרא,,38006-108-15,38006/108,4176.470588235294,31.2411271081,34.7806605394,2006
2006-07-19,2006-07-19,"בני אור 60, באר שבע",בני אור 60,38021-13-20,דירה בבית קומות,3.0,ראשונה,66.0,193000,,,1970.0,,4.0,9547433730,1,3802113,False,,באר שבע,בני אור,,38021-13-20,38021/13,2924.242424242424,31.2580033706,34.7829385804,2006
2006-07-17,2006-07-17,"העלייה 68, באר שבע",העלייה 68,38069-1-13,דירה בבית קומות,3.0,שניה,56.0,202000,,,1960.0,,,9547806510,1,380691,False,,באר שבע,העליה,,38069-1-13,38069/1,3607.142857142857,31.256344827,34.7783349984,2006
2006-07-12,2006-12-07,"הפלס 1, באר שבע",הפלס 1,38141-26-1,תעשיה,,,100.0,215000,,,1980.0,,,9552580650,1,3814126,False,,באר שבע,הפלס,,38141-26-1,38141/26,2150.0,31.227724558,34.8111698453,2006
2006-07-09,2006-09-07,"שרעבי 17, באר שבע",שרעבי 17,38076-26-29,דירה בבית קומות,3.0,שניה,64.0,120000,,,1960.0,,3.0,10536899490,1,3807626,False,,באר שבע,שרעבי,,38076-26-29,38076/26,1875.0,31.2547892561,34.8120178491,2006
2006-07-05,2006-05-07,"בן-גוריון 10, באר שבע",בן-גוריון 10,38027-5-1,דירה בבית קומות,3.0,ראשונה,50.0,145000,,,1800.0,,,9544415310,1,380275,False,,באר שבע,בן גוריון,,38027-5-1,38027/5,2900.0,31.2600000814,34.8081671273,2006
2006-07-03,2006-03-07,,,38068-1-193,דירה בבית קומות,4.0,ראשונה,88.0,277000,,,1800.0,,,9542945250,2,380681,False,,באר שבע,קפריסין,,38068-1-193,38068/1,3147.7272727272725,31.2526849461,34.779672642,2006
2006-07-03,2006-03-07,"יעקב כהן 9, באר שבע",יעקב כהן 9,38074-149-29,דירה בבית קומות,5.0,שמינית,108.0,700000,,,2005.0,,9.0,9543493170,1,38074149,False,,באר שבע,כהן יעקב,,38074-149-29,38074/149,6481.481481481482,31.2540122092,34.7970244377,2006
2006-07-03,2006-03-07,"שמעון בר-גיורא 12, באר שבע",שמעון בר-גיורא 12,38079-47-14,דירה בבית קומות,3.0,שלישית,41.0,94000,,,1960.0,,3.0,9543072150,1,3807947,False,,באר שבע,שמעון בר גיורא,,38079-47-14,38079/47,2292.682926829268,31.2622961442,34.7921060772,2006
2006-07-03,2006-03-07,"רוטנברג 6, באר שבע",רוטנברג 6,38027-14-12,דירה בבית קומות,2.0,שלישית,38.2,174000,,,1960.0,,3.0,9542928150,1,3802714,False,,באר שבע,רוטנברג,,38027-14-12,38027/14,4554.973821989528,31.2593745695,34.8095776922,2006
2006-07-03,2006-03-07,"משה קהירי 8, באר שבע",משה קהירי 8,38367-7-34,דירה בבית קומות,3.0,ראשונה,71.9,360000,,,2005.0,,5.0,9543300840,1,383677,False,,באר שבע,קהירי,,38367-7-34,38367/7,5006.954102920723,31.2853094342,34.8010535196,2006
2006-06-26,2006-06-26,"אשר ברש 8, באר שבע",אשר ברש 8,38138-65-31,דירה בבית קומות,4.0,שישית,73.0,322000,,,1998.0,,7.0,9546420150,1,3813865,True,-11% ב 8.4 שנים,באר שבע,ברש אשר,-1.31,38138-65-31,38138/65,4410.958904109589,31.2402310498,34.7766946593,2006
2006-06-23,2006-06-23,"מונטיפיורי 31, באר שבע",מונטיפיורי 31,38023-2-16,דירה בבית קומות,3.0,,59.0,267000,,,1999.0,,1.0,9546492150,1,380232,False,,באר שבע,מונטיפיורי,,38023-2-16,38023/2,4525.423728813559,31.2497968315,34.7927497137,2006
2006-06-21,2006-06-21,"רוטנברג 6, באר שבע",רוטנברג 6,38027-14-7,דירה בבית קומות,2.0,ראשונה,38.2,210000,,,1960.0,,3.0,9547294680,1,3802714,True,-22% ב 2 שנים,באר שבע,רוטנברג,-11.0,38027-14-7,38027/14,5497.382198952879,31.2593745695,34.8095776922,2006
2006-06-21,2006-06-21,"רות סמילן 26, באר שבע",רות סמילן 26,38308-67-2,קוטג' דו משפחתי,2.0,,60.0,276000,,,1990.0,,1.0,9546890130,1,3830867,False,,באר שבע,סמילן רות,,38308-67-2,38308/67,4600.0,31.2227031163,34.7753684958,2006
2006-06-20,2006-06-20,"משה חובב 9, באר שבע",משה חובב 9,38302-15-1,דירה בבית קומות,3.0,ראשונה,60.0,210000,,,1985.0,,1.0,9547023690,1,3830215,False,,באר שבע,חובב משה,,38302-15-1,38302/15,3500.0,31.2204638088,34.7738520086,2006
2006-06-20,2006-06-20,"בר ניסן 19, באר שבע",בר ניסן 19,38187-44-72,דירה בבית קומות,4.0,חמישית,90.1,450000,,,2002.0,,15.0,9546517440,1,3818744,False,,באר שבע,בר ניסן,,38187-44-72,38187/44,4994.450610432853,31.2404340152,34.7634115362,2006
2006-06-20,2006-06-20,"המשחררים 14, באר שבע",המשחררים 14,38074-160-5,דירה בבית קומות,4.0,ראשונה,96.0,558000,,,2004.0,,17.0,9546553080,1,38074160,False,,באר שבע,המשחררים,,38074-160-5,38074/160,5812.5,31.2519313544,34.7951495936,2006
2006-06-20,2006-06-20,"אברהם אמיר 55, באר שבע",אברהם אמיר 55,38246-41-26,דירה בבית קומות,4.0,ראשונה,87.0,454000,,,2001.0,,5.0,9546645240,1,3824641,True,-15% ב 4.5 שנים,באר שבע,אמיר אברהם,-3.33,38246-41-26,38246/41,5218.390804597701,31.2775596153,34.8222987561,2006
2006-06-19,2006-06-19,"זמנהוף 24, באר שבע",זמנהוף 24,38175-60-1,דירה בבית קומות,3.0,ראשונה,60.0,206000,,,1994.0,,1.0,9547029720,1,3817560,False,,באר שבע,זמנהוף,,38175-60-1,38175/60,3433.333333333333,31.2647163486,34.7609954324,2006
2006-06-19,2006-06-19,"ביאליק 9, באר שבע",ביאליק 9,38074-14-14,דירה בבית קומות,3.0,שניה,56.0,274000,,,1970.0,,,9546829200,1,3807414,False,,באר שבע,ביאליק,,38074-14-14,38074/14,4892.857142857143,31.2549143866,34.7937346375,2006
2006-06-19,2006-06-19,"החיד""א 29, באר שבע","החיד""א 29",38118-16-2,דירה בבית קומות,3.0,ראשונה,62.8,194000,,,1970.0,,4.0,9547031160,1,3811816,False,,באר שבע,"החיד""א",,38118-16-2,38118/16,3089.171974522293,31.2528522848,34.7694067915,2006
2006-06-19,2006-06-19,"דבורה 8, באר שבע",דבורה 8,38006-2-1,דירה בבית קומות,3.0,ראשונה,60.0,197000,,,1995.0,,1.0,9547021530,1,380062,False,,באר שבע,דבורה,,38006-2-1,38006/2,3283.333333333333,31.2433271827,34.780355275,2006
2006-06-18,2006-06-18,"אהוד בן-גרא 2, באר שבע",אהוד בן-גרא 2,38006-114-3,דירה בבית קומות,3.0,ראשונה,105.0,390000,,,1963.0,,,9546240510,1,38006114,False,,באר שבע,אהוד בן גרא,,38006-114-3,38006/114,3714.285714285714,31.2409120405,34.7815085875,2006
2006-06-15,2006-06-15,"אלפרד פריד 27, באר שבע",אלפרד פריד 27,38157-92-1,דירה בבית קומות,4.0,,126.0,526000,,,1990.0,,1.0,9546259680,1,3815792,False,,באר שבע,פריד אלפרד,,38157-92-1,38157/92,4174.603174603175,31.2720707153,34.8028187902,2006
2006-06-13,2006-06-13,"ישראל ישעיהו 6, באר שבע",ישראל ישעיהו 6,38131-33-11,דירה בבית קומות,4.0,שלישית,82.8,291000,,,1990.0,,4.0,9546085980,1,3813133,False,,באר שבע,ישעיהו ישראל,,38131-33-11,38131/33,3514.4927536231885,31.2563747876,34.7640260087,2006
2006-06-12,2006-12-06,"זיסו 7, באר שבע",זיסו 7,38028-82-32,דירה בבית קומות,2.0,שניה,40.0,105000,,,1800.0,,,9552388410,1,3802882,False,,באר שבע,זיסו,,38028-82-32,38028/82,2625.0,31.2555318751,34.8090591719,2006
2006-06-09,2006-09-06,"אהוד בן-גרא 3, באר שבע",אהוד בן-גרא 3,38006-112-3,דירה בבית קומות,4.0,ראשונה,77.0,323000,,,1980.0,,1.0,9549508140,1,38006112,False,,באר שבע,אהוד בן גרא,,38006-112-3,38006/112,4194.805194805195,31.2407769427,34.7811784215,2006
2006-06-04,2006-04-06,"ישראל גלילי 28, באר שבע",ישראל גלילי 28,38368-11-22,דירה בבית קומות,3.0,קרקע,79.9,460000,,,2005.0,,5.0,9544068540,1,3836811,False,,באר שבע,גלילי ישראל,,38368-11-22,38368/11,5757.196495619524,31.2853150845,34.8044444756,2006
2006-06-03,2006-03-06,"מבצע נחשון 22, באר שבע",מבצע נחשון 22,38128-7-2,דירה בבית קומות,3.0,קרקע,69.0,187000,,,1970.0,,3.0,9543146400,1,381287,False,,באר שבע,מבצע נחשון,,38128-7-2,38128/7,2710.144927536232,31.2592424223,34.7831519527,2006
2006-06-02,2006-02-06,"זמנהוף 19, באר שבע",זמנהוף 19,38175-28-11,קוטג' דו משפחתי,5.0,קרקע ראשונה,98.0,587000,,,1995.0,,1.0,9542179710,1,3817528,False,,באר שבע,זמנהוף,,38175-28-11,38175/28,5989.7959183673465,31.264716588,34.7615270834,2006
2006-06-01,2006-01-06,"פסמון 1, באר שבע",פסמון 1,38081-31-7,דירה בבית קומות,3.0,,75.0,182000,,,1996.0,,,9541042920,1,3808131,False,,באר שבע,פסמון,,38081-31-7,38081/31,2426.6666666666665,31.2496786969,34.7786635171,2006
2006-05-31,2006-05-31,"נחום שריג 41, באר שבע",נחום שריג 41,38368-18-10,דירה בבית קומות,4.0,שלישית,93.0,460000,,,2005.0,,5.0,9545774130,1,3836818,False,,באר שבע,שריג נחום,,38368-18-10,38368/18,4946.236559139785,31.284764986,34.805521102,2006
2006-05-30,2006-05-30,"שמריהו לוין 13, באר שבע",שמריהו לוין 13,38015-30-28,משרד,,חמישית,1074.0,3788000,,,1982.0,,5.0,9546851520,1,3801530,False,,באר שבע,לוין שמריהו,,38015-30-28,38015/30,3527.0018621973927,31.2450955648,34.7966685152,2006
2006-05-30,2006-05-30,"סוסיה 8, באר שבע",סוסיה 8,38111-201-110,דירה בבית קומות,4.0,קומה ‎4‏,93.0,495000,,,2005.0,,10.0,9545877270,1,38111201,False,,באר שבע,סוסיה,,38111-201-110,38111/201,5322.580645161291,31.2448368207,34.7732079901,2006
2006-05-29,2006-05-29,"ישראל גלילי 24, באר שבע",ישראל גלילי 24,38368-12-8,דירה בבית קומות,4.0,רביעית,84.0,450000,,,2003.0,,6.0,9546106140,1,3836812,False,,באר שבע,גלילי ישראל,,38368-12-8,38368/12,5357.142857142857,31.2848617092,34.8043475577,2006
2006-05-29,2006-05-29,"גמל 15, באר שבע",גמל 15,38058-1-28,דירה בבית קומות,3.0,שלישית,54.5,155000,,,1970.0,,3.0,9545789700,1,380581,False,,באר שבע,גמל,,38058-1-28,38058/1,2844.0366972477063,31.2487189013,34.7792235087,2006
2006-05-29,2006-05-29,"עגנון 4, באר שבע",עגנון 4,38081-1-70,דירה בבית קומות,4.0,שניה,91.0,338000,,,1980.0,,14.0,9545636790,1,380811,False,,באר שבע,עגנון,,38081-1-70,38081/1,3714.285714285714,31.2527808896,34.7775180397,2006
2006-05-28,2006-05-28,"הנרי קנדל 10, באר שבע",הנרי קנדל 10,38035-60-353,דירה בבית קומות,6.0,ארבע עשרה,130.0,564000,,,2000.0,,18.0,9545549220,1,3803560,False,,באר שבע,קנדל הנרי,,38035-60-353,38035/60,4338.461538461538,31.2452471681,34.7832342939,2006
2006-05-28,2006-05-28,"דבורה 12, באר שבע",דבורה 12,38006-3-1,דירה בבית קומות,4.0,שניה,96.0,320000,,,1800.0,,1.0,9546071130,1,380063,False,,באר שבע,דבורה,,38006-3-1,38006/3,3333.333333333333,31.243435346,34.780452997,2006
2006-05-28,2006-05-28,"ישראל גלילי 22, באר שבע",ישראל גלילי 22,38368-12-15,דירה בבית קומות,4.0,שניה,90.0,480000,,,2003.0,,6.0,9546106770,1,3836812,False,,באר שבע,גלילי ישראל,,38368-12-15,38368/12,5333.333333333333,31.2848617092,34.8043475577,2006
2006-05-25,2006-05-25,"אהוד בן-גרא 6, באר שבע",אהוד בן-גרא 6,38006-116-21,דירה בבית קומות,4.0,,89.0,410000,,,1960.0,,1.0,9546057810,1,38006116,False,,באר שבע,אהוד בן גרא,,38006-116-21,38006/116,4606.741573033708,31.2410840394,34.7812508596,2006
2006-05-25,2006-05-25,"הנרי קנדל 10, באר שבע",הנרי קנדל 10,38035-60-354,דירה בבית קומות,4.0,,100.0,605000,,,2000.0,,18.0,9545426640,1,3803560,False,,באר שבע,קנדל הנרי,,38035-60-354,38035/60,6050.0,31.2452471681,34.7832342939,2006
2006-05-25,2006-05-25,"עגנון 4, באר שבע",עגנון 4,38081-1-71,דירה בבית קומות,3.0,,71.0,226000,,,1980.0,,14.0,9545419890,1,380811,False,,באר שבע,עגנון,,38081-1-71,38081/1,3183.098591549296,31.2527808896,34.7775180397,2006
2006-05-24,2006-05-24,"ורד 24, באר שבע",ורד 24,38185-41-1,דירה בבית קומות,,,200.0,722000,,,1983.0,,,9545402070,1,3818541,False,,באר שבע,ורד,,38185-41-1,38185/41,3610.0,31.2310175415,34.7787027654,2006
2006-05-23,2006-05-23,"המשחררים 14, באר שבע",המשחררים 14,38074-160-43,דירה בבית קומות,4.0,שמינית,98.0,560000,,,2004.0,,17.0,9545922720,1,38074160,False,,באר שבע,המשחררים,,38074-160-43,38074/160,5714.285714285715,31.2519313544,34.7951495936,2006
2006-05-22,2006-05-22,"יסקי 9, באר שבע",יסקי 9,38035-17-1,דירה בבית קומות,4.0,,95.0,242000,,,1970.0,,,9545601870,1,3803517,False,,באר שבע,יסקי,,38035-17-1,38035/17,2547.368421052632,31.2430717578,34.7867499623,2006
2006-05-19,2006-05-19,"פרופ' שיבא 3, באר שבע",פרופ' שיבא 3,38182-45-3,דירה בבית קומות,5.0,ראשונה,169.0,691000,,,1990.0,,1.0,9545197320,1,3818245,False,,באר שבע,פרופ' שיבא,,38182-45-3,38182/45,4088.757396449704,31.2603631106,34.7594067662,2006
2006-05-15,2006-05-15,"יעקב כהן 9, באר שבע",יעקב כהן 9,38074-149-70,דירה בבית קומות,5.0,חמישית,108.0,684000,,,2005.0,,9.0,9545162310,1,38074149,False,,באר שבע,כהן יעקב,,38074-149-70,38074/149,6333.333333333333,31.2540122092,34.7970244377,2006
2006-05-15,2006-05-15,"השלום 105, באר שבע",השלום 105,38028-77-10,דירה בבית קומות,2.0,רביעית,38.0,102000,,,1960.0,,1.0,9545315940,1,3802877,False,,באר שבע,השלום,,38028-77-10,38028/77,2684.2105263157896,31.2553196467,34.8100710996,2006
2006-05-13,2006-05-13,"רחל אימנו 20, באר שבע",רחל אימנו 20,38377-19-40,דירה בבית קומות,3.0,ראשונה,74.0,299000,,,1998.0,,4.0,9547835310,1,3837719,False,,באר שבע,רחל אמנו,,38377-19-40,38377/19,4040.540540540541,31.2698078807,34.7658983704,2006
2006-05-11,2006-11-05,"יפתח הגלעדי 12, באר שבע",יפתח הגלעדי 12,38006-101-11,דירה בבית קומות,4.0,שניה,98.0,343000,,,2007.0,,,9551218860,1,38006101,False,,באר שבע,יפתח הגלעדי,,38006-101-11,38006/101,3500.0,31.2409857349,34.7805309126,2006
2006-05-04,2006-04-05,"לאה 9, באר שבע",לאה 9,38385-3-16,דירה בבית קומות,4.0,ראשונה,95.0,359000,,,1996.0,,3.0,9543395160,1,383853,False,,באר שבע,לאה,,38385-3-16,38385/3,3778.947368421053,31.2679930167,34.7609862995,2006
2006-05-03,2006-03-05,"גומא 17, באר שבע",גומא 17,38318-3-2,דירה בבית קומות,6.0,ראשונה,160.0,800000,,,2005.0,,1.0,9543546630,1,383183,False,,באר שבע,גומא,,38318-3-2,38318/3,5000.0,31.2320903926,34.7857611168,2006
2006-05-03,2006-03-05,"נגבה 83, באר שבע",נגבה 83,38006-34-4,דירה בבית קומות,3.0,שביעית,89.0,170000,,,1970.0,,1.0,9547043040,1,3800634,False,,באר שבע,נגבה,,38006-34-4,38006/34,1910.112359550562,31.2424527107,34.7807591728,2006
2006-05-01,2006-01-05,"המשחררים 14, באר שבע",המשחררים 14,38074-160-8,דירה בבית קומות,4.0,ראשונה,96.0,620000,,,2004.0,,17.0,9541828440,1,38074160,False,,באר שבע,המשחררים,,38074-160-8,38074/160,6458.333333333333,31.2519313544,34.7951495936,2006
2006-04-30,2006-04-30,"הרב עוזיאל 1, באר שבע",הרב עוזיאל 1,38104-30-15,דירה בבית קומות,3.0,רביעית,61.0,144000,,,1970.0,,4.0,9544358160,1,3810430,False,,באר שבע,הרב עוזיאל,,38104-30-15,38104/30,2360.655737704918,31.2547146268,34.7709316634,2006
2006-04-30,2006-04-30,"משה קהירי 35, באר שבע",משה קהירי 35,38367-13-39,דירה בבית קומות,3.0,שניה,82.2,400000,,,2008.0,,6.0,9545301180,1,3836713,False,,באר שבע,קהירי,,38367-13-39,38367/13,4866.1800486618,31.2830395699,34.8021349962,2006
2006-04-28,2006-04-28,"הרב יוסף סוסו הכהן 4, באר שבע",הרב יוסף סוסו הכהן 4,38073-101-25,דירה בבית קומות,2.0,קרקע,40.5,162000,,,1960.0,,3.0,9544709430,1,38073101,False,,באר שבע,הרב סוסו יוסף,,38073-101-25,38073/101,4000.0,31.2662503335,34.7972080494,2006
2006-04-28,2006-04-28,"מוצא 9, באר שבע",מוצא 9,38111-109-69,דירה בבית קומות,4.0,ראשונה,90.0,540000,,,2002.0,,9.0,9544459860,1,38111109,False,3% ב 4.3 שנים,באר שבע,מוצא,0.7,38111-109-69,38111/109,6000.0,31.245074087,34.7693075804,2006
2006-04-27,2006-04-27,"חז""ל 88, באר שבע","חז""ל 88",38071-1-16,דירה בבית קומות,4.0,,88.0,219000,,,1970.0,,,9545563350,1,380711,False,,באר שבע,"חז""ל",,38071-1-16,38071/1,2488.6363636363635,31.2577584424,34.7905175695,2006
2006-04-26,2006-04-26,"מונטיפיורי 31, באר שבע",מונטיפיורי 31,38023-2-17,דירה בבית קומות,3.0,שלישית,68.0,186000,,,1999.0,,1.0,9544372200,1,380232,False,,באר שבע,מונטיפיורי,,38023-2-17,38023/2,2735.294117647059,31.2497968315,34.7927497137,2006
2006-04-26,2006-04-26,"פורת קלמן 11, באר שבע",פורת קלמן 11,38365-7-19,דירה בבית קומות,4.0,שניה,83.8,458000,,,2006.0,,5.0,9544787280,1,383657,False,,באר שבע,פורת קלמן,,38365-7-19,38365/7,5465.393794749403,31.2854375414,34.8050739737,2006
2006-04-25,2006-04-25,"רמב""ם 60, באר שבע","רמב""ם 60",38035-39-35,דירה בבית קומות,4.0,שניה,103.7,363000,,,1970.0,,7.0,9544849830,1,3803539,False,,באר שבע,"רמב""ם",,38035-39-35,38035/39,3500.4821600771456,31.2447068789,34.7869271944,2006
2006-04-25,2006-04-25,"הנרי קנדל 10, באר שבע",הנרי קנדל 10,38035-60-355,דירה בבית קומות,5.5,אחת עשרה,158.0,645000,,,2000.0,,18.0,9544456890,1,3803560,False,,באר שבע,קנדל הנרי,,38035-60-355,38035/60,4082.278481012658,31.2452471681,34.7832342939,2006
2006-04-24,2006-04-24,"נגבה 56, באר שבע",נגבה 56,38006-163-8,דירה בבית קומות,4.0,,97.0,331000,,,1997.0,,,9544022640,1,38006163,False,,באר שבע,נגבה,,38006-163-8,38006/163,3412.3711340206187,31.2422790637,34.7817295586,2006
2006-04-23,2006-04-23,"המשחררים 14, באר שבע",המשחררים 14,38074-160-77,דירה בבית קומות,4.0,חמש עשרה,96.0,579000,,,2004.0,,17.0,9544658940,1,38074160,False,,באר שבע,המשחררים,,38074-160-77,38074/160,6031.25,31.2519313544,34.7951495936,2006
2006-04-20,2006-04-20,"ישראל גלילי 19, באר שבע",ישראל גלילי 19,38368-5-10,דירה בבית קומות,5.0,ראשונה,121.0,539000,,,2006.0,,2.0,9544990680,1,383685,False,,באר שבע,גלילי ישראל,,38368-5-10,38368/5,4454.545454545455,31.284320304,34.8036935535,2006
2006-04-20,2006-04-20,"מצדה 38, באר שבע",מצדה 38,38075-78-13,דירת נופש,3.0,ראשונה,56.0,173000,,,1970.0,,3.0,9543981690,1,3807578,False,,באר שבע,מצדה,,38075-78-13,38075/78,3089.285714285714,31.2586284633,34.7917139333,2006
2006-04-20,2006-04-20,"וינגייט 1, באר שבע",וינגייט 1,38028-95-1,חנות,,,48.0,114000,,,1960.0,,1.0,9544161420,1,3802895,False,,באר שבע,וינגייט,,38028-95-1,38028/95,2375.0,31.256218772,34.8104398821,2006
2006-04-16,2006-04-16,"ישראל גלילי 19, באר שבע",ישראל גלילי 19,38368-5-1,דירה בבית קומות,6.0,ראשונה,164.0,623000,,,2006.0,,2.0,9544986990,1,383685,False,,באר שבע,גלילי ישראל,,38368-5-1,38368/5,3798.7804878048782,31.284320304,34.8036935535,2006
2006-04-12,2006-12-04,"ברנע דב 31, באר שבע",ברנע דב 31,38367-9-46,דירה בבית קומות,4.0,ראשונה,102.0,560000,,,2007.0,,2.0,9552847320,1,383679,False,,באר שבע,ברנע דב,,38367-9-46,38367/9,5490.196078431372,31.2850705815,34.8026559212,2006
2006-04-12,2006-12-04,"אוסקר שינדלר 18, באר שבע",אוסקר שינדלר 18,38367-16-29,דירה בבית קומות,4.0,שניה,110.0,455000,,,2003.0,,4.0,9552174300,1,3836716,False,,באר שבע,שינדלר אוסקר,,38367-16-29,38367/16,4136.363636363636,31.2831770499,34.8008648292,2006
2006-04-05,2006-05-04,"ויצמן 19, באר שבע",ויצמן 19,38025-2-2,דירה בבית קומות,3.0,ראשונה,61.82,269000,,,1970.0,,4.0,9545074650,1,380252,False,,באר שבע,ויצמן,,38025-2-2,38025/2,4351.3426075703655,31.2482730955,34.7929319777,2006
2006-04-05,2006-05-04,"מיכאל הנגבי 11, באר שבע",מיכאל הנגבי 11,38368-13-8,דירה בבית קומות,4.5,רביעית,93.5,525000,,,2002.0,,7.0,9544785840,1,3836813,False,,באר שבע,הנגבי,,38368-13-8,38368/13,5614.973262032086,31.2841359487,34.8042372909,2006
2006-04-04,2006-04-04,"מבצע עובדה 19, באר שבע",מבצע עובדה 19,38094-44-31,דירה בבית קומות,4.0,שמינית,80.6,200000,,,1970.0,,8.0,9544341780,1,3809444,False,,באר שבע,מבצע עובדה,,38094-44-31,38094/44,2481.389578163772,31.2592905291,34.7776291578,2006
2006-04-04,2006-04-04,"דוד ילין 61, באר שבע",דוד ילין 61,38158-130-2,דירה בבית קומות,3.0,,70.0,417000,,,1991.0,,1.0,9543932820,1,38158130,False,,באר שבע,ילין דוד,,38158-130-2,38158/130,5957.142857142857,31.2717613855,34.8057264803,2006
2006-04-04,2006-04-04,"הנרי קנדל 10, באר שבע",הנרי קנדל 10,38035-60-356,דירה בבית קומות,5.0,שלוש עשרה,134.0,657000,,,2000.0,,18.0,9543891870,1,3803560,False,,באר שבע,קנדל הנרי,,38035-60-356,38035/60,4902.985074626866,31.2452471681,34.7832342939,2006
2006-04-01,2006-01-04,"האיילה 9, באר שבע",האיילה 9,38081-7-4,דירה בבית קומות,3.0,שניה,65.1,470000,,,1970.0,,4.0,9540733860,1,380817,False,,באר שבע,האיילה,,38081-7-4,38081/7,7219.662058371737,31.2510825148,34.7770917593,2006
2006-04-01,2006-01-04,"השלום 98, באר שבע",השלום 98,38076-1-12,דירה בבית קומות,4.0,שלישית,94.0,265000,,,1970.0,,2.0,9543003840,1,380761,False,,באר שבע,השלום,,38076-1-12,38076/1,2819.148936170213,31.2570715551,34.8115903051,2006
2006-04-01,2006-01-04,"העלייה 68, באר שבע",העלייה 68,38069-1-15,דירה בבית קומות,3.0,,56.0,128000,,,1960.0,,,9540599490,1,380691,False,,באר שבע,העליה,,38069-1-15,38069/1,2285.714285714286,31.256344827,34.7783349984,2006
2006-03-30,2006-03-30,"רוטנברג 15, באר שבע",רוטנברג 15,38027-10-26,דירה בבית קומות,2.0,קרקע,34.2,122000,,,1960.0,,3.0,9546527790,1,3802710,False,,באר שבע,רוטנברג,,38027-10-26,38027/10,3567.251461988304,31.2589736057,34.80846268,2006
2006-03-30,2006-03-30,"סוסיה 6, באר שבע",סוסיה 6,38111-201-61,דירה בבית קומות,4.0,קומה ‎4‏,93.0,510000,,,2005.0,,10.0,9544066200,1,38111201,False,,באר שבע,סוסיה,,38111-201-61,38111/201,5483.870967741936,31.2448368207,34.7732079901,2006
2006-03-30,2006-03-30,"הנרי קנדל 10, באר שבע",הנרי קנדל 10,38035-60-357,דירה בבית קומות,5.0,שמינית,134.0,650000,,,2000.0,,18.0,9543899340,1,3803560,False,,באר שבע,קנדל הנרי,,38035-60-357,38035/60,4850.746268656716,31.2452471681,34.7832342939,2006
2006-03-28,2006-03-28,"אופירה 16, באר שבע",אופירה 16,38111-120-1,בית בודד,6.0,,173.0,833000,,,1998.0,,,9543619350,1,38111120,False,,באר שבע,אופירה,,38111-120-1,38111/120,4815.028901734104,31.2443263661,34.7711605451,2006
2006-03-27,2006-03-27,"יד ושם 4, באר שבע",יד ושם 4,38030-15-96,דירה בבית קומות,2.0,,50.0,187000,,,1960.0,,3.0,9543646080,1,3803015,False,,באר שבע,יד ושם,,38030-15-96,38030/15,3740.0,31.2521496443,34.8034240066,2006
2006-03-27,2006-03-27,"אברהם אמיר 2, באר שבע",אברהם אמיר 2,38247-74-8,דירה בבית קומות,4.0,שלישית,92.0,491000,,,2004.0,,5.0,9543992850,1,3824774,True,-8% ב 2.7 שנים,באר שבע,אמיר אברהם,-2.96,38247-74-8,38247/74,5336.95652173913,31.2764652655,34.8220648822,2006
2006-03-24,2006-03-24,"נגבה 48, באר שבע",נגבה 48,38006-159-6,דירה בבית קומות,4.0,שישית,85.0,318000,,,1996.0,,,9543442500,1,38006159,False,,באר שבע,נגבה,,38006-159-6,38006/159,3741.176470588235,31.241933316,34.7822386136,2006
2006-03-23,2006-03-23,"התיבונים 3, באר שבע",התיבונים 3,38325-61-1,דירה בבית קומות,6.0,ראשונה,180.0,1055000,,,1995.0,,1.0,9545249160,1,3832561,False,,באר שבע,התיבונים,,38325-61-1,38325/61,5861.111111111111,31.2513936902,34.7620497782,2006
2006-03-23,2006-03-23,"יוסף שטרן 7, באר שבע",יוסף שטרן 7,38375-23-2,חנות,,קרקע,40.5,390000,,,2000.0,,5.0,9543484260,1,3837523,False,7% ב 3.7 שנים,באר שבע,שטרן יוסף,1.89,38375-23-2,38375/23,9629.62962962963,31.2799258915,34.8000449792,2006
2006-03-22,2006-03-22,"נחום גולדמן 47, באר שבע",נחום גולדמן 47,38373-6-30,דירה בבית קומות,4.0,,102.0,442000,,,2004.0,,3.0,9544335840,1,383736,False,,באר שבע,גולדמן נחום,,38373-6-30,38373/6,4333.333333333333,31.2812261833,34.8028416658,2006
2006-03-22,2006-03-22,"הרב שלמה טנא 12, באר שבע",הרב שלמה טנא 12,38389-45-29,דירה בבית קומות,4.0,קומה ‎7‏,88.0,475000,,,2007.0,,14.0,9543580830,1,3838945,False,,באר שבע,הרב טנא שלמה,,38389-45-29,38389/45,5397.727272727273,31.2338206201,34.7836443819,2006
2006-03-21,2006-03-21,"מיכאל חזני 40, באר שבע",מיכאל חזני 40,38106-9-7,דירה בבית קומות,4.0,שלישית,87.0,274000,,,1990.0,,3.0,9543934260,1,381069,False,,באר שבע,חזני מיכאל,,38106-9-7,38106/9,3149.425287356322,31.262707843,34.7703922173,2006
2006-03-20,2006-03-20,"יצחק ויטנברג 9, באר שבע",יצחק ויטנברג 9,38316-17-2,קוטג' דו משפחתי,3.0,,60.0,291000,,,1970.0,,1.0,9544087800,1,3831617,False,,באר שבע,ויטנברג יצחק,,38316-17-2,38316/17,4850.0,31.2247727121,34.7801631905,2006
2006-03-19,2006-03-19,"יהושע ייבין 17, באר שבע",יהושע ייבין 17,38187-55-7,דירה בבית קומות,5.0,שניה,103.0,470000,,,2003.0,,5.0,9543678840,1,3818755,True,-17% ב 2.3 שנים,באר שבע,ייבין יהושע,-7.39,38187-55-7,38187/55,4563.1067961165045,31.2390654511,34.7658583614,2006
2006-03-19,2006-03-19,"מיכאל הנגבי 13, באר שבע",מיכאל הנגבי 13,38368-13-19,דירה בבית קומות,4.0,רביעית,89.3,490000,,,2002.0,,7.0,9543495510,1,3836813,False,,באר שבע,הנגבי,,38368-13-19,38368/13,5487.122060470325,31.2841359487,34.8042372909,2006
2006-03-17,2006-03-17,"נגבה 54, באר שבע",נגבה 54,38006-162-11,דירה בבית קומות,4.0,חמישית,110.0,429000,,,1980.0,,1.0,9543516120,1,38006162,False,,באר שבע,נגבה,,38006-162-11,38006/162,3900.0,31.2421921355,34.7818564194,2006
2006-03-17,2006-03-17,"זיסו 7, באר שבע",זיסו 7,38028-82-33,דירה בבית קומות,3.0,,70.0,215000,,,1997.0,,,9543602970,1,3802882,False,,באר שבע,זיסו,,38028-82-33,38028/82,3071.428571428572,31.2555318751,34.8090591719,2006
2006-03-15,2006-03-15,"ריכרד שטיין 9, באר שבע",ריכרד שטיין 9,38133-187-2,דירה בבית קומות,5.0,ראשונה,120.0,648000,,,1995.0,,1.0,9543514500,1,38133187,False,,באר שבע,שטיין ריכרד,,38133-187-2,38133/187,5400.0,31.2657068237,34.7711270192,2006
2006-03-15,2006-03-15,"נגבה 83, באר שבע",נגבה 83,38006-34-3,דירה בבית קומות,3.0,שישית,88.0,166000,,,1970.0,,1.0,9547461180,1,3800634,False,,באר שבע,נגבה,,38006-34-3,38006/34,1886.3636363636365,31.2424527107,34.7807591728,2006
2006-03-14,2006-03-14,"משה קהירי 40, באר שבע",משה קהירי 40,38367-19-11,דירה בבית קומות,4.0,שלישית,104.4,590000,,,2005.0,,5.0,9543882240,1,3836719,False,,באר שבע,קהירי,,38367-19-11,38367/19,5651.340996168582,31.2836492265,34.8014234026,2006
2006-03-13,2006-03-13,"נגבה 54, באר שבע",נגבה 54,38006-162-12,חנות,,,63.0,447000,,,1980.0,,1.0,9543202830,1,38006162,False,,באר שבע,נגבה,,38006-162-12,38006/162,7095.238095238095,31.2421921355,34.7818564194,2006
2006-03-13,2006-03-13,"ברנע דב 23, באר שבע",ברנע דב 23,38367-9-8,דירת גג,6.0,ראשונה שניה,132.0,650000,,,2005.0,,3.0,9543317220,1,383679,False,,באר שבע,ברנע דב,,38367-9-8,38367/9,4924.242424242424,31.2850705815,34.8026559212,2006
2006-03-13,2006-03-13,"חיים יחיל 10, באר שבע",חיים יחיל 10,38013-19-65,משרד,,שמינית,309.0,1702000,,,1970.0,,2.0,9543466440,1,3801319,False,,באר שבע,יחיל חיים,,38013-19-65,38013/19,5508.090614886732,31.2430567596,34.7990852302,2006
2006-03-12,2006-12-03,"יד ושם 4, באר שבע",יד ושם 4,38030-15-94,דירה בבית קומות,2.0,,54.0,165000,,,1960.0,,3.0,9630662490,1,3803015,False,,באר שבע,יד ושם,,38030-15-94,38030/15,3055.555555555556,31.2521496443,34.8034240066,2006
2006-03-07,2006-07-03,"קלישר 21, באר שבע",קלישר 21,38076-39-15,דירה בבית קומות,1.0,שניה,30.0,76000,,,1970.0,,2.0,9547018650,1,3807639,False,,באר שבע,קלישר,,38076-39-15,38076/39,2533.333333333333,31.2539204633,34.8113431687,2006
2006-03-07,2006-07-03,"בר-אילן 10, באר שבע",בר-אילן 10,38025-50-2,דירה בבית קומות,3.0,ראשונה,80.0,238000,,,1953.0,,,9547072830,1,3802550,False,,באר שבע,בר אילן,,38025-50-2,38025/50,2975.0,31.2459196435,34.7934504732,2006
2006-03-07,2006-07-03,"נגבה 71, באר שבע",נגבה 71,38006-149-5,דירה בבית קומות,4.0,חמישית,94.0,428000,,,1959.0,,1.0,9546739470,1,38006149,False,,באר שבע,נגבה,,38006-149-5,38006/149,4553.191489361702,31.2420132867,34.7814080534,2006
2006-03-04,2006-04-03,"יעקב כהן 9, באר שבע",יעקב כהן 9,38074-149-64,דירה בבית קומות,5.0,שלישית,110.0,708000,,,2005.0,,9.0,9543885210,1,38074149,False,,באר שבע,כהן יעקב,,38074-149-64,38074/149,6436.363636363636,31.2540122092,34.7970244377,2006
2006-03-04,2006-04-03,"אהוד בן-גרא 13, באר שבע",אהוד בן-גרא 13,38006-107-4,דירה בבית קומות,3.0,רביעית,89.0,331000,,,1996.0,,,9543931200,1,38006107,False,,באר שבע,אהוד בן גרא,,38006-107-4,38006/107,3719.1011235955057,31.2412141884,34.7805319442,2006
2006-03-02,2006-02-03,"הנרי קנדל 10, באר שבע",הנרי קנדל 10,38035-60-359,דירה בבית קומות,5.0,חמישית,109.0,620000,,,2000.0,,18.0,9542544210,1,3803560,False,,באר שבע,קנדל הנרי,,38035-60-359,38035/60,5688.073394495413,31.2452471681,34.7832342939,2006
2006-03-02,2006-02-03,"גמל 15, באר שבע",גמל 15,38058-1-96,דירה בבית קומות,4.0,שלישית,85.0,253000,,,1970.0,,3.0,9542114280,1,380581,False,,באר שבע,גמל,,38058-1-96,38058/1,2976.470588235294,31.2487189013,34.7792235087,2006
2006-03-01,2006-01-03,"גמל 15, באר שבע",גמל 15,38058-1-98,דירה בבית קומות,4.0,,100.0,478000,,,1970.0,,3.0,9540824400,1,380581,False,,באר שבע,גמל,,38058-1-98,38058/1,4780.0,31.2487189013,34.7792235087,2006
2006-03-01,2006-01-03,"הנגרים 20, באר שבע",הנגרים 20,38014-20-3,חנות,,,235.0,588000,,,1990.0,,,9542157390,1,3801420,False,,באר שבע,הנגרים,,38014-20-3,38014/20,2502.127659574468,31.2429982826,34.8054795326,2006
2006-02-28,2006-02-28,"גמל 15, באר שבע",גמל 15,38058-1-95,דירה בבית קומות,3.0,שלישית,76.0,207000,,,1970.0,,3.0,9542674890,1,380581,False,,באר שבע,גמל,,38058-1-95,38058/1,2723.684210526316,31.2487189013,34.7792235087,2006
2006-02-28,2006-02-28,"נחום גולדמן 47, באר שבע",נחום גולדמן 47,38373-6-2,דירה בבית קומות,4.0,שלישית,96.0,441000,,,2004.0,,3.0,9543297150,1,383736,False,,באר שבע,גולדמן נחום,,38373-6-2,38373/6,4593.75,31.2812261833,34.8028416658,2006
2006-02-27,2006-02-27,"קדושי יאסי 10, באר שבע",קדושי יאסי 10,38176-50-1,דירה בבית קומות,3.0,ראשונה,60.0,205000,,,1993.0,,1.0,9547036290,1,3817650,False,,באר שבע,קדושי יאסי,,38176-50-1,38176/50,3416.6666666666665,31.2661079511,34.7605740798,2006
2006-02-27,2006-02-27,"שח""ל 13, באר שבע","שח""ל 13",38025-143-3,דירה בבית קומות,4.0,קרקע וראשונה,109.6,362000,,,1950.0,,1.0,9542694330,1,38025143,False,,באר שבע,"שח""ל",,38025-143-3,38025/143,3302.9197080291974,31.2455255128,34.795318674,2006
2006-02-27,2006-02-27,"אפרים לוזון 47, באר שבע",אפרים לוזון 47,38178-67-1,דירה בבית קומות,3.0,ראשונה,60.0,199000,,,1995.0,,1.0,9547026660,1,3817867,False,,באר שבע,לוזון אפרים,,38178-67-1,38178/67,3316.6666666666665,31.2657244413,34.7585460329,2006
2006-02-27,2006-02-27,"רודולף בלוך 5, באר שבע",רודולף בלוך 5,38161-162-1,דירה בבית קומות,3.0,ראשונה,60.0,447000,,,1970.0,,1.0,9542657790,1,38161162,False,,באר שבע,בלוך רודולף,,38161-162-1,38161/162,7450.0,31.2714902537,34.8084299005,2006
2006-02-27,2006-02-27,"גומא 17, באר שבע",גומא 17,38318-3-1,דירה בבית קומות,6.0,ראשונה,145.0,770000,,,2005.0,,1.0,9542999430,1,383183,False,,באר שבע,גומא,,38318-3-1,38318/3,5310.344827586207,31.2320903926,34.7857611168,2006
2006-02-26,2006-02-26,"חיים יחיל 10, באר שבע",חיים יחיל 10,38013-19-66,משרד,,עשירית,182.0,834000,,,1970.0,,2.0,9542889450,1,3801319,False,,באר שבע,יחיל חיים,,38013-19-66,38013/19,4582.417582417583,31.2430567596,34.7990852302,2006
2006-02-23,2006-02-23,"שומרון 62, באר שבע",שומרון 62,38321-36-13,חנות,,קרקע,22.6,84000,,,1994.0,,,9543245040,1,3832136,False,,באר שבע,שומרון,,38321-36-13,38321/36,3716.814159292035,31.2458279221,34.7654277541,2006
2006-02-23,2006-02-23,"סוסיה 6, באר שבע",סוסיה 6,38111-201-53,דירה בבית קומות,4.0,קומה ‎2‏,93.0,495000,,,2005.0,,10.0,9542681640,1,38111201,False,,באר שבע,סוסיה,,38111-201-53,38111/201,5322.580645161291,31.2448368207,34.7732079901,2006
2006-02-22,2006-02-22,"אבשלום פיינברג 20, באר שבע",אבשלום פיינברג 20,38177-17-1,דירה בבית קומות,3.0,ראשונה,60.0,215000,,,1990.0,,1.0,9547017930,1,3817717,False,,באר שבע,פיינברג אבשלום,,38177-17-1,38177/17,3583.333333333333,31.2662249383,34.7597778132,2006
2006-02-22,2006-02-22,"ישראל גלילי 30, באר שבע",ישראל גלילי 30,38368-11-14,דירה בבית קומות,4.0,שניה,91.0,485000,,,2005.0,,5.0,9542683800,1,3836811,False,,באר שבע,גלילי ישראל,,38368-11-14,38368/11,5329.67032967033,31.2853150845,34.8044444756,2006
2006-02-20,2006-02-20,"המעפילים 30, באר שבע",המעפילים 30,38031-1-1,חנות,,,21.0,140000,,,1800.0,,,9542367450,1,380311,False,,באר שבע,המעפילים,,38031-1-1,38031/1,6666.666666666667,31.2513590038,34.8075584329,2006
2006-02-20,2006-02-20,"שרעבי 5, באר שבע",שרעבי 5,38076-22-2,דירה בבית קומות,2.0,רביעית,50.0,153000,,,1995.0,,1.0,9544093110,1,3807622,False,,באר שבע,שרעבי,,38076-22-2,38076/22,3060.0,31.255116657,34.8116351428,2006
2006-02-19,2006-02-19,"גרשון שופמן 6, באר שבע",גרשון שופמן 6,38138-86-108,דירה בבית קומות,5.0,שישית,111.77,480000,,,2000.0,,6.0,9542548710,1,3813886,False,,באר שבע,שופמן גרשון,,38138-86-108,38138/86,4294.53341683815,31.2389812843,34.7750018071,2006
2006-02-17,2006-02-17,"ילין-מור 23, באר שבע",ילין-מור 23,38247-72-16,דירת גן,4.0,ראשונה,109.0,727000,,,2001.0,,1.0,9542555280,1,3824772,False,58% ב 4.1 שנים,באר שבע,ילין-מור,14.15,38247-72-16,38247/72,6669.724770642202,31.2750650992,34.8226802111,2006
2006-02-15,2006-02-15,"הנרי קנדל 10, באר שבע",הנרי קנדל 10,38035-60-358,דירה בבית קומות,4.0,שתים עשרה,96.0,600000,,,2000.0,,18.0,9542544930,1,3803560,False,,באר שבע,קנדל הנרי,,38035-60-358,38035/60,6250.0,31.2452471681,34.7832342939,2006
2006-02-13,2006-02-13,"הזוהר 20, באר שבע",הזוהר 20,38090-103-1,דירה בבית קומות,5.0,ראשונה,100.0,465000,,,1990.0,,1.0,9542406870,1,38090103,False,,באר שבע,הזוהר,,38090-103-1,38090/103,4650.0,31.2713541485,34.7883343485,2006
2006-02-13,2006-02-13,"לב דוידוביץ 27, באר שבע",לב דוידוביץ 27,38157-134-1,דירה בבית קומות,5.0,ראשונה,120.0,423000,,,1980.0,,1.0,9542614590,1,38157134,False,,באר שבע,דוידוביץ לב,,38157-134-1,38157/134,3525.0,31.2730415819,34.8022021712,2006
2006-02-07,2006-07-02,"מבצע נחשון 52, באר שבע",מבצע נחשון 52,38128-17-42,דירה בבית קומות,4.0,שניה,76.0,208000,,,1970.0,,4.0,9546839010,1,3812817,False,,באר שבע,מבצע נחשון,,38128-17-42,38128/17,2736.842105263158,31.2597024719,34.7873410649,2006
2006-02-07,2006-07-02,"בז 83, באר שבע",בז 83,38268-20-1,קוטג' דו משפחתי,5.0,ראשונה,166.0,900000,,,2005.0,,1.0,9546920640,1,3826820,False,,באר שבע,בז,,38268-20-1,38268/20,5421.686746987952,31.2303632587,34.77066955,2006
2006-02-05,2006-05-02,"האיילה 2, באר שבע",האיילה 2,38081-9-25,דירה בבית קומות,5.0,תשיעית,111.0,395000,,,1960.0,,,9545143590,1,380819,False,,באר שבע,האיילה,,38081-9-25,38081/9,3558.5585585585586,31.2505410154,34.7771771869,2006
2006-02-05,2006-05-02,"פיארברג 10, באר שבע",פיארברג 10,38139-34-8,דירה בבית קומות,4.0,שניה,83.1,334000,,,1999.0,,4.0,9544489650,1,3813934,True,-13% ב 6.9 שנים,באר שבע,פיארברג,-1.88,38139-34-8,38139/34,4019.253910950662,31.235748952,34.7759041997,2006
2006-02-03,2006-03-02,"חביבה רייק 1, באר שבע",חביבה רייק 1,38026-97-32,דירה בבית קומות,2.0,קרקע,38.25,129000,,,1960.0,,3.0,9543320100,1,3802697,False,,באר שבע,רייק חביבה,,38026-97-32,38026/97,3372.549019607843,31.2568541575,34.8078334598,2006
2006-02-02,2006-02-02,"יסקי 4, באר שבע",יסקי 4,38035-6-24,דירה בבית קומות,3.0,,50.0,170000,,,1950.0,,1.0,9541973340,1,380356,False,,באר שבע,יסקי,,38035-6-24,38035/6,3400.0,31.2430209002,34.7873282824,2006
2006-02-02,2006-02-02,"אסף שמחוני 11, באר שבע",אסף שמחוני 11,38035-1-15,דירה בבית קומות,3.0,,64.0,276000,,,1960.0,,,9541863360,1,380351,False,,באר שבע,שמחוני אסף,,38035-1-15,38035/1,4312.5,31.243319287,34.7879579107,2006
2006-02-01,2006-01-02,"מבצע עובדה 72, באר שבע",מבצע עובדה 72,38094-13-20,דירה בבית קומות,3.0,שניה,57.7,136000,,,1970.0,,4.0,9540720540,1,3809413,False,,באר שבע,מבצע עובדה,,38094-13-20,38094/13,2357.019064124783,31.2607020098,34.7757145045,2006
2006-01-30,2006-01-30,"הנרי קנדל 10, באר שבע",הנרי קנדל 10,38035-60-360,דירה בבית קומות,6.0,שתים עשרה,150.0,630000,,,2000.0,,18.0,9541841040,1,3803560,False,,באר שבע,קנדל הנרי,,38035-60-360,38035/60,4200.0,31.2452471681,34.7832342939,2006
2006-01-30,2006-01-30,"הגדודים 15, באר שבע",הגדודים 15,38032-2-10,דירה בבית קומות,3.0,ראשונה,57.0,226000,,,1960.0,,1.0,9541727370,1,380322,False,,באר שבע,הגדודים,,38032-2-10,38032/2,3964.9122807017534,31.2357592813,34.7817327231,2006
2006-01-29,2006-01-29,"אבשלום פיינברג 30, באר שבע",אבשלום פיינברג 30,38177-8-1,דירה בבית קומות,3.0,ראשונה,60.0,202000,,,1990.0,,1.0,9547454610,1,381778,False,,באר שבע,פיינברג אבשלום,,38177-8-1,38177/8,3366.6666666666665,31.265904467,34.7594085973,2006
2006-01-29,2006-01-29,"יעקב כהן 9, באר שבע",יעקב כהן 9,38074-149-67,דירה בבית קומות,5.0,רביעית,108.0,690000,,,2005.0,,9.0,9541719900,1,38074149,False,,באר שבע,כהן יעקב,,38074-149-67,38074/149,6388.888888888889,31.2540122092,34.7970244377,2006
2006-01-29,2006-01-29,"סנהדרין 110, באר שבע",סנהדרין 110,38090-20-7,דירה בבית קומות,3.0,ראשונה,45.9,125000,,,1960.0,,3.0,9542109870,1,3809020,False,,באר שבע,סנהדרין,,38090-20-7,38090/20,2723.3115468409587,31.2699866898,34.7892645642,2006
2006-01-26,2006-01-26,"הרב שלמה טנא 12, באר שבע",הרב שלמה טנא 12,38389-45-21,דירה בבית קומות,5.0,קומה ‎5‏,108.0,500000,,,2007.0,,14.0,9541596060,1,3838945,False,,באר שבע,הרב טנא שלמה,,38389-45-21,38389/45,4629.62962962963,31.2338206201,34.7836443819,2006
2006-01-25,2006-01-25,"אהוד בן-גרא 2, באר שבע",אהוד בן-גרא 2,38006-114-4,דירה בבית קומות,4.0,,117.0,414000,,,1963.0,,,9541471950,1,38006114,False,,באר שבע,אהוד בן גרא,,38006-114-4,38006/114,3538.4615384615386,31.2409120405,34.7815085875,2006
2006-01-25,2006-01-25,"הזורע 9, באר שבע",הזורע 9,38477-8-1,תעשיה,,,,2773000,,,1995.0,,1.0,9543759030,1,384778,False,,באר שבע,הזורע,,38477-8-1,38477/8,,31.214835929,34.811659233,2006
2006-01-25,2006-01-25,"הנרי קנדל 10, באר שבע",הנרי קנדל 10,38035-60-361,דירה בבית קומות,4.0,חמישית,120.0,580000,,,2000.0,,18.0,9541626300,1,3803560,False,,באר שבע,קנדל הנרי,,38035-60-361,38035/60,4833.333333333333,31.2452471681,34.7832342939,2006
2006-01-24,2006-01-24,"נחום גולדמן 21, באר שבע",נחום גולדמן 21,38373-3-70,דירה בבית קומות,4.0,שניה,96.0,475000,,,2000.0,,3.0,9541841760,1,383733,False,,באר שבע,גולדמן נחום,,38373-3-70,38373/3,4947.916666666667,31.2792856987,34.802685277,2006
2006-01-23,2006-01-23,"יחיאל צ'לנוב 20, באר שבע",יחיאל צ'לנוב 20,38176-68-1,דירה בבית קומות,3.0,ראשונה,60.0,326000,,,1980.0,,1.0,9542677230,1,3817668,False,,באר שבע,צ'לנוב יחיאל,,38176-68-1,38176/68,5433.333333333333,31.2659892887,34.7611355884,2006
2006-01-20,2006-01-20,"הנרי קנדל 10, באר שבע",הנרי קנדל 10,38035-60-362,דירה בבית קומות,5.0,שלוש עשרה,120.0,630000,,,2000.0,,18.0,9541596780,1,3803560,False,,באר שבע,קנדל הנרי,,38035-60-362,38035/60,5250.0,31.2452471681,34.7832342939,2006
2006-01-20,2006-01-20,"משה זילברג 1, באר שבע",משה זילברג 1,38132-209-2,דירה בבית קומות,,,141.0,623000,,,1992.0,,,9541451160,1,38132209,False,,באר שבע,זילברג משה,,38132-209-2,38132/209,4418.439716312057,31.2688361747,34.7758021224,2006
2006-01-19,2006-01-19,"זיסו 7, באר שבע",זיסו 7,38028-82-34,דירה בבית קומות,3.0,,55.0,166000,,,1900.0,,,9541460790,1,3802882,False,,באר שבע,זיסו,,38028-82-34,38028/82,3018.181818181818,31.2555318751,34.8090591719,2006
2006-01-18,2006-01-18,"וינגייט 18, באר שבע",וינגייט 18,38027-42-18,דירה בבית קומות,3.0,קרקע,60.7,185000,,,1970.0,,3.0,9541668060,1,3802742,False,,באר שבע,וינגייט,,38027-42-18,38027/42,3047.7759472817133,31.2566536139,34.8088819712,2006
2006-01-17,2006-01-17,"שח""ל 8, באר שבע","שח""ל 8",38025-250-2,דירה בבית קומות,2.0,ראשונה,26.3,147000,,,1960.0,,1.0,9541493550,1,38025250,False,,באר שבע,"שח""ל",,38025-250-2,38025/250,5589.3536121673005,31.2456052892,34.7949639695,2006
2006-01-17,2006-01-17,"עגנון 4, באר שבע",עגנון 4,38081-1-73,דירה בבית קומות,4.0,ראשונה,86.0,308000,,,1980.0,,14.0,9541876680,1,380811,False,,באר שבע,עגנון,,38081-1-73,38081/1,3581.395348837209,31.2527808896,34.7775180397,2006
2006-01-16,2006-01-16,"גמל 15, באר שבע",גמל 15,38058-1-97,דירה בבית קומות,3.0,,76.0,263000,,,1970.0,,3.0,9541230030,1,380581,False,,באר שבע,גמל,,38058-1-97,38058/1,3460.5263157894738,31.2487189013,34.7792235087,2006
2006-01-15,2006-01-15,"שמואל רודנסקי 41, באר שבע",שמואל רודנסקי 41,38162-29-2,דירה בבית קומות,3.0,ראשונה,60.0,471000,,,1992.0,,1.0,9541451880,1,3816229,False,,באר שבע,רודנסקי שמואל,,38162-29-2,38162/29,7850.0,31.2715822076,34.7711421265,2006
2006-01-15,2006-01-15,"יהודה הלוי 48, באר שבע",יהודה הלוי 48,38096-18-125,דירה בבית קומות,4.0,שבע עשרה,96.0,350000,,,2000.0,,15.0,9542706030,1,3809618,False,,באר שבע,יהודה הלוי,,38096-18-125,38096/18,3645.8333333333335,31.2656410395,34.7893540139,2006
2006-01-15,2006-01-15,"מבצע נחשון 83, באר שבע",מבצע נחשון 83,38123-101-7,קוטג' דו משפחתי,5.0,קרקע+ראשונה,138.0,618000,,,1980.0,,2.0,9540791100,1,38123101,False,,באר שבע,מבצע נחשון,,38123-101-7,38123/101,4478.260869565217,31.2637089434,34.7871110609,2006
2006-01-08,2006-08-01,"דב סרן 15, באר שבע",דב סרן 15,38137-21-11,דירה בבית קומות,5.0,שניה,107.0,422000,,,1999.0,,14.0,9548198370,1,3813721,True,-17% ב 7.7 שנים,באר שבע,סרן דב,-2.21,38137-21-11,38137/21,3943.92523364486,31.2360773522,34.7776220707,2006
2006-01-03,2006-03-01,"הרב שלמה טנא 12, באר שבע",הרב שלמה טנא 12,38389-45-1,דירה בבית קומות,4.0,קומה ‎1‏,88.0,500000,,,2007.0,,14.0,9543581550,1,3838945,False,,באר שבע,הרב טנא שלמה,,38389-45-1,38389/45,5681.818181818182,31.2338206201,34.7836443819,2006
2006-01-02,2006-02-01,"ברנע דב 25, באר שבע",ברנע דב 25,38367-9-11,דירה בבית קומות,5.0,ראשונה,112.0,590000,,,2005.0,,2.0,9541829880,1,383679,False,,באר שבע,ברנע דב,,38367-9-11,38367/9,5267.857142857143,31.2850705815,34.8026559212,2006
2006-01-02,2006-02-01,"נחום גולדמן 47, באר שבע",נחום גולדמן 47,38373-6-31,דירה בבית קומות,5.0,ראשונה,120.0,512000,,,2004.0,,3.0,9542541960,1,383736,False,,באר שבע,גולדמן נחום,,38373-6-31,38373/6,4266.666666666667,31.2812261833,34.8028416658,2006
