DEALDATE,DEALDATETIME,FULLADRESS,DISPLAYADRESS,GUSH,DEALNATUREDESCRIPTION,ASSETROOMNUM,FLOORNO,DEALNATURE,DEALAMOUNT,NEWPROJECTTEXT,PROJECTNAME,BUILDINGYEAR,YEARBUILT,BUILDINGFLOORS,KEYVALUE,TYPE,POLYGON_ID,TREND_IS_NEGATIVE,TREND_FORMAT,city_name,street,presentage per year,GUSH - Copy,Gush_Helka,Price per sqm,lat,lon,Year
1998-12-31,1998-12-31,"שבטי ישראל 24, בני ברק",שבטי ישראל 24,6122-823-11,,3.0,רביעית,61.0,582000,,,1990.0,,4.0,2871020909,1,6122823,False,,בני ברק,שבטי ישראל,,6122-823-11,6122/823,9540.983606557376,32.0912307009,34.8321385034,1998
1998-12-31,1998-12-31,"עזרא 74, בני ברק",עזרא 74,6190-1010-2,,4.0,רביעית,93.0,821000,,,1990.0,,4.0,2871759945,1,61901010,False,,בני ברק,עזרא,,6190-1010-2,6190/1010,8827.956989247312,32.0761350574,34.8336973322,1998
1998-12-31,1998-12-31,"דניאל 5, בני ברק",דניאל 5,6124-67-3,,2.5,א,53.5,550000,,,1960.0,,3.0,2871778157,1,612467,False,,בני ברק,דניאל,,6124-67-3,6124/67,10280.373831775702,32.0820146775,34.8264581792,1998
1998-12-31,1998-12-31,"הרב אברמסקי 37, בני ברק",הרב אברמסקי 37,6790-59-18,,5.0,ראשונה,102.0,839000,,,1960.0,,,2871250125,1,679059,False,,בני ברק,הרב אברמסקי,,6790-59-18,6790/59,8225.490196078432,32.0995493806,34.8379230202,1998
1998-12-30,1998-12-30,"סוקולוב 46, בני ברק",סוקולוב 46,6122-299-9,,2.0,ג,54.0,478000,,,1965.0,,4.0,2871050373,1,6122299,False,,בני ברק,סוקולוב,,6122-299-9,6122/299,8851.851851851852,32.0908445107,34.83382799,1998
1998-12-30,1998-12-30,"רשב""ם 29, בני ברק","רשב""ם 29",6190-493-1,,2.0,א,41.0,416000,,,1960.0,,3.0,2871068730,1,6190493,False,,בני ברק,"רשב""ם",,6190-493-1,6190/493,10146.341463414634,32.0779787854,34.8366534666,1998
1998-12-29,1998-12-29,"רימון 11, בני ברק",רימון 11,6187-465-13,,3.0,שלישית,54.8,437000,,,1960.0,,3.0,2871635825,1,6187465,False,,בני ברק,רימון,,6187-465-13,6187/465,7974.452554744525,32.0714560435,34.8372158998,1998
1998-12-29,1998-12-29,"רשב""ם 8, בני ברק","רשב""ם 8",6190-819-2,,3.0,א,70.0,707000,,,1960.0,,3.0,2871186731,1,6190819,False,,בני ברק,"רשב""ם",,6190-819-2,6190/819,10100.0,32.0787159448,34.8349293154,1998
1998-12-29,1998-12-29,"רבי עקיבא 94, בני ברק",רבי עקיבא 94,6122-649-14,,2.0,ג,52.5,582000,,,1960.0,,4.0,2871054665,1,6122649,False,,בני ברק,רבי עקיבא,,6122-649-14,6122/649,11085.714285714286,32.0858275821,34.8315799802,1998
1998-12-28,1998-12-28,"השריונאים 5, בני ברק",השריונאים 5,6192-814-73,,3.0,ג,65.0,626000,,,1960.0,,4.0,2903854883,1,6192814,False,,בני ברק,השריונאים,,6192-814-73,6192/814,9630.76923076923,32.0843365915,34.8416314745,1998
1998-12-28,1998-12-28,"אשל אברהם 4, בני ברק",אשל אברהם 4,6189-377-1,,3.0,ראשונה,59.0,626000,,,1960.0,,3.0,2871804228,1,6189377,False,,בני ברק,אשל אברהם,,6189-377-1,6189/377,10610.169491525425,32.0818697175,34.8417652455,1998
1998-12-28,1998-12-28,"שבטי ישראל 24, בני ברק",שבטי ישראל 24,6122-823-18,,3.0,שניה,62.0,589000,,,1990.0,,4.0,2871354177,1,6122823,False,,בני ברק,שבטי ישראל,,6122-823-18,6122/823,9500.0,32.0912307009,34.8321385034,1998
1998-12-28,1998-12-28,"אבן שפרוט 6, בני ברק",אבן שפרוט 6,6122-1548-19,,1.5,א,31.5,334000,,,1960.0,,4.0,2871202043,1,61221548,False,,בני ברק,אבן שפרוט,,6122-1548-19,6122/1548,10603.174603174602,32.0907685097,34.8330336777,1998
1998-12-27,1998-12-27,"נחום 10, בני ברק",נחום 10,6192-253-8,,4.0,ג,100.0,919000,,,1966.0,,3.0,2847830421,1,6192253,False,,בני ברק,נחום,,6192-253-8,6192/253,9190.0,32.0843610846,34.8393474559,1998
1998-12-25,1998-12-25,"נורדאו 17, בני ברק",נורדאו 17,6195-451-5,,2.0,ב,54.0,313000,,,1960.0,,4.0,2871296757,1,6195451,False,,בני ברק,נורדאו,,6195-451-5,6195/451,5796.2962962962965,32.093552059,34.8346720942,1998
1998-12-24,1998-12-24,"השריונאים 9, בני ברק",השריונאים 9,6192-814-132,,2.0,א,42.0,459000,,,1960.0,,4.0,2847850054,1,6192814,False,,בני ברק,השריונאים,,6192-814-132,6192/814,10928.57142857143,32.0843365915,34.8416314745,1998
1998-12-24,1998-12-24,"הרב מימון 33, בני ברק",הרב מימון 33,6122-1059-9,,2.0,ג,51.65,501000,,,1958.0,,3.0,2871011078,1,61221059,False,,בני ברק,הרב מימון,,6122-1059-9,6122/1059,9699.903194578896,32.0884371742,34.8319361532,1998
1998-12-23,1998-12-23,"הרב קוק 45, בני ברק",הרב קוק 45,6123-552-1,,3.0,א,59.5,752000,,,1960.0,,3.0,2847861248,1,6123552,False,,בני ברק,הרב קוק,,6123-552-1,6123/552,12638.655462184874,32.0852492245,34.8236027475,1998
1998-12-22,1998-12-22,"המכבים 66, בני ברק",המכבים 66,7361-53-22,,2.0,שלישית,44.7,372000,,,1960.0,,4.0,2847716770,1,736153,False,,בני ברק,המכבים,,7361-53-22,7361/53,8322.147651006711,32.0948043049,34.833712002,1998
1998-12-22,1998-12-22,"רמז 15, בני ברק",רמז 15,6188-360-1,,2.0,ראשונה,50.0,2679000,,,1948.0,,2.0,2871621180,1,6188360,False,,בני ברק,רמז,,6188-360-1,6188/360,53580.0,32.0773636317,34.831243301,1998
1998-12-21,1998-12-21,"בירנבוים 9, בני ברק",בירנבוים 9,6184-189-6,,4.0,שניה,78.3,733000,,,1999.0,,4.0,2847795563,1,6184189,False,,בני ברק,בירנבוים,,6184-189-6,6184/189,9361.430395913156,32.0724824298,34.8415317762,1998
1998-12-21,1998-12-21,"יונתן 9, בני ברק",יונתן 9,6196-212-11,,3.0,שלישית,58.4,419000,,,1958.0,,3.0,2871068266,1,6196212,False,,בני ברק,יונתן,,6196-212-11,6196/212,7174.657534246576,32.0935498778,34.8262190927,1998
1998-12-21,1998-12-21,"השריונאים 7, בני ברק",השריונאים 7,6192-814-105,,3.0,ג,48.0,498000,,,1960.0,,4.0,2847781643,1,6192814,False,,בני ברק,השריונאים,,6192-814-105,6192/814,10375.0,32.0843365915,34.8416314745,1998
1998-12-20,1998-12-20,"הרב בן-יעקב 2, בני ברק",הרב בן-יעקב 2,6190-980-31,,1.0,שניה,50.0,302000,,,1960.0,,3.0,2871112085,1,6190980,False,,בני ברק,הרב בן יעקב,,6190-980-31,6190/980,6040.0,32.0780170538,34.8374897268,1998
1998-12-18,1998-12-18,"בר-כוכבא 11, בני ברק",בר-כוכבא 11,6196-141-1,,,,26.4,165000,,,1950.0,,3.0,2871553697,1,6196141,False,,בני ברק,בר כוכבא,,6196-141-1,6196/141,6250.0,32.0921643527,34.8234685073,1998
1998-12-17,1998-12-17,"קלישר 13, בני ברק",קלישר 13,6192-741-3,,4.0,א,70.0,523000,,,1951.0,,2.0,2847720163,1,6192741,False,,בני ברק,קלישר,,6192-741-3,6192/741,7471.428571428572,32.0897220758,34.8441709857,1998
1998-12-16,1998-12-16,"רבי עקיבא 99, בני ברק",רבי עקיבא 99,6122-1365-16,,2.0,ד,48.79,417000,,,1960.0,,4.0,2871075690,1,61221365,False,,בני ברק,רבי עקיבא,,6122-1365-16,6122/1365,8546.833367493338,32.0861310598,34.8332978325,1998
1998-12-16,1998-12-16,"אביי ורבא 5, בני ברק",אביי ורבא 5,6188-499-11,,4.0,ג,71.0,771000,,,1960.0,,3.0,2872273187,1,6188499,False,,בני ברק,אביי ורבא,,6188-499-11,6188/499,10859.154929577464,32.0837350795,34.8316882545,1998
1998-12-16,1998-12-16,"הרצוג 37, בני ברק",הרצוג 37,6123-385-8,,2.0,ב,49.5,396000,,,1950.0,,4.0,2847766824,1,6123385,False,,בני ברק,הרצוג,,6123-385-8,6123/385,8000.0,32.0873083833,34.8258680562,1998
1998-12-14,1998-12-14,"חפץ חיים 5, בני ברק",חפץ חיים 5,6122-371-36,,2.0,ג,45.5,476000,,,1965.0,,3.0,2847634033,1,6122371,False,,בני ברק,חפץ חיים,,6122-371-36,6122/371,10461.53846153846,32.0847916798,34.8328727804,1998
1998-12-14,1998-12-14,"תרפ""ד 5, בני ברק","תרפ""ד 5",6196-266-1,,3.0,ראשונה,50.0,368000,,,1965.0,,3.0,2847668920,1,6196266,False,,בני ברק,"תרפ""ד",,6196-266-1,6196/266,7360.0,32.0923145898,34.8305916965,1998
1998-12-13,1998-12-13,"רבי עקיבא 75, בני ברק",רבי עקיבא 75,6122-912-1,,3.0,שלישית,72.0,665000,,,1950.0,,4.0,2871201811,1,6122912,False,,בני ברק,רבי עקיבא,,6122-912-1,6122/912,9236.111111111111,32.0864922202,34.8309129118,1998
1998-12-13,1998-12-13,"טבריה 4, בני ברק",טבריה 4,6123-672-20,,2.0,א,49.07,415000,,,1950.0,,3.0,2847780918,1,6123672,False,,בני ברק,טבריה,,6123-672-20,6123/672,8457.305889545547,32.087103811,34.8264221813,1998
1998-12-05,1998-05-12,"הרב יוסף זוננפלד 14, בני ברק",הרב יוסף זוננפלד 14,6189-1085-10,,5.0,שלישית,104.0,735000,,,1960.0,,6.0,2844321566,1,61891085,False,,בני ברק,הרב זוננפלד יוסף,,6189-1085-10,6189/1085,7067.307692307692,32.0804182118,34.8428010987,1998
1998-12-05,1998-05-12,"רבינא 10, בני ברק",רבינא 10,6190-995-1,,2.0,ראשונה,41.0,379000,,,1950.0,,1.0,2844402041,1,6190995,False,,בני ברק,רבינא,,6190-995-1,6190/995,9243.90243902439,32.077374468,34.8381832592,1998
1998-12-04,1998-04-12,"הירש ברוך 22, בני ברק",הירש ברוך 22,6105-170-0,,,שניה,1676.0,259000,,,1989.0,,4.0,2844544808,1,6105170,False,,בני ברק,הירש ברוך,,6105-170-0,6105/170,154.53460620525058,32.0974678212,34.8271426205,1998
1998-12-01,1998-01-12,"ז'בוטינסקי 123, בני ברק",ז'בוטינסקי 123,6195-313-8,,2.0,ב,51.25,381000,,,1960.0,,3.0,2842148915,1,6195313,False,,בני ברק,ז'בוטינסקי,,6195-313-8,6195/313,7434.1463414634145,32.0929158462,34.8396028461,1998
1998-12-01,1998-01-12,"רבי עקיבא 73, בני ברק",רבי עקיבא 73,6122-181-8,,3.0,ב,63.0,516000,,,1958.0,,4.0,2842898768,1,6122181,False,,בני ברק,רבי עקיבא,,6122-181-8,6122/181,8190.476190476191,32.086535565,34.8306341477,1998
1998-11-30,1998-11-30,"נויפלד 8, בני ברק",נויפלד 8,6195-805-20,,3.0,שניה,67.4,490000,,,1980.0,,4.0,2847453392,1,6195805,False,,בני ברק,נויפלד,,6195-805-20,6195/805,7270.029673590504,32.0971736499,34.8420691804,1998
1998-11-29,1998-11-29,"האדמו""ר מקוצק 4, בני ברק","האדמו""ר מקוצק 4",6187-236-1,,4.0,שניה,100.0,849000,,,1960.0,,2.0,2871153410,1,6187236,False,,בני ברק,"האדמו""ר מקוצק",,6187-236-1,6187/236,8490.0,32.0746701188,34.8408090584,1998
1998-11-29,1998-11-29,"מנחם בגין 41, בני ברק",מנחם בגין 41,7361-96-17,,,קרקע,36.82,160000,,,1960.0,,1.0,2847449593,1,736196,False,,בני ברק,בגין מנחם,,7361-96-17,7361/96,4345.464421510049,32.093671999,34.831313954,1998
1998-11-29,1998-11-29,"הרב קוק 42, בני ברק",הרב קוק 42,6123-636-5,,4.0,ב,70.5,702000,,,1950.0,,3.0,2847316280,1,6123636,False,,בני ברק,הרב קוק,,6123-636-5,6123/636,9957.446808510638,32.0855884221,34.8236990177,1998
1998-11-26,1998-11-26,"רבי אליעזר 5, בני ברק",רבי אליעזר 5,6123-983-4,,3.0,ראשונה,69.0,603000,,,1973.0,,4.0,2871151525,1,6123983,False,,בני ברק,רבי אליעזר,,6123-983-4,6123/983,8739.130434782608,32.086999118,34.8275643336,1998
1998-11-25,1998-11-25,"אז""ר 5, בני ברק","אז""ר 5",6122-1349-4,,2.0,א,46.0,375000,,,1950.0,,3.0,2847480942,1,61221349,False,,בני ברק,"אז""ר",,6122-1349-4,6122/1349,8152.173913043478,32.0906681004,34.8342823695,1998
1998-11-25,1998-11-25,"אבן שפרוט 6, בני ברק",אבן שפרוט 6,6122-1548-32,,2.0,ד,31.5,361000,,,1960.0,,4.0,2847479956,1,61221548,False,,בני ברק,אבן שפרוט,,6122-1548-32,6122/1548,11460.31746031746,32.0907685097,34.8330336777,1998
1998-11-25,1998-11-25,"אברבנאל 12, בני ברק",אברבנאל 12,6195-527-2,,5.0,ראשונה,94.8,757000,,,1999.0,,4.0,2847668688,1,6195527,False,,בני ברק,אברבנאל,,6195-527-2,6195/527,7985.232067510548,32.0948837822,34.8442573831,1998
1998-11-25,1998-11-25,"סעדיה גאון 1, בני ברק",סעדיה גאון 1,6188-512-5,,3.0,ב,59.0,581000,,,1965.0,,3.0,2847277797,1,6188512,False,,בני ברק,סעדיה גאון,,6188-512-5,6188/512,9847.457627118643,32.0822940101,34.8341993449,1998
1998-11-25,1998-11-25,"צירלסון 7, בני ברק",צירלסון 7,6192-586-0,,1.0,שניה,976.0,436000,,,1960.0,,3.0,2871168519,1,6192586,False,,בני ברק,צירלסון,,6192-586-0,6192/586,446.7213114754098,32.0911756143,34.8408294542,1998
1998-11-23,1998-11-23,"סוקולוב 47, בני ברק",סוקולוב 47,6122-1545-37,,2.0,ד,45.56,439000,,,1960.0,,4.0,2847316048,1,61221545,False,,בני ברק,סוקולוב,,6122-1545-37,6122/1545,9635.645302897276,32.0912028726,34.8332735176,1998
1998-11-23,1998-11-23,"עזרא 33, בני ברק",עזרא 33,6190-985-2,,2.0,ראשונה,50.0,856000,,,1956.0,,,2847570349,1,6190985,False,,בני ברק,עזרא,,6190-985-2,6190/985,17120.0,32.0774323907,34.8373416121,1998
1998-11-22,1998-11-22,"השר יגאל אלון 17, בני ברק",השר יגאל אלון 17,6790-13-13,,4.0,רביעית,71.54,555000,,,1970.0,,4.0,2847213185,1,679013,False,,בני ברק,השר אלון יגאל,,6790-13-13,6790/13,7757.897679619792,32.0975762087,34.8358200205,1998
1998-11-20,1998-11-20,"מינץ 20, בני ברק",מינץ 20,6122-218-9,,3.0,ג,56.0,487000,,,1960.0,,3.0,2847336609,1,6122218,False,,בני ברק,מינץ,,6122-218-9,6122/218,8696.42857142857,32.0901072703,34.8265937992,1998
1998-11-19,1998-11-19,"הרב כהנמן 91, בני ברק",הרב כהנמן 91,6189-961-6,,3.0,שלישית,70.18,590000,,,1970.0,,4.0,2847444547,1,6189961,False,,בני ברק,הרב כהנמן,,6189-961-6,6189/961,8406.953548019377,32.0821606815,34.8414598782,1998
1998-11-19,1998-11-19,"בארי 10, בני ברק",בארי 10,6188-454-12,,2.0,ג,65.0,546000,,,1960.0,,3.0,2847461019,1,6188454,False,,בני ברק,בארי,,6188-454-12,6188/454,8400.0,32.0776179627,34.8285736811,1998
1998-11-19,1998-11-19,"רשב""ם 16, בני ברק","רשב""ם 16",6190-669-6,,3.0,שלישית,58.8,644000,,,1997.0,,4.0,2847212228,1,6190669,False,,בני ברק,"רשב""ם",,6190-669-6,6190/669,10952.380952380952,32.0786032001,34.8357636204,1998
1998-11-19,1998-11-19,"רשב""ם 16, בני ברק","רשב""ם 16",6190-669-4,,3.0,שניה,58.8,678000,,,1997.0,,4.0,2847210778,1,6190669,False,,בני ברק,"רשב""ם",,6190-669-4,6190/669,11530.61224489796,32.0786032001,34.8357636204,1998
1998-11-19,1998-11-19,"רשב""ם 16, בני ברק","רשב""ם 16",6190-669-2,,3.0,ראשונה,58.8,653000,,,1997.0,,4.0,2847211996,1,6190669,False,,בני ברק,"רשב""ם",,6190-669-2,6190/669,11105.442176870749,32.0786032001,34.8357636204,1998
1998-11-18,1998-11-18,"שפת אמת 8, בני ברק",שפת אמת 8,6122-449-3,,2.0,א,53.5,434000,,,1950.0,,3.0,2847191609,1,6122449,False,,בני ברק,שפת אמת,,6122-449-3,6122/449,8112.14953271028,32.0844353401,34.8342967575,1998
1998-11-18,1998-11-18,"רד""ק 10, בני ברק","רד""ק 10",6122-1333-7,,2.0,ג,47.08,415000,,,1960.0,,3.0,2847185693,1,61221333,False,,בני ברק,"רד""ק",,6122-1333-7,6122/1333,8814.783347493629,32.0882935665,34.8346504412,1998
1998-11-18,1998-11-18,"נויפלד 8, בני ברק",נויפלד 8,6195-805-1,,3.0,ראשונה,69.5,488000,,,1980.0,,4.0,2847229222,1,6195805,False,,בני ברק,נויפלד,,6195-805-1,6195/805,7021.582733812949,32.0971736499,34.8420691804,1998
1998-11-18,1998-11-18,"רימון 12, בני ברק",רימון 12,6187-454-0,,2.0,שלישית,62.0,393000,,,1960.0,,2.0,2847172469,1,6187454,False,,בני ברק,רימון,,6187-454-0,6187/454,6338.709677419355,32.0719646314,34.8375688346,1998
1998-11-18,1998-11-18,"הגר""א 10, בני ברק","הגר""א 10",6123-696-6,,2.0,ב,65.0,517000,,,1955.0,,2.0,2847221073,1,6123696,False,,בני ברק,"הגר""א",,6123-696-6,6123/696,7953.846153846154,32.0861539411,34.82886067,1998
1998-11-18,1998-11-18,"הרב שך 39, בני ברק",הרב שך 39,6122-1853-4,,4.0,שניה,85.0,728000,,,1994.0,,4.0,2847440690,1,61221853,False,,בני ברק,הרב שך,,6122-1853-4,6122/1853,8564.70588235294,32.0903737463,34.8352296217,1998
1998-11-17,1998-11-17,"האדמו""ר מראדזמין 10, בני ברק","האדמו""ר מראדזמין 10",6190-1149-5,,,ראשונה,144.0,664000,,,1999.0,,6.0,2847318919,1,61901149,False,,בני ברק,"האדמו""ר מראדזמין",,6190-1149-5,6190/1149,4611.111111111111,32.0834322837,34.8403454564,1998
1998-11-16,1998-11-16,"אהבת שלום 1, בני ברק",אהבת שלום 1,6190-858-8,,3.0,ג,62.0,665000,,,1965.0,,3.0,2847122966,1,6190858,False,,בני ברק,אהבת שלום,,6190-858-8,6190/858,10725.806451612903,32.0764498761,34.8370014086,1998
1998-11-15,1998-11-15,"אבטליון 17, בני ברק",אבטליון 17,6122-767-1,,4.0,א,75.0,777000,,,1967.0,,3.0,2847265095,1,6122767,False,,בני ברק,אבטליון,,6122-767-1,6122/767,10360.0,32.0879684962,34.8322960965,1998
1998-11-15,1998-11-15,"מהרש""ל 13, בני ברק","מהרש""ל 13",6122-455-1,,2.0,ראשונה,50.0,403000,,,1950.0,,3.0,2847413923,1,6122455,False,,בני ברק,"מהרש""ל",,6122-455-1,6122/455,8060.0,32.0849279084,34.8337853605,1998
1998-11-15,1998-11-15,"ראב""ד 22, בני ברק","ראב""ד 22",6188-499-44,,2.0,א,55.0,505000,,,1960.0,,3.0,2847249029,1,6188499,False,,בני ברק,"ראב""ד",,6188-499-44,6188/499,9181.818181818182,32.0837350795,34.8316882545,1998
1998-11-15,1998-11-15,"מנחם בגין 41, בני ברק",מנחם בגין 41,7361-96-18,,,קרקע,36.82,160000,,,1960.0,,1.0,2847449361,1,736196,False,,בני ברק,בגין מנחם,,7361-96-18,7361/96,4345.464421510049,32.093671999,34.831313954,1998
1998-11-13,1998-11-13,"הרב רוזובסקי 7, בני ברק",הרב רוזובסקי 7,6190-1029-14,,4.0,רביעית,104.0,957000,,,1998.0,,7.0,2847567536,1,61901029,False,,בני ברק,הרב רוזובסקי,,6190-1029-14,6190/1029,9201.923076923076,32.0839429679,34.8396044914,1998
1998-11-13,1998-11-13,"בן זכאי 51, בני ברק",בן זכאי 51,6188-186-2,,3.0,א,62.0,717000,,,1960.0,,3.0,2847237603,1,6188186,False,,בני ברק,בן זכאי,,6188-186-2,6188/186,11564.516129032258,32.0806860806,34.8312551169,1998
1998-11-13,1998-11-13,"חזון איש 64, בני ברק",חזון איש 64,6188-611-0,,,שלישית,6264.0,1031000,,,2000.0,,6.0,2847725673,1,6188611,False,,בני ברק,חזון איש,,6188-611-0,6188/611,164.59131545338442,32.0763250492,34.832898024,1998
1998-11-12,1998-12-11,"ראובן אהרונוביץ 55, בני ברק",ראובן אהרונוביץ 55,6192-842-5,,2.0,ב,51.0,457000,,,1960.0,,3.0,2847561562,1,6192842,False,,בני ברק,אהרונוביץ ראובן,,6192-842-5,6192/842,8960.78431372549,32.0865225289,34.8395981615,1998
1998-11-12,1998-12-11,"נחמן מברסלב 11, בני ברק",נחמן מברסלב 11,6190-779-15,,3.0,א,60.97,436000,,,1960.0,,4.0,2847582355,1,6190779,False,,בני ברק,נחמן מברסלב,,6190-779-15,6190/779,7151.057897326554,32.0803788671,34.8372298638,1998
1998-11-11,1998-11-11,"בר אילן 37, בני ברק",בר אילן 37,6192-718-4,,3.0,קרקע,39.3,937000,,,1960.0,,1.0,2847221508,1,6192718,False,,בני ברק,בר אילן,,6192-718-4,6192/718,23842.23918575064,32.0897860709,34.8434631983,1998
1998-11-11,1998-11-11,"אורליאן 7, בני ברק",אורליאן 7,6184-148-13,,3.0,שלישית,92.7,622000,,,1970.0,,4.0,2847661989,1,6184148,False,,בני ברק,אורליאן,,6184-148-13,6184/148,6709.816612729234,32.0709745866,34.841070642,1998
1998-11-08,1998-08-11,"נורוק 5, בני ברק",נורוק 5,6195-748-64,,4.0,רביעית,77.01,324000,,,1970.0,,4.0,2845906619,1,6195748,False,,בני ברק,נורוק,,6195-748-64,6195/748,4207.245812232178,32.0958041093,34.8421153463,1998
1998-11-06,1998-06-11,"השר יגאל אלון 20, בני ברק",השר יגאל אלון 20,6790-5-28,,3.0,שלישית,63.8,494000,,,1970.0,,4.0,2844957739,1,67905,False,,בני ברק,השר אלון יגאל,,6790-5-28,6790/5,7742.94670846395,32.0985287205,34.8365917305,1998
1998-11-05,1998-05-11,"הרב משה יברוב 4, בני ברק",הרב משה יברוב 4,6188-243-7,,2.0,,50.0,535000,,,1950.0,,2.0,2844563484,1,6188243,False,,בני ברק,הרב יברוב משה,,6188-243-7,6188/243,10700.0,32.0827105349,34.8314888578,1998
1998-11-03,1998-03-11,"אדמו""רי שאץ 5, בני ברק","אדמו""רי שאץ 5",6187-253-6,,3.0,שלישית + גג,73.6,667000,,,1994.0,,3.0,2843510291,1,6187253,False,,בני ברק,אדמורי שאץ,,6187-253-6,6187/253,9062.5,32.0745062074,34.8418706572,1998
1998-11-02,1998-02-11,"גניחובסקי 6, בני ברק",גניחובסקי 6,6195-764-5,,3.0,ראשונה,64.1,432000,,,1970.0,,4.0,2843255004,1,6195764,False,,בני ברק,גניחובסקי,,6195-764-5,6195/764,6739.469578783152,32.0990779239,34.8427758134,1998
1998-10-29,1998-10-29,"האדמו""ר מויז'ניץ 4, בני ברק","האדמו""ר מויז'ניץ 4",6187-316-2,,,ראשונה,70.0,633000,,,1988.0,,3.0,2847578266,1,6187316,False,,בני ברק,"האדמו""ר מויז'ניץ",,6187-316-2,6187/316,9042.857142857143,32.0747900108,34.8367057129,1998
1998-10-29,1998-10-29,"מנחם בגין 10, בני ברק",מנחם בגין 10,6196-243-1,,2.0,ראשונה,50.0,459000,,,1950.0,,3.0,2847555298,1,6196243,False,,בני ברק,בגין מנחם,,6196-243-1,6196/243,9180.0,32.092386359,34.8275459592,1998
1998-10-29,1998-10-29,"ראובן אהרונוביץ 44, בני ברק",ראובן אהרונוביץ 44,6192-956-19,,3.0,שלישית,56.0,643000,,,1970.0,,4.0,2846644002,1,6192956,False,,בני ברק,אהרונוביץ ראובן,,6192-956-19,6192/956,11482.142857142857,32.0861204959,34.8392227896,1998
1998-10-28,1998-10-28,"בן זכאי 19, בני ברק",בן זכאי 19,6188-498-2,,2.0,קרקע,43.0,569000,,,1960.0,,3.0,2846701422,1,6188498,False,,בני ברק,בן זכאי,,6188-498-2,6188/498,13232.558139534884,32.0834676912,34.8310398461,1998
1998-10-28,1998-10-28,"הרב שך 27, בני ברק",הרב שך 27,6122-1235-9,,4.0,שלישית + גג,86.6,775000,,,1980.0,,3.0,2846656443,1,61221235,False,,בני ברק,הרב שך,,6122-1235-9,6122/1235,8949.191685912241,32.0891230285,34.8355270872,1998
1998-10-27,1998-10-27,"דונולו 16, בני ברק",דונולו 16,6122-111-2,,4.0,א,81.4,754000,,,1970.0,,3.0,2847310538,1,6122111,False,,בני ברק,דונולו,,6122-111-2,6122/111,9262.899262899262,32.0882795505,34.8352090361,1998
1998-10-27,1998-10-27,"קיבוץ גלויות 11, בני ברק",קיבוץ גלויות 11,6190-120-1,,3.0,ראשונה,61.94,670000,,,1960.0,,4.0,2847053569,1,6190120,False,,בני ברק,קבוץ גלויות,,6190-120-1,6190/120,10816.919599612527,32.0751956186,34.8414136788,1998
1998-10-23,1998-10-23,"הרב רוזובסקי 9, בני ברק",הרב רוזובסקי 9,6190-1030-1,,,ראשונה,117.0,897000,,,1998.0,,7.0,2846627733,1,61901030,False,,בני ברק,הרב רוזובסקי,,6190-1030-1,6190/1030,7666.666666666667,32.0839056296,34.8398975427,1998
1998-10-22,1998-10-22,"האדמו""ר מויז'ניץ 15, בני ברק","האדמו""ר מויז'ניץ 15",6187-304-3,,3.0,ראשונה,61.0,687000,,,1970.0,,3.0,2847021988,1,6187304,False,,בני ברק,"האדמו""ר מויז'ניץ",,6187-304-3,6187/304,11262.295081967211,32.0730865933,34.8367849401,1998
1998-10-22,1998-10-22,"ירושלים 40, בני ברק",ירושלים 40,6123-439-11,,2.0,ב,48.69,502000,,,1950.0,,4.0,2846783028,1,6123439,False,,בני ברק,ירושלים,,6123-439-11,6123/439,10310.12528239885,32.0841374102,34.8293867919,1998
1998-10-21,1998-10-21,"וילקומירר 19, בני ברק",וילקומירר 19,6188-535-1,,2.0,א,50.0,535000,,,1970.0,,3.0,2846602126,1,6188535,False,,בני ברק,וילקומירר,,6188-535-1,6188/535,10700.0,32.0825064007,34.8349580599,1998
1998-10-21,1998-10-21,"הרב קוטלר 16, בני ברק",הרב קוטלר 16,6122-1185-12,,3.0,ג,58.0,700000,,,1960.0,,3.0,2846696869,1,61221185,False,,בני ברק,הרב קוטלר,,6122-1185-12,6122/1185,12068.96551724138,32.0862099605,34.8347233899,1998
1998-10-21,1998-10-21,"בירנבוים 9, בני ברק",בירנבוים 9,6184-189-7,,4.0,שניה,78.3,762000,,,1999.0,,4.0,2846894504,1,6184189,False,,בני ברק,בירנבוים,,6184-189-7,6184/189,9731.800766283524,32.0724824298,34.8415317762,1998
1998-10-21,1998-10-21,"הרצוג 38, בני ברק",הרצוג 38,6123-515-0,,5.0,רביעית,940.0,1132000,,,1999.0,,5.0,2846764816,1,6123515,False,2% ב 0.2 שנים,בני ברק,הרצוג,10.0,6123-515-0,6123/515,1204.2553191489362,32.0863813558,34.8256499007,1998
1998-10-21,1998-10-21,"נורדאו 36, בני ברק",נורדאו 36,6195-497-7,,2.0,ג,50.0,457000,,,1960.0,,3.0,2846543488,1,6195497,False,,בני ברק,נורדאו,,6195-497-7,6195/497,9140.0,32.0946767074,34.8355741508,1998
1998-10-21,1998-10-21,"יהושע 10, בני ברק",יהושע 10,6123-215-3,,3.0,שניה,55.0,609000,,,1960.0,,3.0,2846537514,1,6123215,False,,בני ברק,יהושע,,6123-215-3,6123/215,11072.727272727272,32.085366571,34.8283627823,1998
1998-10-20,1998-10-20,"חשב סופר 8, בני ברק",חשב סופר 8,6122-1300-10,,2.0,ג,41.0,434000,,,1965.0,,3.0,2847478999,1,61221300,False,,בני ברק,חשב סופר,,6122-1300-10,6122/1300,10585.365853658535,32.0889839392,34.8348021492,1998
1998-10-20,1998-10-20,"חיד""א 17, בני ברק","חיד""א 17",6122-674-11,,2.0,ב,41.0,401000,,,1960.0,,3.0,2847030891,1,6122674,False,,בני ברק,"חיד""א",,6122-674-11,6122/674,9780.487804878048,32.091213466,34.8369385286,1998
1998-10-20,1998-10-20,"המהר""ל 2, בני ברק","המהר""ל 2",6188-305-1,,3.0,שניה,79.0,647000,,,1949.0,,2.0,2846552623,1,6188305,False,,בני ברק,"המהר""ל",,6188-305-1,6188/305,8189.873417721519,32.0845690279,34.8318276157,1998
1998-10-18,1998-10-18,"הרב שך 40, בני ברק",הרב שך 40,6122-1460-6,,4.0,ב,71.0,760000,,,1970.0,,3.0,2846607404,1,61221460,False,,בני ברק,הרב שך,,6122-1460-6,6122/1460,10704.225352112677,32.0889322469,34.8360044058,1998
1998-10-18,1998-10-18,"חזון איש 71, בני ברק",חזון איש 71,6190-706-7,,5.0,שלישית + רביעית,118.0,1256000,,,1995.0,,5.0,2846634693,1,6190706,False,,בני ברק,חזון איש,,6190-706-7,6190/706,10644.06779661017,32.0778966394,34.834032644,1998
1998-10-18,1998-10-18,"מינץ 6, בני ברק",מינץ 6,6122-263-7,,4.0,רביעית + חמישית,84.2,804000,,,1996.0,,4.0,2846583189,1,6122263,False,,בני ברק,מינץ,,6122-263-7,6122/263,9548.693586698337,32.0909417911,34.8258511709,1998
1998-10-18,1998-10-18,"הירקון 65, בני ברק",הירקון 65,6105-223-33,,,,180.0,1131000,,,1997.0,,4.0,2847271591,1,6105223,False,,בני ברק,הירקון,,6105-223-33,6105/223,6283.333333333333,32.0983861696,34.8319144953,1998
1998-10-16,1998-10-16,"הרב רוזובסקי 11, בני ברק",הרב רוזובסקי 11,6190-1147-16,,,שלישית,86.0,840000,,,1998.0,,7.0,2847055019,1,61901147,False,,בני ברק,הרב רוזובסקי,,6190-1147-16,6190/1147,9767.441860465116,32.0838794264,34.8401828283,1998
1998-10-16,1998-10-16,"יהושע 13, בני ברק",יהושע 13,6123-295-14,,2.0,ראשונה,48.0,481000,,,1950.0,,5.0,2846663403,1,6123295,False,,בני ברק,יהושע,,6123-295-14,6123/295,10020.833333333334,32.0855558555,34.8287525476,1998
1998-10-16,1998-10-16,"הרצוג 38, בני ברק",הרצוג 38,6123-515-16,,5.0,רביעית+גג,104.9,1162000,,,1999.0,,5.0,2847031123,1,6123515,False,,בני ברק,הרצוג,,6123-515-16,6123/515,11077.21639656816,32.0863813558,34.8256499007,1998
1998-10-15,1998-10-15,"טבריה 21, בני ברק",טבריה 21,6123-628-1,,,א,25.8,202000,,,1957.0,,4.0,2846492825,1,6123628,False,,בני ברק,טבריה,,6123-628-1,6123/628,7829.457364341085,32.0866479492,34.8240595978,1998
1998-10-14,1998-10-14,"אבן שפרוט 5, בני ברק",אבן שפרוט 5,6122-1547-39,,2.0,ג,42.34,481000,,,1960.0,,4.0,2847250972,1,61221547,False,,בני ברק,אבן שפרוט,,6122-1547-39,6122/1547,11360.415682569674,32.0908922998,34.8322578147,1998
1998-10-13,1998-10-13,"הרב רוזובסקי 9, בני ברק",הרב רוזובסקי 9,6190-1030-9,,,שלישית,111.0,882000,,,1998.0,,7.0,2847055541,1,61901030,False,,בני ברק,הרב רוזובסקי,,6190-1030-9,6190/1030,7945.945945945946,32.0839056296,34.8398975427,1998
1998-10-12,1998-12-10,"רבינא 18, בני ברק",רבינא 18,6190-234-5,,4.0,שלישית,69.0,802000,,,1960.0,,3.0,2871316158,1,6190234,False,,בני ברק,רבינא,,6190-234-5,6190/234,11623.188405797102,32.0765774286,34.8379840735,1998
1998-10-11,1998-11-10,"רבי אליעזר 4, בני ברק",רבי אליעזר 4,6123-425-8,,2.0,שניה,50.0,552000,,,1960.0,,2.0,2873773270,1,6123425,False,,בני ברק,רבי אליעזר,,6123-425-8,6123/425,11040.0,32.0867907074,34.8271305116,1998
1998-10-09,1998-09-10,"סוקולוב 23, בני ברק",סוקולוב 23,6122-1628-6,,2.0,שניה,56.0,442000,,,1970.0,,4.0,2846110228,1,61221628,False,,בני ברק,סוקולוב,,6122-1628-6,6122/1628,7892.857142857143,32.0883371417,34.8335585801,1998
1998-10-09,1998-09-10,"הרב כהנמן 56, בני ברק",הרב כהנמן 56,6192-261-0,,3.0,ראשונה,65.0,693000,,,1960.0,,3.0,2846116695,1,6192261,False,,בני ברק,הרב כהנמן,,6192-261-0,6192/261,10661.53846153846,32.0847765347,34.8398040931,1998
1998-10-08,1998-08-10,"השניים 9, בני ברק",השניים 9,6195-59-1,,2.0,שלישית,70.0,377000,,,1950.0,,3.0,2845966185,1,619559,False,,בני ברק,השניים,,6195-59-1,6195/59,5385.714285714285,32.0940869055,34.8360170633,1998
1998-10-08,1998-08-10,"שבטי ישראל 16, בני ברק",שבטי ישראל 16,6122-835-11,,,רביעית,57.8,497000,,,1998.0,,5.0,2846207813,1,6122835,False,,בני ברק,שבטי ישראל,,6122-835-11,6122/835,8598.615916955017,32.0910132789,34.831361435,1998
1998-10-07,1998-07-10,"דון יוסף הנשיא 6, בני ברק",דון יוסף הנשיא 6,6190-827-17,,2.0,ג,39.0,366000,,,1950.0,,3.0,2845436964,1,6190827,False,,בני ברק,דון יוסף הנשיא,,6190-827-17,6190/827,9384.615384615385,32.0816746809,34.8397834376,1998
1998-10-07,1998-07-10,"אבטליון 7, בני ברק",אבטליון 7,6122-752-0,,2.0,רביעית,60.0,3022000,,,2008.0,,4.0,2845385518,1,6122752,False,,בני ברק,אבטליון,,6122-752-0,6122/752,50366.66666666666,32.0873109262,34.8316595596,1998
1998-10-06,1998-06-10,"קובלסקי 24, בני ברק",קובלסקי 24,6195-719-10,,3.0,שלישית,58.34,505000,,,1970.0,,4.0,2844910817,1,6195719,False,,בני ברק,קובלסקי,,6195-719-10,6195/719,8656.15358244772,32.0985959515,34.8399958777,1998
1998-10-05,1998-05-10,"חידושי הרי""ם 16, בני ברק","חידושי הרי""ם 16",6190-1025-1,,5.0,שניה,125.0,896000,,,1970.0,,3.0,2844402273,1,61901025,False,,בני ברק,"חידושי הרי""ם",,6190-1025-1,6190/1025,7168.0,32.0763560547,34.8352172392,1998
1998-10-05,1998-05-10,"בר-כוכבא 20, בני ברק",בר-כוכבא 20,6196-99-4,,,קרקע,65.12,217000,,,1960.0,,3.0,2844552232,1,619699,False,,בני ברק,בר כוכבא,,6196-99-4,6196/99,3332.309582309582,32.0946961331,34.8235798612,1998
1998-10-05,1998-05-10,"אבן גבירול 8, בני ברק",אבן גבירול 8,6122-1813-4,,3.0,שניה,73.8,579000,,,1970.0,,5.0,2844225170,1,61221813,False,,בני ברק,אבן גבירול,,6122-1813-4,6122/1813,7845.528455284553,32.0903379807,34.8319767491,1998
1998-10-03,1998-03-10,"השריונאים 9, בני ברק",השריונאים 9,6192-814-140,,3.0,ג,48.0,466000,,,1960.0,,4.0,2843417955,1,6192814,False,,בני ברק,השריונאים,,6192-814-140,6192/814,9708.333333333334,32.0843365915,34.8416314745,1998
1998-09-29,1998-09-29,"הרב קוק 10, בני ברק",הרב קוק 10,6123-492-15,,3.0,ג,60.0,491000,,,1965.0,,4.0,2846216890,1,6123492,False,,בני ברק,הרב קוק,,6123-492-15,6123/492,8183.333333333333,32.0873471049,34.8266881802,1998
1998-09-29,1998-09-29,"רבי עקיבא 123, בני ברק",רבי עקיבא 123,6122-541-12,,4.0,שלישית +גג,89.2,730000,,,1960.0,,4.0,2846546127,1,6122541,False,,בני ברק,רבי עקיבא,,6122-541-12,6122/541,8183.856502242153,32.0857775205,34.8362500412,1998
1998-09-28,1998-09-28,"רב אסי 8, בני ברק",רב אסי 8,6190-761-5,,4.0,שניה,92.0,769000,,,1965.0,,4.0,2871436218,1,6190761,False,,בני ברק,רב אסי,,6190-761-5,6190/761,8358.695652173914,32.0768949257,34.8345473656,1998
1998-09-28,1998-09-28,"יבנה 5, בני ברק",יבנה 5,6123-460-12,,2.0,ב,45.11,430000,,,1950.0,,2.0,2846529597,1,6123460,False,,בני ברק,יבנה,,6123-460-12,6123/460,9532.254489026824,32.0842083683,34.8304344104,1998
1998-09-27,1998-09-27,"רבי עקיבא 80, בני ברק",רבי עקיבא 80,6123-53-15,,3.0,רביעית,75.0,461000,,,1986.0,,4.0,2846700668,1,612353,False,,בני ברק,רבי עקיבא,,6123-53-15,6123/53,6146.666666666667,32.0862099658,34.8298249607,1998
1998-09-27,1998-09-27,"ארמי ברוך 8, בני ברק",ארמי ברוך 8,6187-344-8,,2.0,שניה,48.0,442000,,,1960.0,,5.0,2847022220,1,6187344,False,,בני ברק,אמרי ברוך,,6187-344-8,6187/344,9208.333333333334,32.0749088024,34.8359224421,1998
1998-09-25,1998-09-25,"הרב משה זאב פלדמן 2, בני ברק",הרב משה זאב פלדמן 2,6192-568-3,,3.0,שלישית,60.0,420000,,,1970.0,,,2846814812,1,6192568,False,,בני ברק,הרב משה זאב פלדמן,,6192-568-3,6192/568,7000.0,32.0897483457,34.8400242685,1998
1998-09-25,1998-09-25,"הרב רוזובסקי 9, בני ברק",הרב רוזובסקי 9,6190-1030-20,,,שישית+גג,130.0,1207000,,,1998.0,,7.0,2846629647,1,61901030,False,,בני ברק,הרב רוזובסקי,,6190-1030-20,6190/1030,9284.615384615385,32.0839056296,34.8398975427,1998
1998-09-25,1998-09-25,"הרב רוזובסקי 7, בני ברק",הרב רוזובסקי 7,6190-1029-21,,,שישית + גג,131.0,1207000,,,1998.0,,7.0,2846629183,1,61901029,False,,בני ברק,הרב רוזובסקי,,6190-1029-21,6190/1029,9213.740458015269,32.0839429679,34.8396044914,1998
1998-09-24,1998-09-24,"אבן עזרא 5, בני ברק",אבן עזרא 5,6122-340-2,,3.0,ראשונה,60.0,538000,,,1965.0,,5.0,2846342083,1,6122340,False,,בני ברק,אבן עזרא,,6122-340-2,6122/340,8966.666666666666,32.0907582305,34.8316952689,1998
1998-09-24,1998-09-24,"הרב רוזובסקי 9, בני ברק",הרב רוזובסקי 9,6190-1030-18,,,חמישית+שישית,126.0,920000,,,1998.0,,7.0,2846137256,1,61901030,False,,בני ברק,הרב רוזובסקי,,6190-1030-18,6190/1030,7301.587301587301,32.0839056296,34.8398975427,1998
1998-09-23,1998-09-23,"אברבנאל 34, בני ברק",אברבנאל 34,6195-757-31,,2.0,רביעית,51.87,311000,,,1960.0,,4.0,2846229128,1,6195757,False,,בני ברק,אברבנאל,,6195-757-31,6195/757,5995.758627337575,32.095348443,34.8419466908,1998
1998-09-23,1998-09-23,"האדמו""ר מויז'ניץ 6, בני ברק","האדמו""ר מויז'ניץ 6",6187-315-6,,3.0,ב,60.0,576000,,,1960.0,,3.0,2846422703,1,6187315,False,,בני ברק,"האדמו""ר מויז'ניץ",,6187-315-6,6187/315,9600.0,32.0746000871,34.8366597024,1998
1998-09-23,1998-09-23,"הרי גולן 5, בני ברק",הרי גולן 5,6105-109-21,,3.0,שלישית,75.0,499000,,,1996.0,,5.0,2846344722,1,6105109,False,,בני ברק,הרי גולן,,6105-109-21,6105/109,6653.333333333333,32.0985944231,34.8345396063,1998
1998-09-18,1998-09-18,"אדמו""רי שאץ 5, בני ברק","אדמו""רי שאץ 5",6187-253-4,,3.0,שניה,54.3,585000,,,1994.0,,3.0,2846101151,1,6187253,False,,בני ברק,אדמורי שאץ,,6187-253-4,6187/253,10773.480662983426,32.0745062074,34.8418706572,1998
1998-09-17,1998-09-17,"אמרי חיים 39, בני ברק",אמרי חיים 39,6187-29-0,,5.0,שלישית,569.0,905000,,,1986.0,,3.0,2845763562,1,618729,False,,בני ברק,אמרי חיים,,6187-29-0,6187/29,1590.5096660808435,32.0727812964,34.8383050371,1998
1998-09-17,1998-09-17,"רבי עקיבא 118, בני ברק",רבי עקיבא 118,6122-889-20,,2.0,שלישית,50.0,423000,,,1950.0,,3.0,2846330077,1,6122889,False,,בני ברק,רבי עקיבא,,6122-889-20,6122/889,8460.0,32.0856135658,34.8344949105,1998
1998-09-16,1998-09-16,"נורוק 15, בני ברק",נורוק 15,6195-803-14,,5.0,רביעית + גג,118.45,786000,,,1980.0,,7.0,2846393239,1,6195803,False,,בני ברק,נורוק,,6195-803-14,6195/803,6635.711270578303,32.0972148164,34.8427013349,1998
1998-09-16,1998-09-16,"עזרא 74, בני ברק",עזרא 74,6190-1010-1,,4.0,שלישית,93.0,867000,,,1990.0,,4.0,2846250182,1,61901010,False,,בני ברק,עזרא,,6190-1010-1,6190/1010,9322.58064516129,32.0761350574,34.8336973322,1998
1998-09-16,1998-09-16,"הרב הירש 17, בני ברק",הרב הירש 17,6188-577-3,,5.0,שניה,123.0,978000,,,1990.0,,4.0,2846181249,1,6188577,False,,בני ברק,הרב הירש,,6188-577-3,6188/577,7951.219512195122,32.0803125226,34.8325758722,1998
1998-09-16,1998-09-16,"חנקין 6, בני ברק",חנקין 6,6122-1360-47,,2.0,שלישית,46.0,306000,,,1960.0,,6.0,2845723310,1,61221360,False,,בני ברק,חנקין,,6122-1360-47,6122/1360,6652.173913043478,32.091939115,34.8344930103,1998
1998-09-15,1998-09-15,"יונה הנביא 14, בני ברק",יונה הנביא 14,6192-785-6,,4.0,ב,78.0,691000,,,1960.0,,4.0,2846240090,1,6192785,False,,בני ברק,יונה הנביא,,6192-785-6,6192/785,8858.97435897436,32.0852969447,34.8380274811,1998
1998-09-14,1998-09-14,"נחמיה 4, בני ברק",נחמיה 4,6190-462-5,,3.0,ב,65.0,671000,,,1963.0,,3.0,2845894671,1,6190462,False,,בני ברק,נחמיה,,6190-462-5,6190/462,10323.076923076924,32.079506425,34.8347377791,1998
1998-09-14,1998-09-14,"דניאל 20, בני ברק",דניאל 20,6124-107-1,,2.0,א,56.0,604000,,,1960.0,,2.0,2846375085,1,6124107,False,,בני ברק,דניאל,,6124-107-1,6124/107,10785.714285714286,32.0808354619,34.8264969477,1998
1998-09-14,1998-09-14,"אברבנאל 12, בני ברק",אברבנאל 12,6195-527-14,,5.0,רביעית,97.7,839000,,,1999.0,,4.0,2846064959,1,6195527,False,,בני ברק,אברבנאל,,6195-527-14,6195/527,8587.512794268168,32.0948837822,34.8442573831,1998
1998-09-12,1998-12-09,"חיד""א 9, בני ברק","חיד""א 9",6122-1427-10,,2.0,א,58.0,507000,,,1960.0,,2.0,2847783093,1,61221427,False,,בני ברק,"חיד""א",,6122-1427-10,6122/1427,8741.379310344828,32.0911089609,34.8362833774,1998
1998-09-11,1998-11-09,"אברבנאל 10, בני ברק",אברבנאל 10,6195-528-5,,4.0,שניה,75.0,647000,,,1990.0,,3.0,2846889458,1,6195528,False,,בני ברק,אברבנאל,,6195-528-5,6195/528,8626.666666666666,32.0946373144,34.8443669183,1998
1998-09-09,1998-09-09,"רבנו בחיי 20, בני ברק",רבנו בחיי 20,6122-900-13,,3.0,ג,62.7,596000,,,1950.0,,3.0,2846110953,1,6122900,False,,בני ברק,רבנו בחיי,,6122-900-13,6122/900,9505.582137161084,32.0880792368,34.834540848,1998
1998-09-09,1998-09-09,"גוטליב 4, בני ברק",גוטליב 4,6124-159-14,,3.0,,60.0,885000,,,2009.0,,5.0,2846174376,1,6124159,False,,בני ברק,גוטליב,,6124-159-14,6124/159,14750.0,32.0813604537,34.8280529008,1998
1998-09-08,1998-08-09,"חנקין 6, בני ברק",חנקין 6,6122-1360-48,,2.0,ראשונה,40.0,464000,,,1960.0,,6.0,2845976944,1,61221360,False,,בני ברק,חנקין,,6122-1360-48,6122/1360,11600.0,32.091939115,34.8344930103,1998
1998-09-08,1998-08-09,"יהודה הנשיא 41, בני ברק",יהודה הנשיא 41,6124-212-6,,4.0,שלישית,85.5,806000,,,1970.0,,6.0,2845680535,1,6124212,False,,בני ברק,יהודה הנשיא,,6124-212-6,6124/212,9426.90058479532,32.0792283246,34.8296162926,1998
1998-09-07,1998-07-09,"רשב""ם 22, בני ברק","רשב""ם 22",6190-503-9,,4.0,ג,70.0,704000,,,1965.0,,3.0,2845321167,1,6190503,False,,בני ברק,"רשב""ם",,6190-503-9,6190/503,10057.142857142857,32.07842896,34.8364056842,1998
1998-09-06,1998-06-09,"הרצוג 38, בני ברק",הרצוג 38,6123-515-19,,,ק.תחתונה+רביעית+גג,123.1,1118000,,,1999.0,,5.0,2844791946,1,6123515,False,,בני ברק,הרצוג,,6123-515-19,6123/515,9082.04711616572,32.0863813558,34.8256499007,1998
1998-09-06,1998-06-09,"הרב סורוצקין 8, בני ברק",הרב סורוצקין 8,6192-1030-14,,3.0,רביעית,71.5,531000,,,1970.0,,4.0,2845004661,1,61921030,False,,בני ברק,הרב סורוצקין,,6192-1030-14,6192/1030,7426.573426573426,32.0852234024,34.8421175113,1998
1998-09-04,1998-04-09,"משפחת מקובר 2, בני ברק",משפחת מקובר 2,6123-257-2,,5.0,ראשונה,102.0,923000,,,1979.0,,3.0,2844209829,1,6123257,False,,בני ברק,משפחת מקובר,,6123-257-2,6123/257,9049.019607843138,32.0846215473,34.8263907432,1998
1998-09-04,1998-04-09,"הרב שפירא 2, בני ברק",הרב שפירא 2,6192-937-7,,4.0,שניה,67.64,672000,,,1970.0,,3.0,2844392674,1,6192937,False,,בני ברק,הרב שפירא,,6192-937-7,6192/937,9934.949733885274,32.090415896,34.8392164085,1998
1998-09-04,1998-04-09,"עמי 6, בני ברק",עמי 6,6123-961-5,,4.0,ראשונה,92.0,952000,,,1965.0,,4.0,2844243817,1,6123961,False,,בני ברק,עמי,,6123-961-5,6123/961,10347.826086956522,32.0859486787,34.8248800627,1998
1998-09-03,1998-03-09,"גרונר 50, בני ברק",גרונר 50,6196-2-1,דירה בבית קומות,5.0,שניה,125.0,717000,,,1960.0,,6.0,2843852462,1,61962,False,,בני ברק,גרונר,,6196-2-1,6196/2,5736.0,32.0945520656,34.8279724928,1998
1998-09-03,1998-03-09,"הרב טולידנו 4, בני ברק",הרב טולידנו 4,6192-1020-5,,3.0,שניה,62.0,623000,,,1970.0,,3.0,2843366219,1,61921020,False,,בני ברק,הרב טולידנו,,6192-1020-5,6192/1020,10048.387096774191,32.0858872901,34.8411329817,1998
1998-09-02,1998-02-09,"הרב רוזובסקי 11, בני ברק",הרב רוזובסקי 11,6190-1147-14,,,שלישית,103.0,777000,,,1998.0,,7.0,2843315063,1,61901147,False,,בני ברק,הרב רוזובסקי,,6190-1147-14,6190/1147,7543.689320388349,32.0838794264,34.8401828283,1998
1998-09-02,1998-02-09,"רבנו תם 3, בני ברק",רבנו תם 3,6122-712-5,,2.0,ג,49.47,535000,,,1955.0,,3.0,2842904742,1,6122712,False,,בני ברק,רבנו תם,,6122-712-5,6122/712,10814.635132403477,32.0844288629,34.8355545652,1998
1998-09-02,1998-02-09,"בר-כוכבא 3, בני ברק",בר-כוכבא 3,6196-143-28,,2.0,ב,58.73,423000,,,1965.0,,3.0,2843404760,1,6196143,False,,בני ברק,בר כוכבא,,6196-143-28,6196/143,7202.451898518645,32.0915679626,34.8235783736,1998
1998-09-01,1998-01-09,"דון יוסף הנשיא 10, בני ברק",דון יוסף הנשיא 10,6190-825-11,,2.0,ב,39.0,445000,,,1965.0,,3.0,2842319522,1,6190825,False,,בני ברק,דון יוסף הנשיא,,6190-825-11,6190/825,11410.25641025641,32.0816296523,34.8392574758,1998
1998-08-28,1998-08-28,"צייטלין 4, בני ברק",צייטלין 4,6122-631-8,,3.0,שניה,65.0,581000,,,1993.0,,4.0,2846056636,1,6122631,False,,בני ברק,צייטלין,,6122-631-8,6122/631,8938.461538461539,32.091441121,34.8357698489,1998
1998-08-27,1998-08-27,"עזרא 40, בני ברק",עזרא 40,6190-853-7,,2.0,ג,54.0,516000,,,1970.0,,3.0,2846533686,1,6190853,False,,בני ברק,עזרא,,6190-853-7,6190/853,9555.555555555557,32.0785061352,34.837360741,1998
1998-08-26,1998-08-26,"נחמיה 26, בני ברק",נחמיה 26,6190-483-8,,4.0,ג,78.0,670000,,,1970.0,,3.0,2845940810,1,6190483,False,,בני ברק,נחמיה,,6190-483-8,6190/483,8589.74358974359,32.0788470599,34.8373231411,1998
1998-08-24,1998-08-24,"דון יוסף הנשיא 12, בני ברק",דון יוסף הנשיא 12,6190-824-5,,2.0,א,37.0,465000,,,1960.0,,3.0,2846032682,1,6190824,False,,בני ברק,דון יוסף הנשיא,,6190-824-5,6190/824,12567.567567567568,32.0816085986,34.8389960968,1998
1998-08-24,1998-08-24,"מתתיהו 20, בני ברק",מתתיהו 20,6190-205-5,,4.0,שניה,78.0,775000,,,1990.0,,5.0,2846236755,1,6190205,False,,בני ברק,מתתיהו,,6190-205-5,6190/205,9935.897435897436,32.0773649004,34.8398343592,1998
1998-08-24,1998-08-24,"הרב שטרסר 2, בני ברק",הרב שטרסר 2,6122-1580-1,,4.0,א,77.0,670000,,,1970.0,,3.0,2846170287,1,61221580,False,,בני ברק,הרב שטרסר,,6122-1580-1,6122/1580,8701.298701298701,32.0873687929,34.8336789655,1998
1998-08-23,1998-08-23,"רבי עקיבא 132, בני ברק",רבי עקיבא 132,6122-1484-13,,2.0,ג,53.0,445000,,,1960.0,,4.0,2845830755,1,61221484,False,,בני ברק,רבי עקיבא,,6122-1484-13,6122/1484,8396.22641509434,32.0854637332,34.8360988858,1998
1998-08-23,1998-08-23,"נחמיה 10, בני ברק",נחמיה 10,6190-459-10,,4.0,ג,85.0,817000,,,1960.0,,3.0,2845972681,1,6190459,False,,בני ברק,נחמיה,,6190-459-10,6190/459,9611.764705882351,32.0793228196,34.8354585403,1998
1998-08-19,1998-08-19,"הרב יוסף חיים 8, בני ברק",הרב יוסף חיים 8,6196-287-9,,3.0,שניה,51.5,384000,,,1950.0,,3.0,2845982918,1,6196287,False,,בני ברק,הרב יוסף חיים,,6196-287-9,6196/287,7456.310679611651,32.0936896495,34.82928317,1998
1998-08-17,1998-08-17,"בן-פתחיה 30, בני ברק",בן-פתחיה 30,6122-1094-5,,3.0,ג,62.5,503000,,,1967.0,,3.0,2846005422,1,61221094,False,,בני ברק,בן פתחיה,,6122-1094-5,6122/1094,8048.0,32.0902619069,34.8294852763,1998
1998-08-17,1998-08-17,"הרב קוק 26, בני ברק",הרב קוק 26,6123-764-3,,4.0,א,93.0,737000,,,1964.0,,3.0,2845830291,1,6123764,False,,בני ברק,הרב קוק,,6123-764-3,6123/764,7924.731182795699,32.0858114791,34.8254101461,1998
1998-08-17,1998-08-17,"רימון 4, בני ברק",רימון 4,6187-455-8,,2.0,קרקע,44.2,376000,,,1960.0,,3.0,2845808773,1,6187455,False,,בני ברק,רימון,,6187-455-8,6187/455,8506.787330316742,32.071799846,34.8381503567,1998
1998-08-17,1998-08-17,"רבי עקיבא 89, בני ברק",רבי עקיבא 89,6122-1395-21,,3.0,ג,69.0,541000,,,1960.0,,4.0,2845824549,1,61221395,False,,בני ברק,רבי עקיבא,,6122-1395-21,6122/1395,7840.579710144928,32.0862956774,34.8320573613,1998
1998-08-17,1998-08-17,"מתתיהו 30, בני ברק",מתתיהו 30,6190-200-5,,4.0,שניה,97.7,744000,,,1981.0,,4.0,2845862800,1,6190200,False,,בני ברק,מתתיהו,,6190-200-5,6190/200,7615.148413510747,32.0776353004,34.8388919677,1998
1998-08-16,1998-08-16,"מלאכי 16, בני ברק",מלאכי 16,6192-926-8,,3.0,ג,59.0,515000,,,1970.0,,3.0,2845990371,1,6192926,False,,בני ברק,מלאכי,,6192-926-8,6192/926,8728.813559322034,32.085067726,34.8396606833,1998
1998-08-16,1998-08-16,"הרב רוזובסקי 9, בני ברק",הרב רוזובסקי 9,6190-1030-12,,,רביעית,106.0,831000,,,1998.0,,7.0,2846138938,1,61901030,False,,בני ברק,הרב רוזובסקי,,6190-1030-12,6190/1030,7839.622641509434,32.0839056296,34.8398975427,1998
1998-08-16,1998-08-16,"אור החיים 7, בני ברק",אור החיים 7,6188-564-0,,3.0,שלישית,75.0,425000,,,1960.0,,3.0,2846386801,1,6188564,False,,בני ברק,אור החיים,,6188-564-0,6188/564,5666.666666666667,32.0843340892,34.8336344337,1998
1998-08-13,1998-08-13,"גניחובסקי 23, בני ברק",גניחובסקי 23,6195-717-16,,3.0,רביעית,58.34,359000,,,1970.0,,4.0,2845945566,1,6195717,False,,בני ברק,גניחובסקי,,6195-717-16,6195/717,6153.5824477202605,32.0989098175,34.8400276028,1998
1998-08-13,1998-08-13,"דוד המלך 2, בני ברק",דוד המלך 2,6123-690-14,,3.0,ג,53.0,471000,,,1950.0,,4.0,2845828580,1,6123690,False,,בני ברק,דוד המלך,,6123-690-14,6123/690,8886.792452830188,32.0832952031,34.8267033158,1998
1998-08-12,1998-12-08,"וולפסון 9, בני ברק",וולפסון 9,6123-544-7,,4.0,ג,125.0,678000,,,1960.0,,3.0,2847567072,1,6123544,False,,בני ברק,וולפסון,,6123-544-7,6123/544,5424.0,32.0834023553,34.8299503739,1998
1998-08-11,1998-11-08,"נורוק 28, בני ברק",נורוק 28,6195-672-0,,2.0,ראשונה,50.0,458000,,,1950.0,,4.0,2847718945,1,6195672,False,,בני ברק,נורוק,,6195-672-0,6195/672,9160.0,32.0976279215,34.8434717929,1998
1998-08-09,1998-09-08,"אברהם בן-דוד 6, בני ברק",אברהם בן-דוד 6,6190-74-2,,3.0,רביעית,75.0,586264,,,1996.0,,4.0,2846834445,1,619074,False,,בני ברק,בן דוד אברהם,,6190-74-2,6190/74,7816.853333333333,32.0760750968,34.8423725489,1998
1998-08-09,1998-09-08,"פנקס 8, בני ברק",פנקס 8,6124-160-1,,,קרקע+ראשונה,110.1,710000,,,1970.0,,4.0,2846370039,1,6124160,False,,בני ברק,פנקס,,6124-160-1,6124/160,6448.683015440509,32.0809880422,34.8283473891,1998
1998-08-09,1998-09-08,"הפלמ""ח 2, בני ברק","הפלמ""ח 2",6195-312-11,,2.0,ג,58.0,434000,,,1963.0,,4.0,2846571531,1,6195312,False,,בני ברק,"הפלמ""ח",,6195-312-11,6195/312,7482.758620689655,32.0929123261,34.839410087,1998
1998-08-09,1998-09-08,"אבן גבירול 29, בני ברק",אבן גבירול 29,6122-1755-6,,4.0,שלישית+גג,82.0,694000,,,1955.0,,2.0,2846057100,1,61221755,False,,בני ברק,אבן גבירול,,6122-1755-6,6122/1755,8463.414634146342,32.0903999682,34.8303809897,1998
1998-08-09,1998-09-08,"השריונאים 3, בני ברק",השריונאים 3,6192-814-45,,4.0,ד,65.0,695000,,,1960.0,,4.0,2846005654,1,6192814,False,,בני ברק,השריונאים,,6192-814-45,6192/814,10692.307692307691,32.0843365915,34.8416314745,1998
1998-08-07,1998-07-08,"אברבנאל 83, בני ברק",אברבנאל 83,6195-593-11,,2.0,ב,42.0,392000,,,1970.0,,3.0,2845386939,1,6195593,False,,בני ברק,אברבנאל,,6195-593-11,6195/593,9333.333333333334,32.0956585967,34.8379230235,1998
1998-08-06,1998-06-08,"נחמיה 8, בני ברק",נחמיה 8,6190-460-7,,3.0,ב,60.0,585000,,,1960.0,,3.0,2846652615,1,6190460,False,,בני ברק,נחמיה,,6190-460-7,6190/460,9750.0,32.0793849993,34.8352163696,1998
1998-08-06,1998-06-08,"רבי חייא 18, בני ברק",רבי חייא 18,6192-160-1,,4.0,ראשונה,79.0,1097000,,,1960.0,,2.0,2845234805,1,6192160,False,,בני ברק,רבי חייא,,6192-160-1,6192/160,13886.075949367088,32.0868271377,34.8424627396,1998
1998-08-04,1998-04-08,"רלב""ג 11, בני ברק","רלב""ג 11",6122-1384-29,,3.0,ד,71.0,423000,,,1960.0,,5.0,2843901936,1,61221384,False,,בני ברק,"רלב""ג",,6122-1384-29,6122/1384,5957.74647887324,32.0857582361,34.8313315013,1998
1998-08-04,1998-04-08,"אבן שפרוט 11, בני ברק",אבן שפרוט 11,6122-1546-15,,2.0,ג,42.34,375000,,,1960.0,,4.0,2843969187,1,61221546,False,,בני ברק,אבן שפרוט,,6122-1546-15,6122/1546,8856.872933396315,32.0911355654,34.8329101053,1998
1998-08-03,1998-03-08,"הירקון 65, בני ברק",הירקון 65,6105-223-34,,,שניה,314.0,1464000,,,1997.0,,4.0,2843883811,1,6105223,False,,בני ברק,הירקון,,6105-223-34,6105/223,4662.420382165605,32.0983861696,34.8319144953,1998
1998-08-03,1998-03-08,"ירושלים 31, בני ברק",ירושלים 31,6123-458-11,,2.0,ב,58.8,473000,,,1960.0,,3.0,2843461948,1,6123458,False,,בני ברק,ירושלים,,6123-458-11,6123/458,8044.21768707483,32.0841913746,34.829956333,1998
1998-08-03,1998-03-08,"מנחם 8, בני ברק",מנחם 8,6123-642-5,,2.0,ב,48.55,421000,,,1950.0,,4.0,2843339452,1,6123642,False,,בני ברק,מנחם,,6123-642-5,6123/642,8671.47270854789,32.0874917884,34.8252222161,1998
1998-08-02,1998-02-08,"אבן גבירול 7, בני ברק",אבן גבירול 7,6122-1524-20,,2.0,ד,45.0,368000,,,1960.0,,4.0,2843349051,1,61221524,False,,בני ברק,אבן גבירול,,6122-1524-20,6122/1524,8177.777777777777,32.0897987843,34.832898553,1998
1998-08-02,1998-02-08,"עזרא 42, בני ברק",עזרא 42,6190-486-8,,3.0,ג,62.5,518000,,,1965.0,,3.0,2842883195,1,6190486,False,,בני ברק,עזרא,,6190-486-8,6190/486,8288.0,32.0782906861,34.83721447,1998
1998-08-02,1998-02-08,"קושניר 22, בני ברק",קושניר 22,6187-207-0,,5.0,שלישית,360.0,787000,,,1989.0,,4.0,2843725848,1,6187207,False,,בני ברק,קושניר,,6187-207-0,6187/207,2186.1111111111118,32.0731351375,34.8409430143,1998
1998-08-02,1998-02-08,"ישמח משה 7, בני ברק",ישמח משה 7,6190-1119-1,,2.0,שלישית,50.0,324000,,,1960.0,,3.0,2843040172,1,61901119,False,,בני ברק,ישמח משה,,6190-1119-1,6190/1119,6480.0,32.0817253541,34.8357362381,1998
1998-08-02,1998-02-08,"נורוק 15, בני ברק",נורוק 15,6195-803-26,,3.0,שלישית,77.43,500000,,,1980.0,,7.0,2842868608,1,6195803,False,,בני ברק,נורוק,,6195-803-26,6195/803,6457.445434586077,32.0972148164,34.8427013349,1998
1998-07-29,1998-07-29,"צבי 11, בני ברק",צבי 11,6790-65-25,,2.0,שלישית,66.5,489000,,,1965.0,,5.0,2845916421,1,679065,False,,בני ברק,צבי,,6790-65-25,6790/65,7353.383458646616,32.0979296365,34.8383395166,1998
1998-07-27,1998-07-27,"רלב""ג 8, בני ברק","רלב""ג 8",6188-493-17,,2.0,ג,48.5,366000,,,1960.0,,3.0,2845616880,1,6188493,False,,בני ברק,"רלב""ג",,6188-493-17,6188/493,7546.391752577319,32.0853016325,34.8315471662,1998
1998-07-27,1998-07-27,"ירושלים 55, בני ברק",ירושלים 55,6124-32-12,,2.0,ב,50.2,466000,,,1960.0,,3.0,2845962357,1,612432,False,,בני ברק,ירושלים,,6124-32-12,6124/32,9282.868525896414,32.082752298,34.8275046875,1998
1998-07-26,1998-07-26,"קובלסקי 7, בני ברק",קובלסקי 7,6195-806-15,,3.0,רביעית,65.06,417000,,,1970.0,,4.0,2845938461,1,6195806,False,,בני ברק,קובלסקי,,6195-806-15,6195/806,6409.468183215493,32.0975000441,34.8422772541,1998
1998-07-26,1998-07-26,"אברהם בן-דוד 6, בני ברק",אברהם בן-דוד 6,6190-74-1,,3.0,ראשונה,75.0,510000,,,1996.0,,4.0,2845966417,1,619074,False,,בני ברק,בן דוד אברהם,,6190-74-1,6190/74,6800.0,32.0760750968,34.8423725489,1998
1998-07-26,1998-07-26,"הרב רוזובסקי 9, בני ברק",הרב רוזובסקי 9,6190-1030-8,,,שלישית,111.0,931000,,,1998.0,,7.0,2846033146,1,61901030,False,,בני ברק,הרב רוזובסקי,,6190-1030-8,6190/1030,8387.387387387387,32.0839056296,34.8398975427,1998
1998-07-23,1998-07-23,"הרב רוזובסקי 5, בני ברק",הרב רוזובסקי 5,6190-1028-21,,,חמישית,150.0,1207000,,,1999.0,,7.0,2846142766,1,61901028,False,,בני ברק,הרב רוזובסקי,,6190-1028-21,6190/1028,8046.666666666667,32.0839897898,34.8393152962,1998
1998-07-23,1998-07-23,"האדמו""ר מוישוי 2, בני ברק","האדמו""ר מוישוי 2",6190-554-1,,2.0,ראשונה,48.0,274000,,,1951.0,,1.0,2845607571,1,6190554,False,,בני ברק,"האדמו""ר מוישוי",,6190-554-1,6190/554,5708.333333333333,32.0754468232,34.8372482815,1998
1998-07-22,1998-07-22,"שבטי ישראל 30, בני ברק",שבטי ישראל 30,6122-820-9,,4.0,חמישית,100.0,693000,,,1995.0,,3.0,2846059275,1,6122820,False,,בני ברק,שבטי ישראל,,6122-820-9,6122/820,6930.0,32.091446071,34.8326285878,1998
1998-07-22,1998-07-22,"מנחם 27, בני ברק",מנחם 27,6196-351-7,,4.0,שניה,71.41,678000,,,1990.0,,4.0,2845910244,1,6196351,False,,בני ברק,מנחם,,6196-351-7,6196/351,9494.468561826076,32.0884424332,34.8229824489,1998
1998-07-22,1998-07-22,"הרב פתיה 12, בני ברק",הרב פתיה 12,6196-292-11,,3.0,שלישית,56.5,410000,,,1970.0,,4.0,2845972159,1,6196292,False,,בני ברק,הרב פתאיה,,6196-292-11,6196/292,7256.637168141593,32.0955366898,34.8299450847,1998
1998-07-20,1998-07-20,"גרונר 50, בני ברק",גרונר 50,6196-2-3,דירה בבית קומות,3.0,שלישית,75.0,601000,,,1960.0,,6.0,2845737955,1,61962,False,,בני ברק,גרונר,,6196-2-3,6196/2,8013.333333333333,32.0945520656,34.8279724928,1998
1998-07-19,1998-07-19,"הרב שך 56, בני ברק",הרב שך 56,6122-1633-9,,3.0,ב,62.0,572000,,,1970.0,,3.0,2845532925,1,61221633,False,,בני ברק,הרב שך,,6122-1633-9,6122/1633,9225.806451612903,32.0910027009,34.8356585051,1998
1998-07-19,1998-07-19,"אהרונסון 16, בני ברק",אהרונסון 16,6124-152-1,,3.0,שניה,79.0,758000,,,1940.0,,3.0,2845513727,1,6124152,False,,בני ברק,אהרונסון,,6124-152-1,6124/152,9594.93670886076,32.0809428455,34.8274561288,1998
1998-07-13,1998-07-13,"יהודה הנשיא 42, בני ברק",יהודה הנשיא 42,6188-469-9,,2.0,ג,50.0,582000,,,1960.0,,3.0,2845440821,1,6188469,False,,בני ברק,יהודה הנשיא,,6188-469-9,6188/469,11640.0,32.0787888188,34.8297657422,1998
1998-07-13,1998-07-13,"גרונר 31, בני ברק",גרונר 31,6196-2-2,,2.0,ראשונה,54.0,440000,,,1960.0,,6.0,2845807091,1,61962,False,,בני ברק,גרונר,,6196-2-2,6196/2,8148.148148148148,32.0945520656,34.8279724928,1998
1998-07-13,1998-07-13,"יבנה 3, בני ברק",יבנה 3,6123-459-12,,2.0,ב,44.45,403000,,,1960.0,,2.0,2845862104,1,6123459,False,,בני ברק,יבנה,,6123-459-12,6123/459,9066.36670416198,32.0842451696,34.8302102081,1998
1998-07-12,1998-12-07,"אנילביץ 47, בני ברק",אנילביץ 47,6124-206-1,,4.0,שניה,125.0,1592000,,,1947.0,,2.0,2847596710,1,6124206,False,,בני ברק,אנילביץ,,6124-206-1,6124/206,12736.0,32.0800895422,34.8289592247,1998
1998-07-09,1998-09-07,"רבי עקיבא 138, בני ברק",רבי עקיבא 138,6192-948-8,,3.0,שניה,68.0,618000,,,1970.0,,3.0,2846418382,1,6192948,False,,בני ברק,רבי עקיבא,,6192-948-8,6192/948,9088.235294117649,32.0853987145,34.83681016,1998
1998-07-09,1998-09-07,"אבן שפרוט 7, בני ברק",אבן שפרוט 7,6122-1547-16,,2.0,ג,42.34,425000,,,1960.0,,4.0,2846347361,1,61221547,False,,בני ברק,אבן שפרוט,,6122-1547-16,6122/1547,10037.789324515825,32.0908922998,34.8322578147,1998
1998-07-08,1998-08-07,"הרב שך 50, בני ברק",הרב שך 50,6122-1560-0,,3.0,שניה,80.0,754000,,,1970.0,,4.0,2845861147,1,61221560,False,,בני ברק,הרב שך,,6122-1560-0,6122/1560,9425.0,32.0901019291,34.8358820992,1998
1998-07-08,1998-08-07,"הרב משה זאב פלדמן 10, בני ברק",הרב משה זאב פלדמן 10,6192-566-3,,2.0,קרקע,24.97,260000,,,1950.0,,1.0,2846651397,1,6192566,False,,בני ברק,הרב משה זאב פלדמן,,6192-566-3,6192/566,10412.494993992792,32.089331051,34.840317435,1998
1998-07-07,1998-07-07,"עלי הכהן 6, בני ברק",עלי הכהן 6,6123-768-1,,2.0,א,38.22,403000,,,1970.0,,4.0,2845191943,1,6123768,False,,בני ברק,עלי הכהן,,6123-768-1,6123/768,10544.21768707483,32.0906821235,34.8248088197,1998
1998-07-07,1998-07-07,"חיד""א 25, בני ברק","חיד""א 25",6192-793-23,,2.0,ג,47.0,429000,,,1960.0,,3.0,2845215897,1,6192793,False,,בני ברק,"חיד""א",,6192-793-23,6192/793,9127.659574468084,32.0914417556,34.8373519977,1998
1998-07-06,1998-06-07,"הרב רוזובסקי 9, בני ברק",הרב רוזובסקי 9,6190-1030-2,,,ראשונה,117.0,817000,,,1998.0,,7.0,2844937642,1,61901030,False,,בני ברק,הרב רוזובסקי,,6190-1030-2,6190/1030,6982.905982905983,32.0839056296,34.8398975427,1998
1998-07-04,1998-04-07,"טבריה 4, בני ברק",טבריה 4,6123-672-23,,2.0,ב,47.5,405000,,,1950.0,,3.0,2844090465,1,6123672,False,,בני ברק,טבריה,,6123-672-23,6123/672,8526.315789473685,32.087103811,34.8264221813,1998
1998-07-04,1998-04-07,"מנחם 19, בני ברק",מנחם 19,6196-348-4,,4.0,שניה,118.3,1365000,,,1995.0,,5.0,2844195996,1,6196348,False,,בני ברק,מנחם,,6196-348-4,6196/348,11538.46153846154,32.0884762985,34.8242621873,1998
1998-07-01,1998-01-07,"דונולו 10, בני ברק",דונולו 10,6122-1337-10,,4.0,שלישית רביעי,112.0,1069000,,,1970.0,,3.0,2842036482,1,61221337,False,,בני ברק,דונולו,,6122-1337-10,6122/1337,9544.642857142857,32.0877958034,34.8349420826,1998
1998-07-01,1998-01-07,"הרצוג 43, בני ברק",הרצוג 43,6123-16-11,,2.0,ב,57.0,481000,,,1960.0,,4.0,2842232406,1,612316,False,,בני ברק,הרצוג,,6123-16-11,6123/16,8438.59649122807,32.0866340472,34.8259731807,1998
1998-07-01,1998-01-07,"גניחובסקי 4, בני ברק",גניחובסקי 4,6195-763-6,,3.0,ראשונה,64.1,409000,,,1960.0,,3.0,2842282199,1,6195763,False,,בני ברק,גניחובסקי,,6195-763-6,6195/763,6380.655226209049,32.0990182106,34.8430502863,1998
1998-06-29,1998-06-29,"הרב ניסים יצחק 23, בני ברק",הרב ניסים יצחק 23,6187-24-9,,3.0,שניה,60.0,660000,,,1998.0,,2.0,2845632395,1,618724,False,,בני ברק,הרב נסים יצחק,,6187-24-9,6187/24,11000.0,32.0733260733,34.8380122749,1998
1998-06-28,1998-06-28,"יופה 3, בני ברק",יופה 3,6188-386-7,,2.0,ב,34.0,422000,,,1960.0,,2.0,2845161290,1,6188386,False,,בני ברק,יפה,,6188-386-7,6188/386,12411.764705882351,32.0762995684,34.8308180433,1998
1998-06-28,1998-06-28,"ברויאר 12, בני ברק",ברויאר 12,6192-574-2,,7.0,,270.0,2202000,,,1983.0,,2.0,2845649186,1,6192574,False,,בני ברק,ברויאר,,6192-574-2,6192/574,8155.555555555556,32.0900029695,34.8411411267,1998
1998-06-25,1998-06-25,"רמב""ם 17, בני ברק","רמב""ם 17",6122-959-3,,3.0,א,54.0,603000,,,1960.0,,3.0,2845215201,1,6122959,False,,בני ברק,"רמב""ם",,6122-959-3,6122/959,11166.666666666666,32.0886685754,34.8293661189,1998
1998-06-23,1998-06-23,"טרומפלדור 5, בני ברק",טרומפלדור 5,6195-499-3,,2.0,א,47.0,438000,,,1960.0,,3.0,2845163001,1,6195499,False,,בני ברק,טרומפלדור,,6195-499-3,6195/499,9319.148936170212,32.0949274671,34.8392431244,1998
1998-06-23,1998-06-23,"הרב אריה רבינוביץ 7, בני ברק",הרב אריה רבינוביץ 7,6187-169-1,,3.0,ראשונה,75.0,602000,,,1995.0,,2.0,2845537449,1,6187169,False,,בני ברק,הרב רבינוביץ אריה,,6187-169-1,6187/169,8026.666666666667,32.0722082476,34.8403107017,1998
1998-06-21,1998-06-21,"חנקין 6, בני ברק",חנקין 6,6122-1360-49,,2.0,שניה,46.0,429000,,,1970.0,,6.0,2845242722,1,61221360,False,,בני ברק,חנקין,,6122-1360-49,6122/1360,9326.08695652174,32.091939115,34.8344930103,1998
1998-06-21,1998-06-21,"הרצוג 38, בני ברק",הרצוג 38,6123-515-11,,4.0,שניה,83.1,861000,,,1999.0,,5.0,2844961074,1,6123515,False,,בני ברק,הרצוג,,6123-515-11,6123/515,10361.01083032491,32.0863813558,34.8256499007,1998
1998-06-18,1998-06-18,"צייטלין 4, בני ברק",צייטלין 4,6122-631-9,,3.0,חמישית,75.0,550000,,,1993.0,,4.0,2845588692,1,6122631,False,,בני ברק,צייטלין,,6122-631-9,6122/631,7333.333333333333,32.091441121,34.8357698489,1998
1998-06-18,1998-06-18,"יבנה 3, בני ברק",יבנה 3,6123-459-11,,3.0,ב,44.45,387000,,,1960.0,,2.0,2845543655,1,6123459,False,,בני ברק,יבנה,,6123-459-11,6123/459,8706.411698537682,32.0842451696,34.8302102081,1998
1998-06-17,1998-06-17,"רבי עקיבא 96, בני ברק",רבי עקיבא 96,6122-653-8,,1.0,א,31.84,382000,,,1958.0,,5.0,2844881179,1,6122653,False,,בני ברק,רבי עקיבא,,6122-653-8,6122/653,11997.48743718593,32.0856751395,34.8317657972,1998
1998-06-16,1998-06-16,"הרצוג 38, בני ברק",הרצוג 38,6123-515-12,,4.0,שלישית,83.1,848000,,,1999.0,,5.0,2844960842,1,6123515,False,,בני ברק,הרצוג,,6123-515-12,6123/515,10204.572803850782,32.0863813558,34.8256499007,1998
1998-06-14,1998-06-14,"חולדה הנביאה 12, בני ברק",חולדה הנביאה 12,6188-322-6,,1.0,ב,32.44,386000,,,1950.0,,3.0,2873037540,1,6188322,False,,בני ברק,חולדה הנביאה,,6188-322-6,6188/322,11898.890258939582,32.0778694044,34.8297101036,1998
1998-06-14,1998-06-14,"רמב""ם 8, בני ברק","רמב""ם 8",6122-1315-4,,2.0,א,45.0,427000,,,1964.0,,3.0,2844924708,1,61221315,False,,בני ברק,"רמב""ם",,6122-1315-4,6122/1315,9488.888888888889,32.0883825913,34.8303294544,1998
1998-06-12,1998-12-06,"הרב מלצר 19, בני ברק",הרב מלצר 19,6190-1041-21,,5.0,רביעית+גג,109.0,1088000,,,1996.0,,5.0,2871024969,1,61901041,False,,בני ברק,הרב מלצר,,6190-1041-21,6190/1041,9981.651376146789,32.0823829124,34.8392755175,1998
1998-06-09,1998-09-06,"מרים הנביאה 8, בני ברק",מרים הנביאה 8,6188-313-5,,2.0,ב,32.44,553000,,,1950.0,,2.0,2846040106,1,6188313,False,,בני ברק,מרים הנביאה,,6188-313-5,6188/313,17046.855733662145,32.0782080841,34.8307855105,1998
1998-06-07,1998-07-06,"הרב פוברסקי 4, בני ברק",הרב פוברסקי 4,6192-814-176,,3.0,ד,48.0,498000,,,1960.0,,4.0,2845661134,1,6192814,False,,בני ברק,הרב פוברסקי,,6192-814-176,6192/814,10375.0,32.0843365915,34.8416314745,1998
1998-06-05,1998-05-06,"רב אשי 14, בני ברק",רב אשי 14,6190-989-1,,2.0,ראשונה,25.0,383000,,,1960.0,,1.0,2844612755,1,6190989,False,,בני ברק,רב אשי,,6190-989-1,6190/989,15320.0,32.0770810036,34.8373880182,1998
1998-06-05,1998-05-06,"בן זכאי 51, בני ברק",בן זכאי 51,6188-186-10,,3.0,ג,62.0,605000,,,1960.0,,3.0,2844201738,1,6188186,False,,בני ברק,בן זכאי,,6188-186-10,6188/186,9758.064516129032,32.0806860806,34.8312551169,1998
1998-06-04,1998-04-06,"יצחק שדה 12, בני ברק",יצחק שדה 12,6188-384-1,,2.0,רביעית,30.0,338000,,,1950.0,,1.0,2844347695,1,6188384,False,,בני ברק,שדה יצחק,,6188-384-1,6188/384,11266.666666666666,32.0762786022,34.8303989378,1998
1998-06-03,1998-03-06,"חיד""א 25, בני ברק","חיד""א 25",6192-793-2,,,א,24.0,136000,,,1960.0,,3.0,2843935924,1,6192793,False,,בני ברק,"חיד""א",,6192-793-2,6192/793,5666.666666666667,32.0914417556,34.8373519977,1998
1998-06-03,1998-03-06,"רבי עקיבא 54, בני ברק",רבי עקיבא 54,6123-24-0,,3.0,שניה,75.0,654000,,,1970.0,,,2843369090,1,612324,False,,בני ברק,רבי עקיבא,,6123-24-0,6123/24,8720.0,32.0873595196,34.8277407783,1998
1998-05-28,1998-05-28,"חפץ חיים 7, בני ברק",חפץ חיים 7,6122-138-7,,4.0,ב,66.59,644000,,,1960.0,,3.0,2844813261,1,6122138,False,,בני ברק,חפץ חיים,,6122-138-7,6122/138,9671.121790058569,32.0845943653,34.833120423,1998
1998-05-26,1998-05-26,"אברבנאל 14, בני ברק",אברבנאל 14,6195-526-2,,4.0,ראשונה,87.16,640000,,,1992.0,,3.0,2844520941,1,6195526,False,,בני ברק,אברבנאל,,6195-526-2,6195/526,7342.817806333181,32.0950578812,34.8440413182,1998
1998-05-26,1998-05-26,"בן-פתחיה 23, בני ברק",בן-פתחיה 23,6122-215-9,,2.0,א,44.0,327000,,,1960.0,,4.0,2844675685,1,6122215,False,,בני ברק,בן פתחיה,,6122-215-9,6122/215,7431.818181818182,32.0906547326,34.8291732763,1998
1998-05-25,1998-05-25,"טבריה 17, בני ברק",טבריה 17,6123-786-12,,3.0,ג,65.0,607000,,,1960.0,,6.0,2844682877,1,6123786,False,,בני ברק,טבריה,,6123-786-12,6123/786,9338.46153846154,32.0866054496,34.824594398,1998
1998-05-25,1998-05-25,"הנצי""ב 10, בני ברק","הנצי""ב 10",6188-314-2,,2.0,א,32.44,509000,,,1950.0,,2.0,2844671161,1,6188314,False,,בני ברק,"הנצי""ב",,6188-314-2,6188/314,15690.505548705303,32.0779564739,34.8308965953,1998
1998-05-25,1998-05-25,"אחיה השילוני 3, בני ברק",אחיה השילוני 3,6196-56-3,,4.0,ראשונה,80.0,746000,,,1970.0,,2.0,2844540980,1,619656,False,,בני ברק,אחיה השילוני,,6196-56-3,6196/56,9325.0,32.0890142356,34.8240299114,1998
1998-05-22,1998-05-22,"רבי עקיבא 93, בני ברק",רבי עקיבא 93,6122-1676-9,,2.0,שלישית,56.0,455000,,,1973.0,,4.0,2844489592,1,61221676,False,,בני ברק,רבי עקיבא,,6122-1676-9,6122/1676,8125.0,32.0861408285,34.8324901674,1998
1998-05-22,1998-05-22,"אהרון דב פוקס 14, בני ברק",אהרון דב פוקס 14,6123-892-23,,4.0,ג,76.5,747000,,,1969.0,,3.0,2844726406,1,6123892,False,,בני ברק,פוקס אהרון דב,,6123-892-23,6123/892,9764.70588235294,32.0862967351,34.8241552547,1998
1998-05-21,1998-05-21,"אנילביץ 35, בני ברק",אנילביץ 35,6124-204-1,,6.0,שניה,150.0,1116000,,,1950.0,,1.0,2844465580,1,6124204,False,,בני ברק,אנילביץ,,6124-204-1,6124/204,7440.0,32.0804475624,34.8294264388,1998
1998-05-20,1998-05-20,"פרל חיים 17, בני ברק",פרל חיים 17,6122-211-4,,4.0,ראשונה,76.0,694000,,,1970.0,,2.0,2844717851,1,6122211,False,,בני ברק,פרל חיים,,6122-211-4,6122/211,9131.578947368422,32.0909752409,34.8279878865,1998
1998-05-19,1998-05-19,"הירדן 19, בני ברק",הירדן 19,6122-1806-5,,3.0,שניה,58.77,541000,,,1980.0,,3.0,2844925694,1,61221806,False,,בני ברק,הירדן,,6122-1806-5,6122/1806,9205.376892972605,32.0922121131,34.8366788647,1998
1998-05-19,1998-05-19,"חגי 13, בני ברק",חגי 13,6192-1034-8,,3.0,שלישית,60.0,731000,,,1974.0,,3.0,2844395777,1,61921034,False,,בני ברק,חגי,,6192-1034-8,6192/1034,12183.333333333334,32.0880607955,34.8369712187,1998
1998-05-18,1998-05-18,"דבורה הנביאה 13, בני ברק",דבורה הנביאה 13,6190-710-2,,3.0,א,56.0,584000,,,1969.0,,3.0,2844988363,1,6190710,False,,בני ברק,דבורה הנביאה,,6190-710-2,6190/710,10428.57142857143,32.078040749,34.8348518212,1998
1998-05-18,1998-05-18,"הרב עוזיאל 49, בני ברק",הרב עוזיאל 49,6187-142-1,,6.0,שלישית,125.0,913000,,,1986.0,,2.0,2844835765,1,6187142,False,,בני ברק,הרב עוזיאל,,6187-142-1,6187/142,7304.0,32.0721007363,34.8396906834,1998
1998-05-15,1998-05-15,"עזרא 6, בני ברק",עזרא 6,6190-832-6,,2.0,ג,39.0,436000,,,1970.0,,3.0,2844998165,1,6190832,False,,בני ברק,עזרא,,6190-832-6,6190/832,11179.48717948718,32.0811132405,34.8398565154,1998
1998-05-14,1998-05-14,"האדמו""ר מראדזמין 10, בני ברק","האדמו""ר מראדזמין 10",6190-1149-24,,,שישית+ גג,128.9,1056000,,,1999.0,,6.0,2844927579,1,61901149,False,,בני ברק,"האדמו""ר מראדזמין",,6190-1149-24,6190/1149,8192.397207137315,32.0834322837,34.8403454564,1998
1998-05-14,1998-05-14,"שלמה בן-יוסף 4, בני ברק",שלמה בן-יוסף 4,7361-95-6,,4.0,שניה,100.0,477000,,,1970.0,,5.0,2844358918,1,736195,False,,בני ברק,בן יוסף שלמה,,7361-95-6,7361/95,4770.0,32.0935212169,34.8307331238,1998
1998-05-08,1998-08-05,"הירקון 65, בני ברק",הירקון 65,6105-223-1,,,שניה,106.0,678000,,,1997.0,,4.0,2845998984,1,6105223,False,,בני ברק,הירקון,,6105-223-1,6105/223,6396.226415094339,32.0983861696,34.8319144953,1998
1998-05-08,1998-08-05,"האדמו""ר מראדזמין 10, בני ברק","האדמו""ר מראדזמין 10",6190-1149-23,,,שישית+ גג,146.0,1098000,,,1999.0,,6.0,2845777859,1,61901149,False,,בני ברק,"האדמו""ר מראדזמין",,6190-1149-23,6190/1149,7520.54794520548,32.0834322837,34.8403454564,1998
1998-05-08,1998-08-05,"גיבורי ישראל 33, בני ברק",גיבורי ישראל 33,6189-406-4,,4.0,ראשונה+שניה,100.0,620000,,,1950.0,,3.0,2846534875,1,6189406,False,,בני ברק,גבורי ישראל,,6189-406-4,6189/406,6200.0,32.0828456265,34.8440773691,1998
1998-05-08,1998-08-05,"נחמן מברסלב 10, בני ברק",נחמן מברסלב 10,6190-429-7,,2.0,ב,50.0,423000,,,1960.0,,3.0,2846420064,1,6190429,False,,בני ברק,נחמן מברסלב,,6190-429-7,6190/429,8460.0,32.0798261208,34.8373248023,1998
1998-05-07,1998-07-05,"רבי עקיבא 31, בני ברק",רבי עקיבא 31,6122-1603-29,,4.0,ג,70.5,609000,,,1970.0,,4.0,2845215433,1,61221603,False,,בני ברק,רבי עקיבא,,6122-1603-29,6122/1603,8638.297872340425,32.0887671723,34.8270946125,1998
1998-05-06,1998-06-05,"הרצוג 38, בני ברק",הרצוג 38,6123-515-14,,,שלישית,84.0,852000,,,1999.0,,5.0,2844790989,1,6123515,False,,בני ברק,הרצוג,,6123-515-14,6123/515,10142.857142857143,32.0863813558,34.8256499007,1998
1998-05-04,1998-04-05,"שבטי ישראל 36, בני ברק",שבטי ישראל 36,6122-817-12,,3.0,ג,59.0,537000,,,1970.0,,3.0,2844239061,1,6122817,False,,בני ברק,שבטי ישראל,,6122-817-12,6122/817,9101.694915254237,32.0915732284,34.8331579479,1998
1998-05-04,1998-04-05,"הרב קוק 20, בני ברק",הרב קוק 20,6123-676-58,,2.0,ד,49.0,399000,,,1958.0,,4.0,2844240714,1,6123676,False,,בני ברק,הרב קוק,,6123-676-58,6123/676,8142.857142857143,32.0866440671,34.8262107044,1998
1998-05-04,1998-04-05,"רבי עקיבא 136, בני ברק",רבי עקיבא 136,6192-801-15,,2.0,ד,46.0,423000,,,1960.0,,8.0,2843885174,1,6192801,False,,בני ברק,רבי עקיבא,,6192-801-15,6192/801,9195.652173913044,32.0854665157,34.836639128,1998
1998-05-03,1998-03-05,"בירנבוים 11, בני ברק",בירנבוים 11,6184-190-15,,3.0,רביעית+גג,84.4,679000,,,1991.0,,4.0,2843503128,1,6184190,False,,בני ברק,בירנבוים,,6184-190-15,6184/190,8045.023696682464,32.0721956968,34.8412879168,1998
1998-05-03,1998-03-05,"רבנו בחיי 16, בני ברק",רבנו בחיי 16,6122-1409-12,,2.0,שלישית,50.0,447000,,,1950.0,,4.0,2843825202,1,61221409,False,,בני ברק,רבנו בחיי,,6122-1409-12,6122/1409,8940.0,32.0878265803,34.8345164696,1998
1998-05-02,1998-02-05,"שח""ל 19, בני ברק","שח""ל 19",6192-610-4,,2.0,ראשונה,39.3,358000,,,1960.0,,1.0,2843040404,1,6192610,False,,בני ברק,"שח""ל",,6192-610-4,6192/610,9109.41475826972,32.0914733602,34.8422022766,1998
1998-05-02,1998-02-05,"המכבים 67, בני ברק",המכבים 67,7361-31-15,,2.0,רביעית,35.9,286000,,,1950.0,,4.0,2843350472,1,736131,False,,בני ברק,המכבים,,7361-31-15,7361/31,7966.573816155989,32.0958611946,34.8334390567,1998
1998-05-01,1998-01-05,"ירושלים 31, בני ברק",ירושלים 31,6123-458-1,,2.0,קרקע,32.2,355000,,,1960.0,,3.0,2842208220,1,6123458,False,,בני ברק,ירושלים,,6123-458-1,6123/458,11024.844720496894,32.0841913746,34.829956333,1998
1998-04-26,1998-04-26,"הרב קוק 18, בני ברק",הרב קוק 18,6123-676-21,,3.0,א,52.5,404000,,,1958.0,,4.0,2844018458,1,6123676,False,,בני ברק,הרב קוק,,6123-676-21,6123/676,7695.238095238095,32.0866440671,34.8262107044,1998
1998-04-23,1998-04-23,"הרי גולן 5, בני ברק",הרי גולן 5,6105-109-4,,3.0,ראשונה,63.9,485000,,,1996.0,,5.0,2844521608,1,6105109,False,,בני ברק,הרי גולן,,6105-109-4,6105/109,7589.984350547731,32.0985944231,34.8345396063,1998
1998-04-15,1998-04-15,"ביאליק 17, בני ברק",ביאליק 17,6195-139-2,,2.0,ראשונה,60.5,477000,,,1994.0,,3.0,2844153859,1,6195139,False,,בני ברק,ביאליק,,6195-139-2,6195/139,7884.297520661157,32.0944011118,34.8364607205,1998
1998-04-15,1998-04-15,"הרצל 86, בני ברק",הרצל 86,6195-60-2,,4.0,ראשונה+שניה,109.0,736000,,,1995.0,,4.0,2843945465,1,619560,False,,בני ברק,הרצל,,6195-60-2,6195/60,6752.293577981652,32.0938467313,34.835862047,1998
1998-04-12,1998-12-04,"אבטליון 11, בני ברק",אבטליון 11,6122-770-7,,4.0,ג,95.0,764000,,,1965.0,,3.0,2847583573,1,6122770,False,,בני ברק,אבטליון,,6122-770-7,6122/770,8042.105263157895,32.0876619888,34.8317345124,1998
1998-04-11,1998-11-04,"אהרון דב פוקס 24, בני ברק",אהרון דב פוקס 24,6123-913-6,,2.0,ג,52.5,534000,,,1968.0,,3.0,2846785116,1,6123913,False,,בני ברק,פוקס אהרון דב,,6123-913-6,6123/913,10171.42857142857,32.0861738151,34.8236737008,1998
1998-04-11,1998-11-04,"סוקולוב 47, בני ברק",סוקולוב 47,6122-1545-34,,2.0,ג,42.34,401000,,,1960.0,,4.0,2847481116,1,61221545,False,,בני ברק,סוקולוב,,6122-1545-34,6122/1545,9470.94945677846,32.0912028726,34.8332735176,1998
1998-04-09,1998-09-04,"רוזנהיים 9, בני ברק",רוזנהיים 9,6192-849-3,,3.0,א,57.5,462000,,,1960.0,,3.0,2846236523,1,6192849,False,,בני ברק,רוזנהיים,,6192-849-3,6192/849,8034.782608695652,32.0868935201,34.8406325432,1998
1998-04-08,1998-08-04,"הרב שטרסר 14, בני ברק",הרב שטרסר 14,6122-761-4,,3.0,א,64.1,613000,,,1961.0,,2.0,2846075312,1,6122761,False,,בני ברק,הרב שטרסר,,6122-761-4,6122/761,9563.182527301093,32.0874253428,34.8325297559,1998
1998-04-08,1998-08-04,"צירלסון 15, בני ברק",צירלסון 15,6192-590-6,,2.0,ראשונה,33.5,281000,,,1950.0,,1.0,2845677432,1,6192590,False,,בני ברק,צירלסון,,6192-590-6,6192/590,8388.059701492537,32.0919212263,34.8417365044,1998
1998-04-06,1998-06-04,"חרל""פ 7, בני ברק","חרל""פ 7",6123-371-1,,4.0,ראשונה,73.17,862000,,,1994.0,,4.0,2844706831,1,6123371,False,,בני ברק,"חרל""פ",,6123-371-1,6123/371,11780.78447451141,32.0859588664,34.8230627343,1998
1998-04-06,1998-06-04,"הרצוג 38, בני ברק",הרצוג 38,6123-515-10,,,שניה,84.0,812000,,,1999.0,,5.0,2844791482,1,6123515,False,,בני ברק,הרצוג,,6123-515-10,6123/515,9666.666666666666,32.0863813558,34.8256499007,1998
1998-04-03,1998-03-04,"רבי יוסי 3, בני ברק",רבי יוסי 3,6123-720-2,,2.0,א,44.5,386000,,,1957.0,,3.0,2843404064,1,6123720,False,,בני ברק,רבי יוסי,,6123-720-2,6123/720,8674.157303370786,32.0865257264,34.8269721718,1998
1998-04-03,1998-03-04,"גניחובסקי 28, בני ברק",גניחובסקי 28,6195-775-13,,3.0,רביעית,58.34,342000,,,1970.0,,4.0,2843935721,1,6195775,False,,בני ברק,גניחובסקי,,6195-775-13,6195/775,5862.187178608158,32.0993743091,34.8395525993,1998
1998-04-02,1998-02-04,"צירלסון 5, בני ברק",צירלסון 5,6192-585-1,,2.0,קומה ‎0‏,50.0,824000,,,1951.0,,8.0,2842979620,1,6192585,False,,בני ברק,צירלסון,,6192-585-1,6192/585,16480.0,32.090930772,34.8406760238,1998
1998-03-31,1998-03-31,"יונה הנביא 23, בני ברק",יונה הנביא 23,6192-321-3,,2.0,א,48.25,496000,,,1960.0,,3.0,2843769377,1,6192321,False,,בני ברק,יונה הנביא,,6192-321-3,6192/321,10279.79274611399,32.0864234702,34.8378414705,1998
1998-03-31,1998-03-31,"הרב רוזובסקי 7, בני ברק",הרב רוזובסקי 7,6190-1029-4,,,ראשונה,121.0,939000,,,1998.0,,7.0,2844005756,1,61901029,False,,בני ברק,הרב רוזובסקי,,6190-1029-4,6190/1029,7760.330578512397,32.0839429679,34.8396044914,1998
1998-03-31,1998-03-31,"החשמונאים 7, בני ברק",החשמונאים 7,6196-123-42,,,א,39.4,226000,,,1960.0,,4.0,2843851708,1,6196123,False,,בני ברק,החשמונאים,,6196-123-42,6196/123,5736.040609137056,32.0948947315,34.8252215453,1998
1998-03-30,1998-03-30,"הרב כהנמן 64, בני ברק",הרב כהנמן 64,6190-1038-9,,5.0,ראשונה,94.3,826000,,,1978.0,,5.0,2844018690,1,61901038,False,,בני ברק,הרב כהנמן,,6190-1038-9,6190/1038,8759.278897136797,32.0824124443,34.8407269248,1998
1998-03-30,1998-03-30,"טרומפלדור 12, בני ברק",טרומפלדור 12,6195-489-1,,,קרקע,,107000,,,1960.0,,3.0,2844009381,1,6195489,False,,בני ברק,טרומפלדור,,6195-489-1,6195/489,,32.0953015072,34.8391760434,1998
1998-03-30,1998-03-30,"רבי עקיבא 2, בני ברק",רבי עקיבא 2,6123-401-1,,,ראשונה,25.0,287000,,,1994.0,,4.0,2844359411,1,6123401,False,,בני ברק,רבי עקיבא,,6123-401-1,6123/401,11480.0,32.0909566422,34.824981337,1998
1998-03-29,1998-03-29,"רלב""ג 6, בני ברק","רלב""ג 6",6188-494-3,,2.0,א,51.5,419000,,,1960.0,,3.0,2844052678,1,6188494,False,,בני ברק,"רלב""ג",,6188-494-3,6188/494,8135.922330097087,32.0852754229,34.8312741762,1998
1998-03-25,1998-03-25,"בר-אילן 29, בני ברק",בר-אילן 29,6192-579-12,,,ראשונה,49.0,502000,,,1950.0,,1.0,2843559330,1,6192579,False,,בני ברק,בר אילן,,6192-579-12,6192/579,10244.897959183674,32.0897833696,34.8422796029,1998
1998-03-23,1998-03-23,"רמח""ל 3, בני ברק","רמח""ל 3",6123-1009-1,,3.0,ראשונה,72.0,612000,,,1988.0,,3.0,2843666978,1,61231009,False,,בני ברק,"רמח""ל",,6123-1009-1,6123/1009,8500.0,32.0843248706,34.8293643,1998
1998-03-22,1998-03-22,"הרב קוטלר 13, בני ברק",הרב קוטלר 13,6122-1193-9,,2.0,ג,58.0,585000,,,1960.0,,3.0,2843828015,1,61221193,False,,בני ברק,הרב קוטלר,,6122-1193-9,6122/1193,10086.206896551725,32.0865941898,34.8341006885,1998
1998-03-20,1998-03-20,"דקר 10, בני ברק",דקר 10,6124-331-30,,3.0,ג,61.0,754000,,,1965.0,,3.0,2843512408,1,6124331,False,,בני ברק,דקר,,6124-331-30,6124/331,12360.655737704918,32.0789244291,34.8313474717,1998
1998-03-16,1998-03-16,"בן זכאי 35, בני ברק",בן זכאי 35,6188-182-9,,3.0,שלישית,60.0,536000,,,1977.0,,3.0,2843567218,1,6188182,False,,בני ברק,בן זכאי,,6188-182-9,6188/182,8933.333333333334,32.082089731,34.831268627,1998
1998-03-16,1998-03-16,"שלוש השעות 9, בני ברק",שלוש השעות 9,6105-78-1,,,,1040.0,2609000,,,1950.0,,1.0,2843769145,1,610578,False,,בני ברק,שלוש השעות,,6105-78-1,6105/78,2508.653846153846,32.0969890892,34.8341358163,1998
1998-03-13,1998-03-13,"גיבורי ישראל 24, בני ברק",גיבורי ישראל 24,6189-1074-11,,4.0,שלישית,97.5,717000,,,1978.0,,5.0,2843510987,1,61891074,False,,בני ברק,גבורי ישראל,,6189-1074-11,6189/1074,7353.846153846154,32.082427386,34.8441137425,1998
1998-03-13,1998-03-13,"מנשה 5, בני ברק",מנשה 5,6122-545-5,,4.0,רביעית,80.0,1076000,,,1996.0,,2.0,2844431650,1,6122545,False,,בני ברק,מנשה,,6122-545-5,6122/545,13450.0,32.0853197809,34.8328850561,1998
1998-03-12,1998-12-03,"הרב יוסף זוננפלד 20, בני ברק",הרב יוסף זוננפלד 20,6189-1089-5,,3.0,שניה,77.5,733000,,,1980.0,,5.0,2847870151,1,61891089,False,,בני ברק,הרב זוננפלד יוסף,,6189-1089-5,6189/1089,9458.064516129032,32.0804473275,34.8434636676,1998
1998-03-09,1998-09-03,"בן זכאי 19, בני ברק",בן זכאי 19,6188-498-4,,2.0,קרקע,43.0,382000,,,1960.0,,3.0,2845761619,1,6188498,False,,בני ברק,בן זכאי,,6188-498-4,6188/498,8883.720930232557,32.0834676912,34.8310398461,1998
1998-03-09,1998-09-03,"הרב בן-יעקב 30, בני ברק",הרב בן-יעקב 30,6190-960-4,,4.0,שניה,79.0,610000,,,1990.0,,5.0,2846329613,1,6190960,False,,בני ברק,הרב בן יעקב,,6190-960-4,6190/960,7721.518987341772,32.0772879348,34.8405893044,1998
1998-03-08,1998-08-03,"עזרא 64, בני ברק",עזרא 64,6190-744-14,,3.0,ג,53.5,584000,,,1968.0,,3.0,2845638891,1,6190744,False,,בני ברק,עזרא,,6190-744-14,6190/744,10915.88785046729,32.0762815271,34.8354964981,1998
1998-03-08,1998-08-03,"קובלסקי 11, בני ברק",קובלסקי 11,6195-809-29,,4.0,שלישית,65.77,620000,,,1985.0,,5.0,2845940346,1,6195809,False,,בני ברק,קובלסקי,,6195-809-29,6195/809,9426.79032993766,32.0978611594,34.8414894217,1998
1998-03-08,1998-08-03,"טבריה 4, בני ברק",טבריה 4,6123-672-12,,1.0,קרקע,26.05,315000,,,1950.0,,3.0,2845836265,1,6123672,False,,בני ברק,טבריה,,6123-672-12,6123/672,12092.130518234164,32.087103811,34.8264221813,1998
1998-03-06,1998-06-03,"רבינא 14, בני ברק",רבינא 14,6190-997-1,,2.0,ראשונה,50.0,214000,,,1950.0,,1.0,2844684066,1,6190997,False,,בני ברק,רבינא,,6190-997-1,6190/997,4280.0,32.0770536729,34.8380382239,1998
1998-03-05,1998-05-03,"חי טייב 7, בני ברק",חי טייב 7,6790-20-16,,4.0,רביעית+גג,84.0,604000,,,1970.0,,6.0,2844328526,1,679020,False,,בני ברק,חי טייב,,6790-20-16,6790/20,7190.476190476191,32.096722378,34.8369366158,1998
1998-03-05,1998-05-03,"הרב זוננפלד יוסף 17, בני ברק",הרב זוננפלד יוסף 17,6189-1116-12,,3.0,שלישית,83.7,622000,,,1970.0,,7.0,2844572851,1,61891116,False,,בני ברק,הרב זוננפלד יוסף,,6189-1116-12,6189/1116,7431.302270011947,32.0812202191,34.8440464358,1998
1998-03-05,1998-05-03,"הרי גולן 5, בני ברק",הרי גולן 5,6105-109-22,,3.0,שלישית,70.0,481000,,,1996.0,,5.0,2844670407,1,6105109,False,,בני ברק,הרי גולן,,6105-109-22,6105/109,6871.428571428572,32.0985944231,34.8345396063,1998
1998-03-03,1998-03-03,"ז'בוטינסקי 154, בני ברק",ז'בוטינסקי 154,6122-927-11,,2.0,ב,48.5,350000,,,1960.0,,3.0,2843270809,1,6122927,False,,בני ברק,ז'בוטינסקי,,6122-927-11,6122/927,7216.494845360825,32.0924750601,34.8374507642,1998
1998-03-03,1998-03-03,"ז'בוטינסקי 148, בני ברק",ז'בוטינסקי 148,6122-924-3,,,הקרקע,22.0,207000,,,1960.0,,3.0,2843290906,1,6122924,False,,בני ברק,ז'בוטינסקי,,6122-924-3,6122/924,9409.09090909091,32.0925002672,34.83688356,1998
1998-03-03,1998-03-03,"שבטי ישראל 28, בני ברק",שבטי ישראל 28,6122-821-9,,1.0,ב,26.0,250000,,,1960.0,,4.0,2843229629,1,6122821,False,,בני ברק,שבטי ישראל,,6122-821-9,6122/821,9615.384615384615,32.0913737887,34.8324641279,1998
1998-02-22,1998-02-22,"חזון איש 47, בני ברק",חזון איש 47,6190-515-2,,4.0,א,75.0,678000,,,1970.0,,3.0,2843550717,1,6190515,False,,בני ברק,חזון איש,,6190-515-2,6190/515,9040.0,32.0805220834,34.834732281,1998
1998-02-22,1998-02-22,"ז'בוטינסקי 85, בני ברק",ז'בוטינסקי 85,6195-148-5,,1.0,עמודים,31.0,378000,,,1950.0,,2.0,2843135843,1,6195148,False,,בני ברק,ז'בוטינסקי,,6195-148-5,6195/148,12193.548387096776,32.0929194251,34.8358940947,1998
1998-02-19,1998-02-19,"חיד""א 12, בני ברק","חיד""א 12",6122-1429-9,,2.0,ג,46.0,397000,,,1962.0,,3.0,2843133900,1,61221429,False,,בני ברק,"חיד""א",,6122-1429-9,6122/1429,8630.434782608696,32.0908470143,34.836942144,1998
1998-02-17,1998-02-17,"סנש 9, בני ברק",סנש 9,6188-345-1,,6.0,שניה,150.0,947000,,,1970.0,,1.0,2843588562,1,6188345,False,,בני ברק,סנש,,6188-345-1,6188/345,6313.333333333333,32.076452214,34.8281434614,1998
1998-02-16,1998-02-16,"רבי עקיבא 65, בני ברק",רבי עקיבא 65,6122-1393-27,,2.0,ד',53.74,381000,,,1960.0,,8.0,2843140396,1,61221393,False,,בני ברק,רבי עקיבא,,6122-1393-27,6122/1393,7089.69110532192,32.0867668304,34.8297799988,1998
1998-02-12,1998-12-02,"אהבת שלום 24, בני ברק",אהבת שלום 24,6190-557-7,,4.0,שלישית,85.0,752000,,,1997.0,,3.0,2871149843,1,6190557,False,,בני ברק,אהבת שלום,,6190-557-7,6190/557,8847.058823529413,32.075001694,34.8378246353,1998
1998-02-12,1998-12-02,"אבטליון 17, בני ברק",אבטליון 17,6122-767-6,,3.0,ג,69.0,627000,,,1967.0,,3.0,2847440458,1,6122767,False,,בני ברק,אבטליון,,6122-767-6,6122/767,9086.95652173913,32.0879684962,34.8322960965,1998
1998-02-12,1998-12-02,"הר סיני 27, בני ברק",הר סיני 27,6187-71-0,,5.0,ראשונה,569.0,1464000,,,1981.0,,3.0,2847532852,1,618771,False,,בני ברק,הר סיני,,6187-71-0,6187/71,2572.9349736379613,32.0744963399,34.838861631,1998
1998-02-10,1998-10-02,"הרב מלצר 23, בני ברק",הרב מלצר 23,6190-1043-2,,4.0,קרקע,109.0,680000,,,1994.0,,5.0,2846272193,1,61901043,False,,בני ברק,הרב מלצר,,6190-1043-2,6190/1043,6238.532110091744,32.0824789655,34.8398908323,1998
1998-02-09,1998-09-02,"נחמן מברסלב 11, בני ברק",נחמן מברסלב 11,6190-779-18,,2.0,א,58.51,495000,,,1960.0,,4.0,2846295161,1,6190779,False,,בני ברק,נחמן מברסלב,,6190-779-18,6190/779,8460.092291915913,32.0803788671,34.8372298638,1998
1998-02-09,1998-09-02,"מנחם 27, בני ברק",מנחם 27,6196-351-18,,3.0,ראשונה,71.76,655000,,,1990.0,,4.0,2846120726,1,6196351,False,,בני ברק,מנחם,,6196-351-18,6196/351,9127.647714604236,32.0884424332,34.8229824489,1998
1998-02-07,1998-07-02,"הרב דסלר 11, בני ברק",הרב דסלר 11,6188-280-4,,3.0,ב,67.5,638000,,,1961.0,,3.0,2845161058,1,6188280,False,,בני ברק,הרב דסלר,,6188-280-4,6188/280,9451.851851851852,32.082158746,34.8330119588,1998
1998-02-04,1998-04-02,"הרב עוזיאל 49, בני ברק",הרב עוזיאל 49,6187-142-7,,4.0,ראשונה,110.0,897000,,,1986.0,,2.0,2844328758,1,6187142,False,,בני ברק,הרב עוזיאל,,6187-142-7,6187/142,8154.545454545455,32.0721007363,34.8396906834,1998
1998-02-04,1998-04-02,"דנגור 23, בני ברק",דנגור 23,7361-14-10,,3.0,שלישית,60.85,328000,,,1970.0,,4.0,2843708912,1,736114,False,,בני ברק,דנגור,,7361-14-10,7361/14,5390.304026294166,32.096113807,34.8311534427,1998
1998-02-03,1998-03-02,"אבן שפרוט 11, בני ברק",אבן שפרוט 11,6122-1546-4,,2.0,א,42.34,483000,,,1960.0,,4.0,2843760068,1,61221546,False,,בני ברק,אבן שפרוט,,6122-1546-4,6122/1546,11407.652338214451,32.0911355654,34.8329101053,1998
1998-02-01,1998-01-02,"חשב סופר 17, בני ברק",חשב סופר 17,6122-364-8,,4.0,רביעית+גג,117.24,1064000,,,1977.0,,4.0,2843025092,1,6122364,False,,בני ברק,חשב סופר,,6122-364-8,6122/364,9075.40088706926,32.0894904494,34.8360978877,1998
1998-01-29,1998-01-29,"הרב יוסף חיים 1, בני ברק",הרב יוסף חיים 1,6196-237-7,,,ראשונה,60.2,466000,,,1960.0,,1.0,2842434652,1,6196237,False,,בני ברק,הרב יוסף חיים,,6196-237-7,6196/237,7740.863787375415,32.0927577036,34.8289480796,1998
1998-01-29,1998-01-29,"רימון 2, בני ברק",רימון 2,6187-455-0,,3.0,שלישית,70.0,512000,,,1960.0,,3.0,2843025295,1,6187455,False,,בני ברק,רימון,,6187-455-0,6187/455,7314.285714285715,32.071799846,34.8381503567,1998
1998-01-29,1998-01-29,"רמב""ם 43, בני ברק","רמב""ם 43",6122-841-2,,,הקרקע,,81000,,,1960.0,,3.0,2842851846,1,6122841,False,,בני ברק,"רמב""ם",,6122-841-2,6122/841,,32.0912180861,34.8298309302,1998
1998-01-28,1998-01-28,"צפניה 5, בני ברק",צפניה 5,6192-356-0,,4.0,ראשונה,100.0,786000,,,1999.0,,4.0,2842994439,1,6192356,False,,בני ברק,צפניה,,6192-356-0,6192/356,7860.0,32.0862183837,34.8365554202,1998
1998-01-28,1998-01-28,"הוז דב 17, בני ברק",הוז דב 17,6195-165-8,,2.0,שלישית,58.0,572000,,,2000.0,,4.0,2842660939,1,6195165,False,,בני ברק,הוז דב,,6195-165-8,6195/165,9862.06896551724,32.0940539691,34.8371483417,1998
1998-01-26,1998-01-26,"ראובן אהרונוביץ 39, בני ברק",ראובן אהרונוביץ 39,6192-562-4,,2.0,קרקע,24.97,321000,,,1951.0,,1.0,2843078887,1,6192562,False,,בני ברק,אהרונוביץ ראובן,,6192-562-4,6192/562,12855.426511814178,32.0880739453,34.8391367214,1998
1998-01-26,1998-01-26,"ישמח משה 17, בני ברק",ישמח משה 17,6190-1124-6,,4.0,שניה,100.0,850000,,,1980.0,,3.0,2842266394,1,61901124,False,,בני ברק,ישמח משה,,6190-1124-6,6190/1124,8500.0,32.0815174841,34.8369620215,1998
1998-01-25,1998-01-25,"נורוק 30, בני ברק",נורוק 30,6195-672-44,,3.0,ראשונה,53.96,358000,,,1960.0,,4.0,2842438654,1,6195672,False,,בני ברק,נורוק,,6195-672-44,6195/672,6634.544106745738,32.0976279215,34.8434717929,1998
1998-01-25,1998-01-25,"רבי עקיבא 91, בני ברק",רבי עקיבא 91,6122-1606-12,,3.0,ג,64.0,537000,,,1970.0,,3.0,2843378225,1,61221606,False,,בני ברק,רבי עקיבא,,6122-1606-12,6122/1606,8390.625,32.086163426,34.8322733428,1998
1998-01-25,1998-01-25,"האדמו""ר מגור 12, בני ברק","האדמו""ר מגור 12",6190-335-1,,4.0,שניה,100.0,968000,,,1970.0,,2.0,2842167330,1,6190335,False,,בני ברק,"האדמו""ר מגור",,6190-335-1,6190/335,9680.0,32.0837700664,34.8382115509,1998
1998-01-22,1998-01-22,"חידושי הרי""ם 3, בני ברק","חידושי הרי""ם 3",6190-679-8,,4.0,שלישית,110.0,715000,,,1973.0,,3.0,2842224750,1,6190679,False,,בני ברק,"חידושי הרי""ם",,6190-679-8,6190/679,6500.0,32.077351828,34.8360585125,1998
1998-01-22,1998-01-22,"הראשונים 15, בני ברק",הראשונים 15,6122-8-38,,2.0,א,46.0,375000,,,1970.0,,3.0,2842145290,1,61228,False,,בני ברק,הראשונים,,6122-8-38,6122/8,8152.173913043478,32.09129806,34.8268844895,1998
1998-01-22,1998-01-22,"הרב אברמסקי 28, בני ברק",הרב אברמסקי 28,6790-61-8,,4.0,שניה,74.5,561000,,,1989.0,,,2842637507,1,679061,False,,בני ברק,הרב אברמסקי,,6790-61-8,6790/61,7530.201342281879,32.0988592373,34.8377598754,1998
1998-01-21,1998-01-21,"מיכה 6, בני ברק",מיכה 6,6192-835-9,,2.0,ג,44.0,458000,,,1970.0,,3.0,2842600416,1,6192835,False,,בני ברק,מיכה,,6192-835-9,6192/835,10409.09090909091,32.0860185008,34.8372231574,1998
1998-01-20,1998-01-20,"צירלסון 13, בני ברק",צירלסון 13,6192-589-1,,2.0,קרקע,33.5,374000,,,2007.0,,1.0,2842246529,1,6192589,False,,בני ברק,צירלסון,,6192-589-1,6192/589,11164.179104477613,32.091798529,34.8414244752,1998
1998-01-19,1998-01-19,"חנקין 5, בני ברק",חנקין 5,6122-1367-10,,2.5,ב,43.76,504000,,,1960.0,,2.0,2842489636,1,61221367,False,,בני ברק,חנקין,,6122-1367-10,6122/1367,11517.367458866544,32.0916094384,34.8346516059,1998
1998-01-18,1998-01-18,"הרצוג 12, בני ברק",הרצוג 12,6196-186-11,,2.0,שלישית,55.0,451000,,,1970.0,,3.0,2843267242,1,6196186,False,,בני ברק,הרצוג,,6196-186-11,6196/186,8200.0,32.0892487664,34.8247035107,1998
1998-01-12,1998-12-01,"רימון 24, בני ברק",רימון 24,6187-449-0,,2.0,רביעית,50.0,418000,,,1960.0,,3.0,2847367001,1,6187449,False,,בני ברק,רימון,,6187-449-0,6187/449,8360.0,32.0722082456,34.8361223739,1998
1998-01-10,1998-10-01,"ז'בוטינסקי 158, בני ברק",ז'בוטינסקי 158,6122-929-7,,2.0,ב,31.3,321000,,,1960.0,,4.0,2846260477,1,6122929,False,,בני ברק,ז'בוטינסקי,,6122-929-7,6122/929,10255.5910543131,32.0924619472,34.8378215133,1998
1998-01-08,1998-08-01,"דמשק אליעזר 25, בני ברק",דמשק אליעזר 25,6187-363-10,,4.0,שניה,80.0,693000,,,1970.0,,4.0,2846040338,1,6187363,False,,בני ברק,דמשק אליעזר,,6187-363-10,6187/363,8662.5,32.0744522646,34.8380059027,1998
1998-01-07,1998-07-01,"נחמן מברסלב 8, בני ברק",נחמן מברסלב 8,6190-428-7,,3.0,ג,55.6,568000,,,1960.0,,3.0,2845191711,1,6190428,False,,בני ברק,נחמן מברסלב,,6190-428-7,6190/428,10215.827338129497,32.0799846739,34.8370991542,1998
1998-01-07,1998-07-01,"הרב שך 39, בני ברק",הרב שך 39,6122-1853-12,,4.0,שניה,81.0,803000,,,1994.0,,4.0,2845108916,1,61221853,False,,בני ברק,הרב שך,,6122-1853-12,6122/1853,9913.58024691358,32.0903737463,34.8352296217,1998
1998-01-04,1998-04-01,"הרב רוזובסקי 7, בני ברק",הרב רוזובסקי 7,6190-1029-3,,,ראשונה,121.0,903000,,,1998.0,,7.0,2844375680,1,61901029,False,,בני ברק,הרב רוזובסקי,,6190-1029-3,6190/1029,7462.809917355372,32.0839429679,34.8396044914,1998
1998-01-04,1998-04-01,"הרב ורנר 5, בני ברק",הרב ורנר 5,6190-737-8,,2.0,ראשונה,58.09,504000,,,1960.0,,2.0,2843827029,1,6190737,False,,בני ברק,הרב ורנר,,6190-737-8,6190/737,8676.192115682561,32.0805856343,34.8354077679,1998
1998-01-04,1998-04-01,"קובלסקי 30, בני ברק",קובלסקי 30,6195-715-9,,3.0,ראשונה,64.76,351000,,,1970.0,,4.0,2843816821,1,6195715,False,,בני ברק,קובלסקי,,6195-715-9,6195/715,5420.012353304509,32.0983661428,34.839148289,1998
1998-01-02,1998-02-01,"חשב סופר 6, בני ברק",חשב סופר 6,6122-1301-10,,2.0,ג,47.0,433000,,,1960.0,,3.0,2842764063,1,61221301,False,,בני ברק,חשב סופר,,6122-1301-10,6122/1301,9212.765957446809,32.0889742992,34.8345760623,1998
1998-01-02,1998-02-01,"יהודה הנשיא 62, בני ברק",יהודה הנשיא 62,6124-330-9,,3.0,ב,59.0,577000,,,1968.0,,3.0,2842934148,1,6124330,False,,בני ברק,יהודה הנשיא,,6124-330-9,6124/330,9779.661016949152,32.079437058,34.8319381395,1998
1998-01-02,1998-02-01,"אז""ר 8, בני ברק","אז""ר 8",6122-603-3,,3.0,ראשונה,58.0,505000,,,1960.0,,3.0,2842808549,1,6122603,False,,בני ברק,"אז""ר",,6122-603-3,6122/603,8706.896551724138,32.0904268245,34.8347418627,1998
1998-01-01,1998-01-01,"יחזקאל 4, בני ברק",יחזקאל 4,6123-651-5,,2.0,א,51.5,480000,,,1955.0,,3.0,2842265408,1,6123651,False,,בני ברק,יחזקאל,,6123-651-5,6123/651,9320.388349514564,32.0882491448,34.8265977164,1998
1998-01-01,1998-01-01,"דנגור 18, בני ברק",דנגור 18,7361-43-30,,3.0,שלישית,57.6,396000,,,1960.0,,4.0,2842230057,1,736143,False,,בני ברק,דנגור,,7361-43-30,7361/43,6875.0,32.0966276366,34.8313208832,1998
1998-01-01,1998-01-01,"מיכה 3, בני ברק",מיכה 3,6192-874-6,,2.0,ב,54.95,462000,,,1970.0,,3.0,2843022424,1,6192874,False,,בני ברק,מיכה,,6192-874-6,6192/874,8407.64331210191,32.0863908286,34.8370436617,1998
