DEALDATE,DEALDATETIME,FULLADRESS,DISPLAYADRESS,GUSH,DEALNATUREDESCRIPTION,ASSETROOMNUM,FLOORNO,DEALNATURE,DEALAMOUNT,NEWPROJECTTEXT,PROJECTNAME,BUILDINGYEAR,YEARBUILT,BUILDINGFLOORS,KEYVALUE,TYPE,POLYGON_ID,TREND_IS_NEGATIVE,TREND_FORMAT,city_name,street,presentage per year,GUSH - Copy,Gush_Helka,Price per sqm,lat,lon,Year
2022-12-30,2022-12-30,"משה חיים שפירא 3, אשדוד",משה חיים שפירא 3,2189-76-9,דירה בבית קומות,3.5,שלישית,69.5,1730000,,,1982.0,,7.0,10332036288,1,218976,False,218% ב 15.5 שנים,אשדוד,שפירא משה חיים,14.06,2189-76-9,2189/76,24892.086330935253,31.799727221,34.6447545356,2022
2022-12-30,2022-12-30,,,2190-12-128,דירה בבית קומות,5.0,שלוש עשרה,163.0,2900000,,,2022.0,,,10333365420,2,219012,False,,אשדוד,הרב שאולי,,2190-12-128,2190/12,17791.411042944786,31.7973258603,34.6433261473,2022
2022-12-29,2022-12-29,"אריה בן-אליעזר 17, אשדוד",אריה בן-אליעזר 17,2189-94-19,דירה בבית קומות,4.0,חמישית,77.0,1650000,,,1970.0,,7.0,10333251936,1,218994,False,196% ב 17.3 שנים,אשדוד,בן אליעזר אריה,11.33,2189-94-19,2189/94,21428.571428571428,31.8031622545,34.6448344829,2022
2022-12-29,2022-12-29,"הצבעוני 52, אשדוד",הצבעוני 52,2073-74-15,דירה בבית קומות,3.5,רביעית,63.4,1530000,,,1982.0,,4.0,10332433356,1,207374,False,,אשדוד,הצבעוני,,2073-74-15,2073/74,24132.49211356467,31.787618719,34.6481991988,2022
2022-12-29,2022-12-29,"הדקל 5, אשדוד",הדקל 5,2088-149-83,דירה בבית קומות,5.0,שישית,178.0,3326000,,,2024.0,,12.0,10333683528,1,2088149,False,,אשדוד,הדקל,,2088-149-83,2088/149,18685.393258426968,31.8053459414,34.6420896573,2022
2022-12-29,2022-12-29,"אלכסנדר פן 3, אשדוד",אלכסנדר פן 3,2071-300-302,דירה בבית קומות,4.0,חמש עשרה,105.0,2500000,,,2020.0,,16.0,10332481992,1,2071300,False,,אשדוד,פן אלכסנדר,,2071-300-302,2071/300,23809.52380952381,31.7931214113,34.648559239,2022
2022-12-29,2022-12-29,"גיא אוני 2, אשדוד",גיא אוני 2,2384-101-67,דירה בבית קומות,2.0,שביעית,51.0,1000000,,,1995.0,,11.0,10332176988,1,2384101,False,,אשדוד,גיא אוני,,2384-101-67,2384/101,19607.843137254906,31.7854064529,34.6602000407,2022
2022-12-28,2022-12-28,"תל חי 42, אשדוד",תל חי 42,2670-21-127,דירה בבית קומות,3.0,שניה,83.0,2132000,,,2005.0,,9.0,10333319724,1,267021,False,67% ב 7.7 שנים,אשדוד,תל חי,8.7,2670-21-127,2670/21,25686.746987951807,31.768073237,34.6281624547,2022
2022-12-28,2022-12-28,"הר כנען 9, אשדוד",הר כנען 9,2193-20-66,דירה בבית קומות,4.0,רביעית,79.0,2005000,,,1990.0,,7.0,10286144484,1,219320,False,,אשדוד,הר כנען,,2193-20-66,2193/20,25379.74683544304,31.7782159627,34.630998947,2022
2022-12-28,2022-12-28,"אלכסנדר פן 3, אשדוד",אלכסנדר פן 3,2071-300-287,,4.0,חמש עשרה,105.0,2500000,1.0,אביבי אשדוד הצעירה,2020.0,,16.0,11181203248,1,2071300,False,,אשדוד,פן אלכסנדר,,2071-300-287,2071/300,23809.52380952381,31.7931214113,34.648559239,2022
2022-12-28,2022-12-28,"העבודה 50, אשדוד",העבודה 50,2453-16-4,חנות,,קרקע + ביניים,313.07,1800000,,,1996.0,,,10332793044,1,245316,True,-10% ב 4.9 שנים,אשדוד,העבודה,-2.04,2453-16-4,2453/16,5749.512888491392,31.8104208211,34.6656269659,2022
2022-12-28,2022-12-28,"רמב""ם 11, אשדוד","רמב""ם 11",2066-296-14,דירה בבית קומות,2.5,ראשונה,39.0,1250000,,,1960.0,,2.0,10332556836,1,2066296,False,56% ב 6 שנים,אשדוד,"רמב""ם",9.33,2066-296-14,2066/296,32051.28205128205,31.8048754525,34.6549307171,2022
2022-12-28,2022-12-28,"הדקל 5, אשדוד",הדקל 5,2088-149-15,,5.0,שישית,178.0,3326000,1.0,,,,12.0,11181203822,1,2088149,False,,אשדוד,הדקל,,2088-149-15,2088/149,18685.393258426968,31.8053459414,34.6420896573,2022
2022-12-27,2022-12-27,"כפתור החולות 2, אשדוד",כפתור החולות 2,2074-165-49,דירה בבית קומות,4.0,חמישית,108.0,1950000,,,1978.0,2015.0,4.0,10332565152,1,2074165,False,,אשדוד,כפתור החולות,,2074-165-49,2074/165,18055.555555555555,31.7847091311,34.6545156904,2022
2022-12-27,2022-12-27,"הטיילת 803, אשדוד",הטיילת 803,2061-141-46,דירת נופש,2.0,תשיעית,42.0,700000,,,2010.0,,8.0,10333321236,1,2061141,False,,אשדוד,הטיילת,,2061-141-46,2061/141,16666.666666666668,31.8095545341,34.6396641381,2022
2022-12-27,2022-12-27,"ההגנה 8, אשדוד",ההגנה 8,2080-53-24,דירה בבית קומות,2.5,רביעית,38.4,980000,,,1970.0,,4.0,10332495096,1,208053,False,,אשדוד,ההגנה,,2080-53-24,2080/53,25520.833333333336,31.8068063779,34.647416599,2022
2022-12-27,2022-12-27,"הכלנית 9, אשדוד",הכלנית 9,2074-186-301,דירה בבית קומות,4.0,שלוש עשרה,99.0,2120000,,,2001.0,,15.0,10285771020,1,2074186,False,63% ב 8.1 שנים,אשדוד,הכלנית,7.78,2074-186-301,2074/186,21414.141414141413,31.7845459565,34.6530109031,2022
2022-12-27,2022-12-27,"רבי עקיבא 7, אשדוד",רבי עקיבא 7,2462-34-143,דירה בבית קומות,2.0,רביעית,43.1,764000,,,1970.0,,4.0,10334388372,1,246234,False,,אשדוד,רבי עקיבא,,2462-34-143,2462/34,17726.218097447796,31.7986640418,34.6602739843,2022
2022-12-26,2022-12-26,"האצ""ל 8, אשדוד","האצ""ל 8",2061-133-27,דירה בבית קומות,3.0,שמינית,74.45,1570000,,,1970.0,,9.0,10332758436,1,2061133,False,74% ב 8.5 שנים,אשדוד,"האצ""ל",8.71,2061-133-27,2061/133,21087.97850906649,31.8105008891,34.6441715731,2022
2022-12-26,2022-12-26,"הטיילת 3, אשדוד",הטיילת 3,2061-127-83,דירה בבית קומות,2.0,שביעית,45.0,1150000,,,2007.0,,12.0,10285952712,1,2061127,False,,אשדוד,הטיילת,,2061-127-83,2061/127,25555.555555555555,31.8128222901,34.6418738779,2022
2022-12-26,2022-12-26,"הציונות 45, אשדוד",הציונות 45,2449-10-27,דירה בבית קומות,3.0,חמישית,90.0,1820000,,,1997.0,,12.0,10332625968,1,244910,False,,אשדוד,הציונות,,2449-10-27,2449/10,20222.222222222223,31.7866043194,34.6448503221,2022
2022-12-26,2022-12-26,"חטיבת הנגב 22, אשדוד",חטיבת הנגב 22,2463-40-37,דירה בבית קומות,4.0,חמישית,103.0,1600000,,,1978.0,,4.0,10285746744,1,246340,False,,אשדוד,חטיבת הנגב,,2463-40-37,2463/40,15533.980582524273,31.8009214917,34.6641429125,2022
2022-12-25,2022-12-25,"משמר הירדן 9, אשדוד",משמר הירדן 9,2086-9-4,דירה בבית קומות,2.0,שניה,38.4,704000,,,1960.0,,4.0,10334149980,1,20869,False,,אשדוד,משמר הירדן,,2086-9-4,2086/9,18333.333333333336,31.8105837272,34.6510473072,2022
2022-12-25,2022-12-25,"הנביא עמוס 19, אשדוד",הנביא עמוס 19,2400-11-16,דירה בבית קומות,3.0,שניה,62.7,622000,,,1992.0,,3.0,10334023812,1,240011,False,,אשדוד,הנביא עמוס,,2400-11-16,2400/11,9920.255183413075,31.7815185587,34.6441684247,2022
2022-12-25,2022-12-25,"קרן היסוד 5, אשדוד",קרן היסוד 5,2190-9-86,דירה בבית קומות,3.0,שלישית,64.6,442000,,,1970.0,,4.0,10334026668,1,21909,False,,אשדוד,קרן היסוד,,2190-9-86,2190/9,6842.105263157895,31.7995479115,34.6433008468,2022
2022-12-25,2022-12-25,"יוספטל 23, אשדוד",יוספטל 23,2066-18-2,דירה בבית קומות,2.0,קרקע,36.5,1130000,,,1960.0,,1.0,10333664208,1,206618,False,,אשדוד,יוספטל,,2066-18-2,2066/18,30958.90410958904,31.8056461352,34.6538959124,2022
2022-12-25,2022-12-25,"הפרחים 22, אשדוד",הפרחים 22,2073-45-30,דירה בבית קומות,3.0,רביעית,61.1,1350000,,,1970.0,,5.0,10341274020,1,207345,False,164% ב 13.2 שנים,אשדוד,הפרחים,12.42,2073-45-30,2073/45,22094.9263502455,31.7864586009,34.6513611907,2022
2022-12-25,2022-12-25,"יהודה המכבי 1, אשדוד",יהודה המכבי 1,2455-15-20,דירה בבית קומות,5.0,חמישית,140.0,1950000,,,1970.0,,5.0,10332935760,1,245515,False,,אשדוד,יהודה המכבי,,2455-15-20,2455/15,13928.57142857143,31.7977696228,34.655316577,2022
2022-12-25,2022-12-25,"מכישווילי 8, אשדוד",מכישווילי 8,2458-55-1,דירה בבית קומות,4.0,ראשונה,76.0,360000,,,1970.0,,8.0,10334151324,1,245855,False,,אשדוד,מיכשוילי,,2458-55-1,2458/55,4736.8421052631575,31.791083122,34.6521177205,2022
2022-12-25,2022-12-25,"הדודאים 3, אשדוד",הדודאים 3,2188-14-12,דירה בבית קומות,2.0,שניה,42.6,760000,,,2021.0,,5.0,10334025996,1,218814,False,,אשדוד,הדודאים,,2188-14-12,2188/14,17840.37558685446,31.7885292181,34.6572865366,2022
2022-12-25,2022-12-25,"המעפילים 30, אשדוד",המעפילים 30,2066-473-22,דירה בבית קומות,2.0,שלישית,39.0,700000,,,1960.0,,3.0,10286076612,1,2066473,False,64% ב 9.5 שנים,אשדוד,המעפילים,6.74,2066-473-22,2066/473,17948.71794871795,31.8062802685,34.6500936237,2022
2022-12-25,2022-12-25,"הר כנען 7, אשדוד",הר כנען 7,2193-21-37,דירה בבית קומות,3.0,שלישית,62.0,1840000,,,1992.0,,7.0,10332541548,1,219321,False,90% ב 9.9 שנים,אשדוד,הר כנען,9.09,2193-21-37,2193/21,29677.41935483871,31.7788267889,34.6309956506,2022
2022-12-25,2022-12-25,"חסן ובן גרה 8, אשדוד",חסן ובן גרה 8,2457-10-29,דירה בבית קומות,3.0,שלישית,49.0,1350000,,,1970.0,,4.0,10341226308,1,245710,False,159% ב 12.9 שנים,אשדוד,חסן ובן גרה,12.33,2457-10-29,2457/10,27551.020408163266,31.793955123,34.6518159377,2022
2022-12-25,2022-12-25,"אלבז 28, אשדוד",אלבז 28,2457-11-16,דירה בבית קומות,2.0,רביעית,46.8,804000,,,1970.0,,4.0,10334150652,1,245711,False,,אשדוד,אלבז נתן,,2457-11-16,2457/11,17179.48717948718,31.7940786585,34.6524993722,2022
2022-12-25,2022-12-25,"שועלי שמשון 10, אשדוד",שועלי שמשון 10,2464-106-33,דירה בבית קומות,3.0,קרקע,52.0,538000,,,1970.0,,3.0,10334023140,1,2464106,False,,אשדוד,שועלי שמשון,,2464-106-33,2464/106,10346.153846153846,31.8012304042,34.6636687896,2022
2022-12-22,2022-12-22,"החמציץ 6, אשדוד",החמציץ 6,2188-7-11,דירה בבית קומות,4.0,שלישית,83.2,706000,,,1970.0,,6.0,10333747368,1,21887,False,8% ב 2 שנים,אשדוד,החמציץ,4.0,2188-7-11,2188/7,8485.576923076922,31.7892838096,34.6557255431,2022
2022-12-22,2022-12-22,"ארלוזורוב 23, אשדוד",ארלוזורוב 23,2071-253-42,דירה בבית קומות,3.0,שלישית,90.0,1900000,,,1999.0,,12.0,10286065440,1,2071253,False,,אשדוד,ארלוזורוב,,2071-253-42,2071/253,21111.11111111111,31.7937799832,34.6499259468,2022
2022-12-22,2022-12-22,"החלוצים 7, אשדוד",החלוצים 7,2447-5-208,דירה בבית קומות,4.0,שביעית,100.2,2300000,,,2001.0,,14.0,10285516752,1,24475,False,,אשדוד,החלוצים,,2447-5-208,2447/5,22954.091816367265,31.7931119327,34.6421069642,2022
2022-12-21,2022-12-21,"עוזיהו 22, אשדוד",עוזיהו 22,2460-73-98,דירה בבית קומות,3.0,קרקע,51.3,1200000,,,1970.0,,4.0,10285713480,1,246073,False,,אשדוד,עוזיהו,,2460-73-98,2460/73,23391.81286549708,31.8019304795,34.6596930802,2022
2022-12-21,2022-12-21,"ירבעם המלך 2, אשדוד",ירבעם המלך 2,2393-14-11,דירה בבית קומות,5.0,ראשונה ושניה,119.0,2710000,,,1997.0,,1.0,10285454340,1,239314,False,,אשדוד,המלך ירבעם,,2393-14-11,2393/14,22773.10924369748,31.7720679922,34.645095661,2022
2022-12-21,2022-12-21,"הגלים 4, אשדוד",הגלים 4,2076-97-1,דירה בבית קומות,5.0,ראשונה,155.0,5200000,,,1970.0,,1.0,10333601796,1,207697,False,,אשדוד,הגלים,,2076-97-1,2076/97,33548.3870967742,31.8008599771,34.6378823861,2022
2022-12-21,2022-12-21,"חטיבת הנגב 2, אשדוד",חטיבת הנגב 2,2464-111-3,דירה בבית קומות,3.0,ראשונה,52.0,1390000,,,1970.0,,3.0,10334031456,1,2464111,False,224% ב 24 שנים,אשדוד,חטיבת הנגב,9.33,2464-111-3,2464/111,26730.76923076923,31.8050965729,34.6619066473,2022
2022-12-21,2022-12-21,"קיבוץ גלויות 1, אשדוד",קיבוץ גלויות 1,2066-88-1,חנות,,"מרתף,קרקע,1,2,3,",1300.51,375000,,,1960.0,,3.0,10285748088,1,206688,True,-11% ב 5.4 שנים,אשדוד,קבוץ גלויות,-2.04,2066-88-1,2066/88,288.34841715942207,31.8058646465,34.6527026168,2022
2022-12-21,2022-12-21,"קבוץ גלויות 31, אשדוד",קבוץ גלויות 31,2066-342-4,דירה בבית קומות,2.0,ראשונה,39.0,1270000,,,1960.0,,2.0,10285742628,1,2066342,False,53% ב 4.4 שנים,אשדוד,קבוץ גלויות,12.05,2066-342-4,2066/342,32564.102564102563,31.8023169939,34.651233453,2022
2022-12-21,2022-12-21,"הרותם 13, אשדוד",הרותם 13,2188-21-18,דירה בבית קומות,2.0,ראשונה,44.4,1750000,,,1970.0,,4.0,10332658644,1,218821,False,,אשדוד,הרותם,,2188-21-18,2188/21,39414.414414414416,31.7881451551,34.6551502186,2022
2022-12-21,2022-12-21,"הסייפן 8, אשדוד",הסייפן 8,2074-159-40,דירה בבית קומות,5.0,ראשונה,110.95,2450000,,,1996.0,,8.0,10285965816,1,2074159,False,,אשדוד,הסייפן,,2074-159-40,2074/159,22082.018927444795,31.7852943768,34.651641097,2022
2022-12-20,2022-12-20,"עקביא בן מהללאל 7, אשדוד",עקביא בן מהללאל 7,472-45-21,דירה בבית קומות,4.0,ראשונה,92.0,2230000,,,1994.0,,4.0,10333770804,1,47245,False,,אשדוד,עקביא בן מהללאל,,472-45-21,472/45,24239.130434782608,31.7932231635,34.6627497208,2022
2022-12-20,2022-12-20,"הפלמ""ח 13, אשדוד","הפלמ""ח 13",2464-97-24,דירה בבית קומות,3.0,קרקע,62.0,1400000,,,1970.0,,3.0,10333626744,1,246497,False,,אשדוד,"הפלמ""ח",,2464-97-24,2464/97,22580.64516129032,31.8014243883,34.662973873,2022
2022-12-20,2022-12-20,"אגדיר 5, אשדוד",אגדיר 5,2066-321-2,דירה בבית קומות,2.5,קרקע,42.0,1240000,,,1960.0,,2.0,10285510368,1,2066321,False,33% ב 0.3 שנים,אשדוד,אגדיר,110.0,2066-321-2,2066/321,29523.809523809523,31.8035645963,34.6508490479,2022
2022-12-20,2022-12-20,"שבט יששכר 11, אשדוד",שבט יששכר 11,2437-17-15,דירה בבית קומות,4.0,ראשונה,109.58,2500000,,,2000.0,,6.0,10285451484,1,243717,False,20% ב 1.5 שנים,אשדוד,שבט יששכר,13.33,2437-17-15,2437/17,22814.38218653039,31.7762179194,34.6369745795,2022
2022-12-20,2022-12-20,"רמב""ם 7, אשדוד","רמב""ם 7",2066-292-15,דירה בבית קומות,2.0,רביעית,52.0,1500000,,,1960.0,,4.0,10285689204,1,2066292,False,,אשדוד,"רמב""ם",,2066-292-15,2066/292,28846.153846153848,31.8052052673,34.654123591,2022
2022-12-20,2022-12-20,"שלמה בן-יוסף 17, אשדוד",שלמה בן-יוסף 17,2456-15-15,דירה בבית קומות,3.0,רביעית,75.3,1850000,,,1970.0,,4.0,10335640644,1,245615,False,124% ב 9 שנים,אשדוד,בן יוסף שלמה,13.78,2456-15-15,2456/15,24568.39309428951,31.7934589131,34.6570271582,2022
2022-12-20,2022-12-20,"הדקל 15, אשדוד",הדקל 15,2088-146-25,דירה בבית קומות,5.0,עשרים ושש,179.0,3740000,,,2016.0,,14.0,10332780528,1,2088146,False,,אשדוד,הדקל,,2088-146-25,2088/146,20893.854748603357,31.8057561849,34.6401271297,2022
2022-12-20,2022-12-20,"דוד וולפסון 7, אשדוד",דוד וולפסון 7,2648-56-48,דירה בבית קומות,4.0,ראשונה,110.0,2000000,,,2000.0,,11.0,10285265172,1,264856,False,,אשדוד,וולפסון דוד,,2648-56-48,2648/56,18181.81818181818,31.7688504242,34.633751872,2022
2022-12-20,2022-12-20,"החובלים 7, אשדוד",החובלים 7,2189-17-16,דירה בבית קומות,4.0,רביעית,91.28,1900000,,,1990.0,,9.0,10332642600,1,218917,False,,אשדוד,החובלים,,2189-17-16,2189/17,20815.07449605609,31.8010588898,34.6423433405,2022
2022-12-20,2022-12-20,"אח""י אילת 14, אשדוד","אח""י אילת 14",2080-6-5,דירה בבית קומות,3.0,ראשונה,33.0,2050000,,,1960.0,,2.0,10285316412,1,20806,False,70% ב 3.7 שנים,אשדוד,"אח""י אילת",18.92,2080-6-5,2080/6,62121.21212121212,31.8056948633,34.6478994594,2022
2022-12-19,2022-12-19,"הרב אלקלעי 5, אשדוד",הרב אלקלעי 5,2462-72-54,דירה בבית קומות,3.0,שניה,70.1,1660000,,,1998.0,,5.0,10332768684,1,246272,False,,אשדוד,הרב אלקלעי,,2462-72-54,2462/72,23680.45649072753,31.7963036413,34.66241299,2022
2022-12-19,2022-12-19,"יהודה המכבי 21, אשדוד",יהודה המכבי 21,2456-2-21,דירה בבית קומות,3.0,חמישית,76.0,1675000,,,1965.0,,4.0,10333188684,1,24562,False,,אשדוד,יהודה המכבי,,2456-2-21,2456/2,22039.473684210527,31.79634001,34.6581495069,2022
2022-12-19,2022-12-19,"מנחם בגין 126, אשדוד",מנחם בגין 126,2074-189-124,דירה בבית קומות,4.0,חמישית,99.0,2330000,,,2019.0,,16.0,10332822276,1,2074189,False,,אשדוד,בגין מנחם,,2074-189-124,2074/189,23535.353535353537,31.783551433,34.6538359615,2022
2022-12-19,2022-12-19,"החרצית 7, אשדוד",החרצית 7,2465-8-20,דירה בבית קומות,5.0,חמישית,137.0,2100000,,,1997.0,,4.0,10285947000,1,24658,False,,אשדוד,החרצית,,2465-8-20,2465/8,15328.467153284671,31.7898996525,34.6520252891,2022
2022-12-19,2022-12-19,"ז'בוטינסקי 14, אשדוד",ז'בוטינסקי 14,2077-96-7,דירה בבית קומות,3.0,שניה,49.6,1590000,,,1960.0,,4.0,10285105824,1,207796,False,,אשדוד,ז'בוטינסקי,,2077-96-7,2077/96,32056.451612903224,31.8116123146,34.6468716273,2022
2022-12-19,2022-12-19,"הדקל 15, אשדוד",הדקל 15,2088-146-18,,5.0,עשרים ושש,179.0,3740000,1.0,מגדלי הדקל - אשדוד ים,2016.0,,14.0,11181203748,1,2088146,False,,אשדוד,הדקל,,2088-146-18,2088/146,20893.854748603357,31.8057561849,34.6401271297,2022
2022-12-19,2022-12-19,"הרב אלקלעי 5, אשדוד",הרב אלקלעי 5,2462-72-62,דירה בבית קומות,3.0,רביעית,72.6,1800000,,,1998.0,,5.0,10285395960,1,246272,False,210% ב 14.7 שנים,אשדוד,הרב אלקלעי,14.29,2462-72-62,2462/72,24793.388429752067,31.7963036413,34.66241299,2022
2022-12-18,2022-12-18,"קבוץ גלויות 9, אשדוד",קבוץ גלויות 9,2066-330-16,דירה בבית קומות,2.0,ראשונה,39.0,1250000,,,1960.0,,2.0,10285283316,1,2066330,False,,אשדוד,קבוץ גלויות,,2066-330-16,2066/330,32051.28205128205,31.804624499,34.6520428284,2022
2022-12-18,2022-12-18,"מכישווילי 24, אשדוד",מכישווילי 24,2459-18-22,דירה בבית קומות,3.0,שניה,57.9,2025000,,,1970.0,,4.0,10332050232,1,245918,False,142% ב 7.9 שנים,אשדוד,מיכשוילי,17.97,2459-18-22,2459/18,34974.0932642487,31.7900524434,34.6559397866,2022
2022-12-18,2022-12-18,"אחד העם 18, אשדוד",אחד העם 18,2068-76-61,דירה בבית קומות,3.0,רביעית,69.01,1605000,,,1970.0,,4.0,10332937188,1,206876,False,,אשדוד,אחד העם,,2068-76-61,2068/76,23257.498913200983,31.801626666,34.6474576849,2022
2022-12-18,2022-12-18,"הנרקיס 11, אשדוד",הנרקיס 11,2073-65-27,דירה בבית קומות,3.0,חמישית,62.8,1680000,,,1980.0,,8.0,10333314852,1,207365,False,115% ב 14.3 שנים,אשדוד,הנרקיס,8.04,2073-65-27,2073/65,26751.5923566879,31.7865606096,34.6474475266,2022
2022-12-18,2022-12-18,"קדרון 14, אשדוד",קדרון 14,2195-31-6,דירה בבית קומות,3.0,שניה,69.04,1875000,,,1990.0,,7.0,10285049544,1,219531,False,123% ב 12.3 שנים,אשדוד,קדרון,10.0,2195-31-6,2195/31,27158.169177288524,31.7846700955,34.6330709248,2022
2022-12-18,2022-12-18,"יוסי בר-חלפתא 9, אשדוד",יוסי בר-חלפתא 9,472-44-170,דירה בבית קומות,5.0,רביעית + חמישית,131.0,3050000,,,1996.0,,4.0,10285326156,1,47244,False,,אשדוד,יוסי בר חלפתא,,472-44-170,472/44,23282.4427480916,31.794514676,34.6623210559,2022
2022-12-15,2022-12-15,"שבט לוי 4, אשדוד",שבט לוי 4,2440-3-43,דירה בבית קומות,4.0,רביעית,88.4,2300000,,,2001.0,,6.0,10284845844,1,24403,False,206% ב 14.7 שנים,אשדוד,שבט לוי,14.01,2440-3-43,2440/3,26018.099547511312,31.7785190709,34.6379259129,2022
2022-12-15,2022-12-15,"אקסודוס 13, אשדוד",אקסודוס 13,2791-28-45,דירה בבית קומות,4.0,רביעית,122.45,2700000,,,2003.0,,8.0,10285588740,1,279128,False,,אשדוד,אקסודוס,,2791-28-45,2791/28,22049.81625153124,31.7964162795,34.6319767656,2022
2022-12-15,2022-12-15,"הרב אבן-דנן 5, אשדוד",הרב אבן-דנן 5,2462-19-8,דירה בבית קומות,3.0,רביעית,60.2,1600000,,,1970.0,,4.0,10285683072,1,246219,False,,אשדוד,הרב אבן דנן,,2462-19-8,2462/19,26578.073089701,31.7972957125,34.6601029968,2022
2022-12-15,2022-12-15,"החרצית 8, אשדוד",החרצית 8,2465-5-31,דירה בבית קומות,3.0,רביעית,64.3,1800000,,,1980.0,,4.0,10334382156,1,24655,False,95% ב 6.7 שנים,אשדוד,החרצית,14.18,2465-5-31,2465/5,27993.779160186627,31.7900828648,34.6529184221,2022
2022-12-14,2022-12-14,"אריק איינשטיין 2, אשדוד",אריק איינשטיין 2,3174-22-49,דירה בבית קומות,8.0,עשרים ושתיים,429.0,10500000,,,2024.0,,17.0,10332651756,1,317422,False,,אשדוד,אריק איינשטיין,,3174-22-49,3174/22,24475.524475524475,31.7909210225,34.6363982785,2022
2022-12-14,2022-12-14,"הכלנית 6, אשדוד",הכלנית 6,2074-164-44,דירה בבית קומות,4.0,שישית,124.0,2100000,,,1970.0,2016.0,4.0,10285751616,1,2074164,False,,אשדוד,הכלנית,,2074-164-44,2074/164,16935.483870967742,31.7846963147,34.6550385312,2022
2022-12-14,2022-12-14,"כינור 18, אשדוד",כינור 18,3174-16-26,דירה בבית קומות,5.0,שמונה עשרה,162.0,2800000,,,2014.0,,15.0,10332889476,1,317416,False,,אשדוד,כינור,,3174-16-26,3174/16,17283.95061728395,31.7896180201,34.6330158705,2022
2022-12-14,2022-12-14,"המעפילים 1, אשדוד",המעפילים 1,2066-234-1,דירה בבית קומות,3.0,ראשונה,63.43,1650000,,,1970.0,2021.0,4.0,10285787064,1,2066234,False,50% ב 3.7 שנים,אשדוד,המעפילים,13.51,2066-234-1,2066/234,26012.927636764936,31.8099906996,34.6523233766,2022
2022-12-14,2022-12-14,"כינרת 63, אשדוד",כינרת 63,2194-52-180,דירה בבית קומות,5.0,שמינית,113.6,2530000,,,1995.0,,9.0,10285822260,1,219452,False,,אשדוד,כנרת,,2194-52-180,2194/52,22271.12676056338,31.7824869354,34.6326845208,2022
2022-12-14,2022-12-14,"אברהם שפירא 3, אשדוד",אברהם שפירא 3,2456-58-3,דירה בבית קומות,4.0,ראשונה,110.0,1200000,,,1970.0,,4.0,10285441908,1,245658,False,9% ב 4 שנים,אשדוד,שפירא אברהם,2.25,2456-58-3,2456/58,10909.09090909091,31.7950848792,34.6600879453,2022
2022-12-13,2022-12-13,"ירושלים 2, אשדוד",ירושלים 2,2072-39-76,דירה בבית קומות,6.0,שמינית,157.46,3190000,,,1983.0,,8.0,10284651720,1,207239,False,162% ב 20 שנים,אשדוד,ירושלים,8.1,2072-39-76,2072/39,20259.113425631906,31.7957840582,34.6380331139,2022
2022-12-13,2022-12-13,"קדושי בלזן 7, אשדוד",קדושי בלזן 7,2061-114-1,דירה בבית קומות,8.0,"קרקע,ראשנה,שניה",209.68,3700000,,,1970.0,,,10333085616,1,2061114,False,,אשדוד,קדושי בלזן,,2061-114-1,2061/114,17645.936665394885,31.8118539579,34.6424565873,2022
2022-12-13,2022-12-13,"האורגים 5, אשדוד",האורגים 5,2062-49-14,חנות,,קרקע,67.42,900000,,,1990.0,,3.0,10332914424,1,206249,False,,אשדוד,האורגים,,2062-49-14,2062/49,13349.154553544942,31.8138345892,34.658007931,2022
2022-12-13,2022-12-13,"הפלמ""ח 9, אשדוד","הפלמ""ח 9",2464-85-7,דירה בבית קומות,3.0,שניה,63.0,1520000,,,1970.0,,8.0,10285004520,1,246485,False,,אשדוד,"הפלמ""ח",,2464-85-7,2464/85,24126.984126984127,31.8029621669,34.662418614,2022
2022-12-13,2022-12-13,"יהודה המכבי 1, אשדוד",יהודה המכבי 1,2455-15-21,דירה בבית קומות,5.0,חמישית,132.0,1910000,,,1970.0,,5.0,10332364812,1,245515,False,,אשדוד,יהודה המכבי,,2455-15-21,2455/15,14469.69696969697,31.7977696228,34.655316577,2022
2022-12-13,2022-12-13,"רשב""י 36, אשדוד","רשב""י 36",2023-83-107,דירה בבית קומות,4.0,ראשונה,74.1,1890000,,,2001.0,,6.0,10285162524,1,202383,False,49% ב 4 שנים,אשדוד,"רשב""י",12.25,2023-83-107,2023/83,25506.07287449393,31.7884860207,34.6649888802,2022
2022-12-13,2022-12-13,"חטיבת הנגב 24, אשדוד",חטיבת הנגב 24,2463-47-27,דירה בבית קומות,3.0,ראשונה,52.0,1330000,,,1970.0,,3.0,10332902664,1,246347,False,,אשדוד,חטיבת הנגב,,2463-47-27,2463/47,25576.92307692308,31.8001586127,34.6643385546,2022
2022-12-13,2022-12-13,"מנחם בגין 126, אשדוד",מנחם בגין 126,2074-189-174,דירה בבית קומות,4.0,ארבע עשרה,106.0,2210000,,,2019.0,,16.0,10332213780,1,2074189,False,,אשדוד,בגין מנחם,,2074-189-174,2074/189,20849.056603773584,31.783551433,34.6538359615,2022
2022-12-12,2022-12-12,"מאיר בעל הנס 5, אשדוד",מאיר בעל הנס 5,472-85-11,דירה בבית קומות,3.0,שלישית,67.96,3400000,,,1995.0,,5.0,10332165984,1,47285,False,277% ב 12 שנים,אשדוד,מאיר בעל הנס,23.08,472-85-11,472/85,50029.42907592702,31.7893103657,34.6604822782,2022
2022-12-12,2022-12-12,"מנחם בגין 126, אשדוד",מנחם בגין 126,2074-189-122,,4.0,ארבע עשרה,88.0,2210000,1.0,כלניות,2019.0,,16.0,11181203712,1,2074189,False,,אשדוד,בגין מנחם,,2074-189-122,2074/189,25113.636363636364,31.783551433,34.6538359615,2022
2022-12-12,2022-12-12,"מאיר בעל הנס 26, אשדוד",מאיר בעל הנס 26,472-104-13,דירה בבית קומות,4.0,שלישית,78.6,2330000,,,1998.0,,5.0,10333943508,1,472104,False,129% ב 11.1 שנים,אשדוד,מאיר בעל הנס,11.62,472-104-13,472/104,29643.76590330789,31.7885718222,34.6606281961,2022
2022-12-12,2022-12-12,"מנחם בגין 126, אשדוד",מנחם בגין 126,2074-189-123,,4.0,ארבע עשרה,106.0,2370000,1.0,כלניות,2019.0,,16.0,11181203713,1,2074189,False,,אשדוד,בגין מנחם,,2074-189-123,2074/189,22358.490566037737,31.783551433,34.6538359615,2022
2022-12-12,2022-12-12,"ציזלינג 6, אשדוד",ציזלינג 6,2455-3-25,דירה בבית קומות,3.0,ראשונה,42.3,1500000,,,1970.0,,4.0,10284508416,1,24553,False,132% ב 11.4 שנים,אשדוד,ציזלינג,11.58,2455-3-25,2455/3,35460.99290780142,31.7968153475,34.6536592379,2022
2022-12-10,2022-10-12,"נחל לכיש 25, אשדוד",נחל לכיש 25,2196-67-175,דירה בבית קומות,5.0,עשירית,121.95,3000000,,,2006.0,,12.0,10279903452,1,219667,False,,אשדוד,נחל לכיש,,2196-67-175,2196/67,24600.246002460022,31.7880389553,34.6330118482,2022
2022-12-09,2022-09-12,"חיבת ציון 45, אשדוד",חיבת ציון 45,2077-175-5,דירה בבית קומות,3.0,קומה ‎1‏,67.33,1525000,,,1996.0,,10.0,10277565984,1,2077175,False,,אשדוד,חיבת ציון,,2077-175-5,2077/175,22649.63612060003,31.8089955386,34.6461101308,2022
2022-12-09,2022-09-12,"הרותם 4, אשדוד",הרותם 4,2188-13-26,דירה בבית קומות,5.0,חמישית,128.0,1600000,,,1977.0,2022.0,4.0,10278379440,1,218813,False,,אשדוד,הרותם,,2188-13-26,2188/13,12500.0,31.7882489002,34.6570387929,2022
2022-12-09,2022-09-12,"הרב אלקלעי 5, אשדוד",הרב אלקלעי 5,2462-72-53,דירה בבית קומות,5.0,שניה,103.4,2150000,,,1998.0,,5.0,10277114064,1,246272,False,,אשדוד,הרב אלקלעי,,2462-72-53,2462/72,20793.03675048356,31.7963036413,34.66241299,2022
2022-12-09,2022-09-12,"קדושי בלזן 3, אשדוד",קדושי בלזן 3,2061-91-65,דירת גג,5.0,שמינית ותשיעית,183.6,2700000,,,1994.0,,9.0,10278552816,1,206191,False,22% ב 4.3 שנים,אשדוד,קדושי בלזן,5.12,2061-91-65,2061/91,14705.882352941177,31.8111303925,34.6418197098,2022
2022-12-09,2022-09-12,"יותם המלך 7, אשדוד",יותם המלך 7,2394-2-21,דירה בבית קומות,2.0,קרקע,45.61,1200000,,,1992.0,,3.0,10278906204,1,23942,False,,אשדוד,המלך יותם,,2394-2-21,2394/2,26310.0197325148,31.7770074972,34.6408445073,2022
2022-12-09,2022-09-12,"אקסודוס 11, אשדוד",אקסודוס 11,2791-32-0,קרקע למגורים,,,6861.0,9023000,,,2006.0,,8.0,10278929640,1,279132,False,,אשדוד,אקסודוס,,2791-32-0,2791/32,1315.114414808337,31.795493306,34.6322518576,2022
2022-12-09,2022-09-12,"סיגל 4, אשדוד",סיגל 4,2071-54-38,דירה בבית קומות,3.0,שניה,66.9,1490000,,,1970.0,,8.0,10277218728,1,207154,False,,אשדוד,סיגל,,2071-54-38,2071/54,22272.047832585948,31.7932474313,34.6459353215,2022
2022-12-08,2022-08-12,"מטולה 1, אשדוד",מטולה 1,2385-159-11,דירה בבית קומות,3.0,שניה,82.0,1350000,,,1993.0,,3.0,10274281836,1,2385159,False,,אשדוד,מטולה,,2385-159-11,2385/159,16463.414634146342,31.7852726586,34.6626365673,2022
2022-12-07,2022-07-12,"ז'בוטינסקי 12, אשדוד",ז'בוטינסקי 12,2077-102-18,דירה בבית קומות,2.0,ראשונה,42.3,1200000,,,2022.0,,5.0,10271610216,1,2077102,False,215% ב 12 שנים,אשדוד,ז'בוטינסקי,17.92,2077-102-18,2077/102,28368.79432624113,31.8116735775,34.6465928475,2022
2022-12-07,2022-07-12,"פתח תקווה 9, אשדוד",פתח תקווה 9,2385-165-7,דירה בבית קומות,3.0,ראשונה,84.0,1500000,,,1995.0,,6.0,10274145084,1,2385165,False,,אשדוד,פתח תקווה,,2385-165-7,2385/165,17857.14285714286,31.7838443963,34.6624841615,2022
2022-12-07,2022-07-12,"אלבז 4, אשדוד",אלבז 4,2455-4-28,דירה בבית קומות,2.0,רביעית,44.9,1430000,,,1970.0,,4.0,10271181396,1,24554,False,68% ב 3.2 שנים,אשדוד,אלבז נתן,21.25,2455-4-28,2455/4,31848.55233853007,31.7972229824,34.6545798903,2022
2022-12-07,2022-07-12,"אבן עזרא 3, אשדוד",אבן עזרא 3,2068-200-36,דירה בבית קומות,8.0,שישית,166.9,2400000,,,1991.0,,6.0,10271558976,1,2068200,False,,אשדוד,אבן עזרא,,2068-200-36,2068/200,14379.86818454164,31.8005744047,34.650865764,2022
2022-12-07,2022-07-12,"שאול המלך 5, אשדוד",שאול המלך 5,2393-22-13,דירה בבית קומות,4.0,ראשונה,87.4,1720000,,,1992.0,,5.0,10271071188,1,239322,False,83% ב 11.1 שנים,אשדוד,המלך שאול,7.48,2393-22-13,2393/22,19679.633867276887,31.7735926056,34.6423028069,2022
2022-12-07,2022-07-12,"שבט שמעון 9, אשדוד",שבט שמעון 9,2438-6-53,דירה בבית קומות,3.0,תשיעית,75.0,2100000,,,2022.0,,8.0,10270738548,1,24386,False,,אשדוד,שבט שמעון,,2438-6-53,2438/6,28000.0,31.7795519076,34.6347663786,2022
2022-12-06,2022-06-12,"שוהם 18, אשדוד",שוהם 18,2670-19-0,דירת גג,5.0,ראשונה,267.0,3870000,,,2005.0,,16.0,10267001640,1,267019,False,15% ב 0.2 שנים,אשדוד,שהם,75.0,2670-19-0,2670/19,14494.38202247191,31.7661653646,34.6315695045,2022
2022-12-06,2022-06-12,"הדגנית 6, אשדוד",הדגנית 6,2188-3-8,דירה בבית קומות,3.0,רביעית,61.7,1800000,,,1978.0,,4.0,10268690628,1,21883,False,16% ב 1.5 שנים,אשדוד,הדגנית,10.67,2188-3-8,2188/3,29173.419773095626,31.7896373886,34.6546272334,2022
2022-12-06,2022-06-12,"ז'בוטינסקי 4, אשדוד",ז'בוטינסקי 4,2061-78-32,דירה בבית קומות,2.0,רביעית,48.3,1350000,,,1960.0,,4.0,10268362188,1,206178,False,269% ב 23.4 שנים,אשדוד,ז'בוטינסקי,11.5,2061-78-32,2061/78,27950.31055900621,31.8118773095,34.6451413457,2022
2022-12-06,2022-06-12,"שבט שמעון 2, אשדוד",שבט שמעון 2,2438-9-7,דירה בבית קומות,4.0,ראשונה,106.57,2325000,,,2003.0,,9.0,10270468236,1,24389,False,,אשדוד,שבט שמעון,,2438-9-7,2438/9,21816.646335741767,31.7787620884,34.6347710126,2022
2022-12-06,2022-06-12,"שבט דן 10, אשדוד",שבט דן 10,2438-12-93,דירה בבית קומות,4.0,שביעית,93.0,2245000,,,2003.0,,9.0,10268763960,1,243812,False,36% ב 6.4 שנים,אשדוד,שבט דן,5.62,2438-12-93,2438/12,24139.78494623656,31.7779879205,34.6329958572,2022
2022-12-06,2022-06-12,"מכישווילי 30, אשדוד",מכישווילי 30,2459-19-32,דירה בבית קומות,3.0,רביעית,57.9,1750000,,,1970.0,2022.0,4.0,10268258196,1,245919,False,59% ב 6 שנים,אשדוד,מיכשוילי,9.83,2459-19-32,2459/19,30224.52504317789,31.7897049778,34.6569727174,2022
2022-12-05,2022-05-12,,,2190-12-50,דירה בבית קומות,5.0,שניה,163.0,2555000,,,2020.0,,,10265657976,2,219012,False,,אשדוד,הרב שאולי,,2190-12-50,2190/12,15674.846625766872,31.7973258603,34.6433261473,2022
2022-12-05,2022-05-12,"הרב קוק 12, אשדוד",הרב קוק 12,2066-267-34,דירה בבית קומות,2.0,ראשונה,44.0,1140000,,,1960.0,,3.0,10264262400,1,2066267,False,,אשדוד,הרב קוק,,2066-267-34,2066/267,25909.090909090908,31.8082704824,34.6552676341,2022
2022-12-05,2022-05-12,"שבט בנימין 31, אשדוד",שבט בנימין 31,2438-20-2,דירה בבית קומות,4.0,קרקע,102.26,2775000,,,2000.0,,4.0,10265141712,1,243820,False,,אשדוד,שבט בנימין,,2438-20-2,2438/20,27136.710346176413,31.7763646786,34.6338598069,2022
2022-12-05,2022-05-12,"אבן עזרא 35, אשדוד",אבן עזרא 35,2071-50-28,דירה בבית קומות,2.0,שלישית,43.1,1400000,,,1970.0,,4.0,10264089276,1,207150,False,35% ב 4.4 שנים,אשדוד,אבן עזרא,7.95,2071-50-28,2071/50,32482.59860788863,31.7942764471,34.6463067029,2022
2022-12-05,2022-05-12,"יהודה הלוי 8, אשדוד",יהודה הלוי 8,2071-153-19,דירה בבית קומות,4.0,חמישית,72.6,1654000,,,1987.0,,11.0,10264172436,1,2071153,False,57% ב 6.8 שנים,אשדוד,יהודה הלוי,8.38,2071-153-19,2071/153,22782.369146005512,31.7974137263,34.6467281634,2022
2022-12-05,2022-05-12,"ההסתדרות 16, אשדוד",ההסתדרות 16,2086-113-7,דירה בבית קומות,3.0,שניה,58.5,1450000,,,2020.0,,4.0,10265742480,1,2086113,False,,אשדוד,ההסתדרות,,2086-113-7,2086/113,24786.324786324785,31.8086579577,34.648345587,2022
2022-12-04,2022-04-12,"הרותם 1, אשדוד",הרותם 1,2188-19-1,דירה בבית קומות,3.0,ראשונה,60.8,1395000,,,1970.0,,4.0,10263081528,1,218819,False,,אשדוד,הרותם,,2188-19-1,2188/19,22944.078947368424,31.7878400467,34.6565202581,2022
2022-12-04,2022-04-12,"מנחם בגין 126, אשדוד",מנחם בגין 126,2074-189-111,דירה בבית קומות,4.0,עשירית,99.0,2100000,,,2019.0,,16.0,10262543004,1,2074189,False,,אשדוד,בגין מנחם,,2074-189-111,2074/189,21212.12121212121,31.783551433,34.6538359615,2022
2022-12-04,2022-04-12,"הפלמ""ח 31, אשדוד","הפלמ""ח 31",2463-35-14,דירה בבית קומות,5.0,שלישית,125.5,2000000,,,2001.0,,4.0,10261353900,1,246335,False,49% ב 8.5 שנים,אשדוד,"הפלמ""ח",5.76,2463-35-14,2463/35,15936.25498007968,31.7983972014,34.6634368876,2022
2022-12-04,2022-04-12,"מנחם בגין 126, אשדוד",מנחם בגין 126,2074-189-110,דירה בבית קומות,4.0,שלוש עשרה,88.0,1950000,,,2019.0,,16.0,10263084300,1,2074189,False,,אשדוד,בגין מנחם,,2074-189-110,2074/189,22159.090909090908,31.783551433,34.6538359615,2022
2022-12-04,2022-04-12,"שבט נפתלי 5, אשדוד",שבט נפתלי 5,2438-49-7,דירה בבית קומות,4.0,ראשונה,93.0,2190000,,,2000.0,,6.0,10263280440,1,243849,False,119% ב 12.7 שנים,אשדוד,שבט נפתלי,9.37,2438-49-7,2438/49,23548.387096774197,31.7760580664,34.6333035775,2022
2022-12-04,2022-04-12,"רחובות 18, אשדוד",רחובות 18,2387-79-5,דירה בבית קומות,4.0,שניה,83.08,1620000,,,1996.0,,3.0,10261657476,1,238779,False,21% ב 6 שנים,אשדוד,רחובות,3.5,2387-79-5,2387/79,19499.27780452576,31.7823633877,34.6633318048,2022
2022-12-04,2022-04-12,"ארלוזורוב 3, אשדוד",ארלוזורוב 3,2071-144-46,דירה בבית קומות,5.0,שניה,125.3,2290000,,,1998.0,,8.0,10261827996,1,2071144,False,,אשדוד,ארלוזורוב,,2071-144-46,2071/144,18276.13727055068,31.7954607977,34.6477989107,2022
2022-12-04,2022-04-12,"הרב אבן-דנן 10, אשדוד",הרב אבן-דנן 10,2462-8-16,דירה בבית קומות,3.0,רביעית,61.0,1620000,,,1970.0,,4.0,10261985916,1,24628,False,,אשדוד,הרב אבן דנן,,2462-8-16,2462/8,26557.37704918033,31.7971862821,34.6593333095,2022
2022-12-04,2022-04-12,"יפה ירקוני 6, אשדוד",יפה ירקוני 6,3174-31-8,קרקע למגורים,,,3755.0,55772000,,,0.0,,5.0,10263645588,1,317431,False,,אשדוד,יפה ירקוני,,3174-31-8,3174/31,14852.729693741678,31.7887968758,34.6334540564,2022
2022-12-04,2022-04-12,"כפתור החולות 7, אשדוד",כפתור החולות 7,2074-147-17,דירה בבית קומות,4.0,ראשונה,104.1,1830000,,,1997.0,,5.0,10261317864,1,2074147,False,,אשדוד,כפתור החולות,,2074-147-17,2074/147,17579.250720461096,31.7850892926,34.6537284357,2022
2022-12-04,2022-04-12,"החלוצים 3, אשדוד",החלוצים 3,2447-5-324,דירה בבית קומות,7.0,תשיעית+עשירית,156.0,3200000,,,1998.0,,9.0,10261586832,1,24475,False,,אשדוד,החלוצים,,2447-5-324,2447/5,20512.82051282051,31.7931119327,34.6421069642,2022
2022-12-04,2022-04-12,"שבט יששכר 9, אשדוד",שבט יששכר 9,2437-17-62,דירה בבית קומות,4.0,ראשונה,109.58,2390000,,,2000.0,,6.0,10262335188,1,243717,False,36% ב 3.5 שנים,אשדוד,שבט יששכר,10.29,2437-17-62,2437/17,21810.549370323053,31.7762179194,34.6369745795,2022
2022-12-04,2022-04-12,"הבנאים 14, אשדוד",הבנאים 14,2062-20-9,מגורים,,,,82758000,,,,,1.0,10263615852,1,206220,False,,אשדוד,הבנאים,,2062-20-9,2062/20,,,,2022
2022-12-04,2022-04-12,"הגולשים 8, אשדוד",הגולשים 8,2191-27-54,דירה בבית קומות,4.0,שביעית,86.0,1990000,,,1990.0,,7.0,10261966428,1,219127,False,,אשדוד,הגולשים,,2191-27-54,2191/27,23139.53488372093,31.799468527,34.6374961026,2022
2022-12-04,2022-04-12,"המעפילים 11, אשדוד",המעפילים 11,2066-522-16,דירה בבית קומות,3.0,רביעית,54.0,1360000,,,2021.0,,5.0,10261456380,1,2066522,False,156% ב 8.8 שנים,אשדוד,המעפילים,17.73,2066-522-16,2066/522,25185.185185185182,31.8081474507,34.6517740759,2022
2022-12-04,2022-04-12,"קק""ל 6, אשדוד","קק""ל 6",2397-49-15,דירה בבית קומות,3.0,ראשונה,66.0,1650000,,,1992.0,,3.0,10261433616,1,239749,False,89% ב 9.8 שנים,אשדוד,"קק""ל",9.08,2397-49-15,2397/49,25000.0,31.7842215002,34.6490245859,2022
2022-12-02,2022-02-12,"אלכסנדר פן 3, אשדוד",אלכסנדר פן 3,2071-300-238,,3.0,תשיעית,75.0,1740000,1.0,אביבי אשדוד הצעירה,2020.0,,16.0,11181203215,1,2071300,False,,אשדוד,פן אלכסנדר,,2071-300-238,2071/300,23200.0,31.7931214113,34.648559239,2022
2022-12-01,2022-01-12,"יוספטל 8, אשדוד",יוספטל 8,2066-117-8,דירה בבית קומות,3.0,שניה,80.5,1140000,,,2022.0,,5.0,10251716244,1,2066117,False,,אשדוד,יוספטל,,2066-117-8,2066/117,14161.490683229811,31.8083049645,34.6539996002,2022
2022-12-01,2022-01-12,"המלך אמציה 21, אשדוד",המלך אמציה 21,2396-29-22,דירה בבית קומות,4.0,ראשונה,82.33,1640000,,,1990.0,,3.0,10251264408,1,239629,False,,אשדוד,המלך אמציה,,2396-29-22,2396/29,19919.83481112596,31.7740593572,34.6446823622,2022
2022-12-01,2022-01-12,"אלול 7, אשדוד",אלול 7,2439-22-4,דירה בבית קומות,4.0,ראשונה,92.85,1800000,,,2000.0,,7.0,10249825152,1,243922,False,100% ב 13.5 שנים,אשדוד,אלול,7.41,2439-22-4,2439/22,19386.10662358643,31.7818184617,34.6372967104,2022
2022-12-01,2022-01-12,"אברהם שפירא 13, אשדוד",אברהם שפירא 13,2456-63-18,דירה בבית קומות,4.0,קומה ‎0‏,105.0,1730000,,,1970.0,2020.0,5.0,10251296244,1,245663,True,-8% ב 0.3 שנים,אשדוד,שפירא אברהם,-26.67,2456-63-18,2456/63,16476.190476190477,31.7940022949,34.659750125,2022
2022-12-01,2022-01-12,"הציונות 36, אשדוד",הציונות 36,2450-10-318,דירה בבית קומות,5.0,קומה ‎3‏,127.0,2530000,,,2004.0,,11.0,10259652480,1,245010,False,,אשדוד,הציונות,,2450-10-318,2450/10,19921.259842519685,31.7855761451,34.6412670284,2022
2022-12-01,2022-01-12,"הכרכום 6, אשדוד",הכרכום 6,2188-12-18,דירה בבית קומות,3.0,קרקע,79.0,1550000,,,2020.0,,4.0,10252216632,1,218812,False,,אשדוד,הכרכום,,2188-12-18,2188/12,19620.25316455696,31.7886009853,34.65707013,2022
2022-12-01,2022-01-12,"ציזלינג 2, אשדוד",ציזלינג 2,2455-1-16,דירה בבית קומות,3.0,רביעית,49.0,1075000,,,1970.0,,4.0,10251023244,1,24551,False,,אשדוד,ציזלינג,,2455-1-16,2455/1,21938.775510204083,31.7978216024,34.6543230002,2022
2022-12-01,2022-01-12,"אליאשווילי 2, אשדוד",אליאשווילי 2,2071-46-5,דירה בבית קומות,3.0,שלישית,59.8,1400000,,,1970.0,,4.0,10252146576,1,207146,False,,אשדוד,אליאשוילי,,2071-46-5,2071/46,23411.3712374582,31.795158487,34.6473043585,2022
2022-12-01,2022-01-12,"הכרכום 6, אשדוד",הכרכום 6,2188-12-8,דירה בבית קומות,4.0,רביעית,79.8,1500000,,,2020.0,,4.0,10250617104,1,218812,False,25% ב 5 שנים,אשדוד,הכרכום,5.0,2188-12-8,2188/12,18796.992481203008,31.7886009853,34.65707013,2022
2022-12-01,2022-01-12,"ה' באייר 21, אשדוד",ה' באייר 21,2450-24-82,דירה בבית קומות,6.0,שלישית,147.8,1335000,,,1997.0,,6.0,10249834140,1,245024,False,,אשדוד,ה' באייר,,2450-24-82,2450/24,9032.476319350471,31.7836186264,34.6436270339,2022
2022-12-01,2022-01-12,"רבי עקיבא 9, אשדוד",רבי עקיבא 9,2462-29-27,דירה בבית קומות,4.0,שלישית,72.3,1580000,,,2022.0,,5.0,10251644172,1,246229,False,,אשדוד,רבי עקיבא,,2462-29-27,2462/29,21853.388658367912,31.7982287476,34.6615384129,2022
2022-12-01,2022-01-12,"אלכסנדר פן 3, אשדוד",אלכסנדר פן 3,2071-300-323,דירה בבית קומות,3.0,עשירית,75.0,1750000,,,2020.0,,16.0,10251397548,1,2071300,False,,אשדוד,פן אלכסנדר,,2071-300-323,2071/300,23333.33333333333,31.7931214113,34.648559239,2022
2022-12-01,2022-01-12,"כינור 22, אשדוד",כינור 22,3174-15-54,דירת גג (פנטהאוז),5.0,,255.0,6050000,1.0,,2016.0,,20.0,11181217488,1,317415,False,,אשדוד,כינור,,3174-15-54,3174/15,23725.49019607843,31.7889979814,34.6339789137,2022
2022-12-01,2022-01-12,"אגוז 25, אשדוד",אגוז 25,2791-55-28,דירה בבית קומות,5.0,שמינית,123.3,3500000,,,2008.0,,11.0,10250161908,1,279155,False,,אשדוד,אגוז,,2791-55-28,2791/55,28386.050283860503,31.7917489636,34.629776224,2022
2022-12-01,2022-01-12,"קרן היסוד 27, אשדוד",קרן היסוד 27,2190-6-27,דירה בבית קומות,3.0,שניה,70.1,1773000,,,1970.0,2025.0,4.0,10253685876,1,21906,False,,אשדוד,קרן היסוד,,2190-6-27,2190/6,25292.43937232525,31.7975931232,34.641963452,2022
2022-11-30,2022-11-30,"חטיבת כרמלי 4, אשדוד",חטיבת כרמלי 4,2464-62-30,דירה בבית קומות,3.0,שניה,52.0,1400000,,,1970.0,,3.0,10283766864,1,246462,False,,אשדוד,חטיבת כרמלי,,2464-62-30,2464/62,26923.07692307692,31.8045152004,34.6617446246,2022
2022-11-30,2022-11-30,"כינור 4, אשדוד",כינור 4,3174-68-14,דירה בבית קומות,5.0,רביעית,201.0,3100000,,,2013.0,,7.0,10283723772,1,317468,False,,אשדוד,כינור,,3174-68-14,3174/68,15422.885572139305,31.7907938054,34.635746908,2022
2022-11-29,2022-11-29,"האורגים 29, אשדוד",האורגים 29,2062-65-19,משרד,,שלישית,95.3,1260000,,,2001.0,,4.0,10285601928,1,206265,False,,אשדוד,האורגים,,2062-65-19,2062/65,13221.406086044071,31.8141683183,34.6554739092,2022
2022-11-29,2022-11-29,"הלל 2, אשדוד",הלל 2,472-125-54,דירה בבית קומות,6.0,"רביעית, חמישית",118.5,2000000,,,2000.0,,4.0,10333025220,1,472125,False,0% ב 3.9 שנים,אשדוד,הלל,0.0,472-125-54,472/125,16877.637130801686,31.7917412562,34.6663875368,2022
2022-11-29,2022-11-29,"הדקל 5, אשדוד",הדקל 5,2088-149-84,דירה בבית קומות,4.0,עשירית,122.0,2800000,,,2024.0,,12.0,10285533384,1,2088149,False,,אשדוד,הדקל,,2088-149-84,2088/149,22950.819672131147,31.8053459414,34.6420896573,2022
2022-11-29,2022-11-29,"האורגים 29, אשדוד",האורגים 29,2062-65-21,משרד,,שלישית,95.9,1266000,,,2001.0,,4.0,10285236696,1,206265,False,201% ב 11.5 שנים,אשדוד,האורגים,17.48,2062-65-21,2062/65,13201.251303441084,31.8141683183,34.6554739092,2022
2022-11-29,2022-11-29,"האורגים 29, אשדוד",האורגים 29,2062-65-22,משרד,,שלישית,36.8,480000,,,2001.0,,4.0,10285597056,1,206265,False,50% ב 10 שנים,אשדוד,האורגים,5.0,2062-65-22,2062/65,13043.478260869566,31.8141683183,34.6554739092,2022
2022-11-29,2022-11-29,"הבעל שם טוב 8, אשדוד",הבעל שם טוב 8,2462-25-16,דירה בבית קומות,3.0,רביעית,60.2,1860000,,,1970.0,,4.0,10283441952,1,246225,False,154% ב 9.5 שנים,אשדוד,הבעל שם טוב,16.21,2462-25-16,2462/25,30897.00996677741,31.7969768123,34.6613256098,2022
2022-11-29,2022-11-29,"הדמומית 1, אשדוד",הדמומית 1,2074-106-34,דירה בבית קומות,4.0,חמישית,100.0,1700000,,,2013.0,,4.0,10285121112,1,2074106,False,,אשדוד,הדמומית,,2074-106-34,2074/106,17000.0,31.7858707392,34.6521133955,2022
2022-11-29,2022-11-29,"הרב קוק 22, אשדוד",הרב קוק 22,2066-307-22,דירה בבית קומות,2.0,שניה,44.0,1120000,,,1960.0,,2.0,10286072496,1,2066307,False,,אשדוד,הרב קוק,,2066-307-22,2066/307,25454.545454545456,31.8076418323,34.6572358027,2022
2022-11-29,2022-11-29,"ז'בוטינסקי 26, אשדוד",ז'בוטינסקי 26,2086-70-6,דירה בבית קומות,3.0,שניה,54.3,1400000,,,1970.0,,4.0,10283422464,1,208670,False,,אשדוד,ז'בוטינסקי,,2086-70-6,2086/70,25782.68876611418,31.8111601424,34.648611361,2022
2022-11-29,2022-11-29,"האורגים 29, אשדוד",האורגים 29,2062-65-16,משרד,,שניה,49.1,640000,,,2001.0,,4.0,10285242996,1,206265,False,77% ב 13.7 שנים,אשדוד,האורגים,5.62,2062-65-16,2062/65,13034.623217922606,31.8141683183,34.6554739092,2022
2022-11-29,2022-11-29,"החובלים 4, אשדוד",החובלים 4,2189-22-21,דירה בבית קומות,3.0,קרקע,55.0,1300000,,,2012.0,,3.0,10284870120,1,218922,True,-12% ב 2 שנים,אשדוד,החובלים,-6.0,2189-22-21,2189/22,23636.36363636364,31.8018723447,34.6419459344,2022
2022-11-29,2022-11-29,"האורגים 29, אשדוד",האורגים 29,2062-65-23,משרד,,שלישית,37.5,489000,,,2001.0,,4.0,10285599912,1,206265,False,16% ב 11.5 שנים,אשדוד,האורגים,1.39,2062-65-23,2062/65,13040.0,31.8141683183,34.6554739092,2022
2022-11-29,2022-11-29,"זלמן ארן 8, אשדוד",זלמן ארן 8,2189-26-74,דירה בבית קומות,4.0,חמישית,84.4,1680000,,,1990.0,,7.0,10284044652,1,218926,False,57% ב 8.7 שנים,אשדוד,ארן זלמן,6.55,2189-26-74,2189/26,19905.21327014218,31.8011736803,34.6446165876,2022
2022-11-29,2022-11-29,"האדמו""ר מבלעז 19, אשדוד","האדמו""ר מבלעז 19",2464-126-2,דירה בבית קומות,4.0,שלישית,100.0,1600000,,,1980.0,,3.0,10283641368,1,2464126,False,,אשדוד,"האדמו""ר מבעלז",,2464-126-2,2464/126,16000.0,31.8057979811,34.6634809703,2022
2022-11-29,2022-11-29,"העצמאות 12, אשדוד",העצמאות 12,2448-10-157,דירה בבית קומות,4.0,חמישית,96.8,1800000,,,1999.0,,10.0,10284800736,1,244810,False,63% ב 10.5 שנים,אשדוד,העצמאות,6.0,2448-10-157,2448/10,18595.04132231405,31.7910669676,34.6446673382,2022
2022-11-29,2022-11-29,"יהודה המכבי 6, אשדוד",יהודה המכבי 6,2455-61-6,דירה בבית קומות,3.0,רביעית,61.9,1520000,,,1970.0,,4.0,10283738388,1,245561,False,121% ב 9.7 שנים,אשדוד,יהודה המכבי,12.47,2455-61-6,2455/61,24555.735056542813,31.7963859283,34.6570035313,2022
2022-11-29,2022-11-29,"שבט לוי 5, אשדוד",שבט לוי 5,2437-19-14,דירה בבית קומות,5.0,שביעית,142.0,2600000,,,2003.0,,5.0,10283605416,1,243719,False,,אשדוד,שבט לוי,,2437-19-14,2437/19,18309.859154929574,31.7773838419,34.638009338,2022
2022-11-29,2022-11-29,"האורגים 29, אשדוד",האורגים 29,2062-65-18,משרד,,שלישית,122.2,1613000,,,2001.0,,4.0,10285232580,1,206265,False,152% ב 8.3 שנים,אשדוד,האורגים,18.31,2062-65-18,2062/65,13199.672667757774,31.8141683183,34.6554739092,2022
2022-11-29,2022-11-29,"כ""ט בנובמבר 12, אשדוד","כ""ט בנובמבר 12",2450-5-85,דירה בבית קומות,6.0,רביעית,147.5,2650000,,,1998.0,,6.0,10284813840,1,24505,False,,אשדוד,"כ""ט בנובמבר",,2450-5-85,2450/5,17966.101694915254,31.7831874812,34.6420842342,2022
2022-11-29,2022-11-29,"האורגים 29, אשדוד",האורגים 29,2062-65-24,משרד,,רביעית,119.6,1602000,,,2001.0,,4.0,10285610244,1,206265,False,167% ב 6.6 שנים,אשדוד,האורגים,25.3,2062-65-24,2062/65,13394.64882943144,31.8141683183,34.6554739092,2022
2022-11-29,2022-11-29,"האורגים 29, אשדוד",האורגים 29,2062-65-20,משרד,,שלישית,98.3,1317000,,,2001.0,,4.0,10285604028,1,206265,False,112% ב 8.8 שנים,אשדוד,האורגים,12.73,2062-65-20,2062/65,13397.761953204476,31.8141683183,34.6554739092,2022
2022-11-28,2022-11-28,"שבי ציון 23, אשדוד",שבי ציון 23,2086-48-38,דירה בבית קומות,3.0,רביעית,74.6,1550000,,,2022.0,,5.0,10285635192,1,208648,False,,אשדוד,שבי ציון,,2086-48-38,2086/48,20777.4798927614,31.8078514135,34.6492231643,2022
2022-11-28,2022-11-28,"רמב""ם 7, אשדוד","רמב""ם 7",2066-292-22,דירה בבית קומות,3.0,שביעית,59.0,1450000,,,1960.0,2022.0,4.0,10283620536,1,2066292,False,,אשדוד,"רמב""ם",,2066-292-22,2066/292,24576.27118644068,31.8052052673,34.654123591,2022
2022-11-28,2022-11-28,"אריה בן-אליעזר 16, אשדוד",אריה בן-אליעזר 16,2189-30-14,דירה בבית קומות,3.0,רביעית,67.0,1440000,,,1970.0,,7.0,10284685824,1,218930,False,,אשדוד,בן אליעזר אריה,,2189-30-14,2189/30,21492.53731343284,31.8024090946,34.6445379409,2022
2022-11-28,2022-11-28,"קרן היסוד 38, אשדוד",קרן היסוד 38,2191-9-39,דירה בבית קומות,4.0,שישית,123.0,2140000,,,1975.0,2016.0,3.0,10283307384,1,21919,False,,אשדוד,קרן היסוד,,2191-9-39,2191/9,17398.37398373984,31.7971699916,34.6404648708,2022
2022-11-28,2022-11-28,,,2088-148-94,דירה בבית קומות,3.0,עשרים ושמונה,84.0,2450000,,,2020.0,,,10285526412,2,2088148,False,,אשדוד,הדקל,,2088-148-94,2088/148,29166.666666666668,31.8055938194,34.6414786432,2022
2022-11-28,2022-11-28,"עוזיהו 13, אשדוד",עוזיהו 13,2460-3-7,דירה בבית קומות,3.0,שניה,63.5,1450000,,,1970.0,,5.0,10283275632,1,24603,False,,אשדוד,עוזיהו,,2460-3-7,2460/3,22834.645669291334,31.8024048736,34.6604695021,2022
2022-11-27,2022-11-27,"ביאליק 3, אשדוד",ביאליק 3,2071-123-66,דירה בבית קומות,4.0,שמינית,75.3,1600000,,,1990.0,,9.0,10283779380,1,2071123,False,,אשדוד,ביאליק,,2071-123-66,2071/123,21248.33997343957,31.7965684121,34.6471971345,2022
2022-11-27,2022-11-27,"מכישווילי 34, אשדוד",מכישווילי 34,2459-20-11,דירה בבית קומות,3.0,שלישית,57.9,1830000,,,1970.0,,4.0,10283599956,1,245920,False,181% ב 11.9 שנים,אשדוד,מיכשוילי,15.21,2459-20-11,2459/20,31606.21761658031,31.7893921209,34.6578842761,2022
2022-11-27,2022-11-27,"יהודה המכבי 21, אשדוד",יהודה המכבי 21,2456-2-22,דירה בבית קומות,3.0,שישית,75.0,1600000,,,1965.0,,4.0,10285334472,1,24562,False,,אשדוד,יהודה המכבי,,2456-2-22,2456/2,21333.33333333333,31.79634001,34.6581495069,2022
2022-11-27,2022-11-27,"יורדי הסירה 4, אשדוד",יורדי הסירה 4,2066-179-21,דירה בבית קומות,4.0,שישית,97.0,1800000,,,1960.0,2022.0,5.0,10283518812,1,2066179,False,,אשדוד,יורדי הסירה,,2066-179-21,2066/179,18556.701030927838,31.8024028007,34.648983825,2022
2022-11-27,2022-11-27,,,2088-148-95,דירה בבית קומות,5.0,עשרים ושמונה,172.0,3680000,,,2020.0,,,10285518096,2,2088148,False,,אשדוד,הדקל,,2088-148-95,2088/148,21395.3488372093,31.8055938194,34.6414786432,2022
2022-11-27,2022-11-27,,,2088-148-70,,3.0,עשרים ושמונה,84.0,2450000,1.0,מגדלי הדקל - אשדוד ים,,,,11181203814,2,2088148,False,,אשדוד,הדקל,,2088-148-70,2088/148,29166.666666666668,31.8055938194,34.6414786432,2022
2022-11-27,2022-11-27,"תש""ח 2, אשדוד","תש""ח 2",2448-7-514,דירה בבית קומות,5.0,שלישית,183.0,3170000,,,2019.0,,16.0,10283239512,1,24487,False,,אשדוד,"תש""ח",,2448-7-514,2448/7,17322.4043715847,31.7884022023,34.646324433,2022
2022-11-27,2022-11-27,"שבט בנימין 10, אשדוד",שבט בנימין 10,2437-18-9,דירה בבית קומות,5.0,קומה ‎5‏,121.63,2900000,,,2004.0,,7.0,10283129220,1,243718,False,257% ב 19.7 שנים,אשדוד,שבט בנימין,13.05,2437-18-9,2437/18,23842.80194031078,31.7765479889,34.6377428745,2022
2022-11-27,2022-11-27,"בורוכוב 12, אשדוד",בורוכוב 12,2066-344-8,דירה בבית קומות,2.0,ראשונה,39.0,1345000,,,1960.0,,1.0,10285062732,1,2066344,False,177% ב 10 שנים,אשדוד,בורוכוב,17.7,2066-344-8,2066/344,34487.179487179485,31.8020022041,34.6513632811,2022
2022-11-27,2022-11-27,"נחל דן 2, אשדוד",נחל דן 2,2197-18-3,קרקע למגורים,,,413.0,9240000,,,1975.0,,,10285500792,1,219718,False,,אשדוד,נחל דן,,2197-18-3,2197/18,22372.881355932204,31.7877662728,34.6299063403,2022
2022-11-26,2022-11-26,,,2088-148-69,,5.0,עשרים ושמונה,172.0,3680000,1.0,מגדלי הדקל - אשדוד ים,,,,11181203813,2,2088148,False,,אשדוד,הדקל,,2088-148-69,2088/148,21395.3488372093,31.8055938194,34.6414786432,2022
2022-11-26,2022-11-26,,,2088-148-68,,3.0,שלוש עשרה,84.0,2220000,1.0,מגדלי הדקל - אשדוד ים,,,,11181203812,2,2088148,False,,אשדוד,הדקל,,2088-148-68,2088/148,26428.571428571428,31.8055938194,34.6414786432,2022
2022-11-25,2022-11-25,"הדקל 5, אשדוד",הדקל 5,2088-149-85,דירה בבית קומות,4.0,עשרים,122.0,2973000,,,2024.0,,12.0,10285514568,1,2088149,False,,אשדוד,הדקל,,2088-149-85,2088/149,24368.852459016394,31.8053459414,34.6420896573,2022
2022-11-25,2022-11-25,,,2088-148-97,דירה בבית קומות,5.0,עשרים ושבע,172.0,3383000,,,2020.0,,,10285506252,2,2088148,False,,אשדוד,הדקל,,2088-148-97,2088/148,19668.60465116279,31.8055938194,34.6414786432,2022
2022-11-25,2022-11-25,"נחל לכיש 27, אשדוד",נחל לכיש 27,2196-11-21,דירה בבית קומות,4.0,שביעית,102.49,2120000,,,1997.0,,9.0,10278944256,1,219611,False,105% ב 10.1 שנים,אשדוד,נחל לכיש,10.4,2196-11-21,2196/11,20684.944872670505,31.7874518976,34.6338457443,2022
2022-11-24,2022-11-24,"הר כנען 14, אשדוד",הר כנען 14,2193-6-14,דירה בבית קומות,3.0,שלישית,66.24,1900000,,,1980.0,,4.0,10283324688,1,21936,False,46% ב 5.9 שנים,אשדוד,הר כנען,7.8,2193-6-14,2193/6,28683.574879227057,31.7785221152,34.6302518791,2022
2022-11-24,2022-11-24,"מקווה ישראל 23, אשדוד",מקווה ישראל 23,2387-22-1,קוטג' דו משפחתי,5.0,שניה,164.0,4000000,,,1992.0,,2.0,10285877868,1,238722,False,,אשדוד,מקוה ישראל,,2387-22-1,2387/22,24390.243902439022,31.7801208165,34.6617752549,2022
2022-11-24,2022-11-24,"החובלים 7, אשדוד",החובלים 7,2189-17-30,דירה בבית קומות,3.0,שמינית,70.85,1700000,,,1990.0,,9.0,10283197764,1,218917,False,,אשדוד,החובלים,,2189-17-30,2189/17,23994.35426958363,31.8010588898,34.6423433405,2022
2022-11-24,2022-11-24,,,2088-148-67,,5.0,עשרים ושבע,172.0,3383800,1.0,מגדלי הדקל - אשדוד ים,,,,11181203811,2,2088148,False,,אשדוד,הדקל,,2088-148-67,2088/148,19673.25581395349,31.8055938194,34.6414786432,2022
2022-11-24,2022-11-24,"חנה סנש 14, אשדוד",חנה סנש 14,2462-35-58,דירה בבית קומות,4.0,ראשונה,123.0,2150000,,,2012.0,,6.0,10283683788,1,246235,False,,אשדוד,סנש חנה,,2462-35-58,2462/35,17479.674796747968,31.7992832109,34.6609341572,2022
2022-11-24,2022-11-24,"האצ""ל 1, אשדוד","האצ""ל 1",2061-78-45,דירה בבית קומות,4.0,שלישית,83.8,2000000,,,2020.0,,5.0,10284278340,1,206178,False,66% ב 1.7 שנים,אשדוד,"האצ""ל",38.82,2061-78-45,2061/78,23866.348448687357,31.8118773095,34.6451413457,2022
2022-11-24,2022-11-24,"אייר 6, אשדוד",אייר 6,2439-15-24,דירה בבית קומות,4.0,שלישית,97.54,2400000,,,2000.0,,3.0,10284730008,1,243915,False,43% ב 4.5 שנים,אשדוד,אייר,9.56,2439-15-24,2439/15,24605.290137379536,31.7838397545,34.6378141992,2022
2022-11-24,2022-11-24,"יורדי הסירה 4, אשדוד",יורדי הסירה 4,2066-179-22,דירה בבית קומות,4.0,חמישית,96.0,1804000,,,1960.0,2022.0,5.0,10283507640,1,2066179,False,,אשדוד,יורדי הסירה,,2066-179-22,2066/179,18791.666666666668,31.8024028007,34.648983825,2022
2022-11-24,2022-11-24,"הדקל 5, אשדוד",הדקל 5,2088-149-12,,4.0,עשרים,122.0,2973700,1.0,,,,12.0,11181203819,1,2088149,False,,אשדוד,הדקל,,2088-149-12,2088/149,24374.590163934427,31.8053459414,34.6420896573,2022
2022-11-23,2022-11-23,"האורגים 11, אשדוד",האורגים 11,2453-147-124,משרד,,רביעית,,70000,,,2000.0,,5.0,10332147840,1,2453147,False,,אשדוד,האורגים,,2453-147-124,2453/147,,31.810429246,34.660192654,2022
2022-11-23,2022-11-23,"הרותם 3, אשדוד",הרותם 3,2188-19-28,דירה בבית קומות,3.0,שלישית,60.8,1150000,,,1970.0,,4.0,10332635796,1,218819,False,89% ב 1.4 שנים,אשדוד,הרותם,63.57,2188-19-28,2188/19,18914.473684210527,31.7878400467,34.6565202581,2022
2022-11-23,2022-11-23,"הרב קוק 3, אשדוד",הרב קוק 3,2066-235-34,דירה בבית קומות,4.0,שביעית,115.0,1950000,1.0,הרב קוק,2019.0,,3.0,10284238104,1,2066235,False,,אשדוד,הרב קוק,,2066-235-34,2066/235,16956.521739130436,31.8098836871,34.6526157322,2022
2022-11-23,2022-11-23,"אלבז 2, אשדוד",אלבז 2,2455-23-21,דירה בבית קומות,2.0,שניה,45.5,1330000,,,1970.0,,5.0,10332533232,1,245523,False,189% ב 12 שנים,אשדוד,אלבז נתן,15.75,2455-23-21,2455/23,29230.76923076923,31.7975756738,34.6548089482,2022
2022-11-23,2022-11-23,"הסייפן 8, אשדוד",הסייפן 8,2074-159-45,דירה בבית קומות,4.0,שלישית,94.93,1088000,,,1996.0,,8.0,10283225484,1,2074159,False,,אשדוד,הסייפן,,2074-159-45,2074/159,11461.07658274518,31.7852943768,34.651641097,2022
2022-11-23,2022-11-23,"אדר 6, אשדוד",אדר 6,2440-6-36,דירה בבית קומות,3.5,ראשונה,87.55,2010000,,,2000.0,,9.0,10283157696,1,24406,False,60% ב 8.5 שנים,אשדוד,אדר,7.06,2440-6-36,2440/6,22958.3095374072,31.7803012383,34.639037461,2022
2022-11-23,2022-11-23,"אקסודוס 13, אשדוד",אקסודוס 13,2791-28-33,דירה בבית קומות,4.0,ראשונה,110.13,2400000,,,2003.0,,8.0,10285154880,1,279128,False,,אשדוד,אקסודוס,,2791-28-33,2791/28,21792.42713157178,31.7964162795,34.6319767656,2022
2022-11-22,2022-11-22,"כפתור החולות 7, אשדוד",כפתור החולות 7,2074-147-13,דירה בבית קומות,3.0,שניה,82.2,1560000,,,1997.0,,5.0,10284515388,1,2074147,False,83% ב 11.7 שנים,אשדוד,כפתור החולות,7.09,2074-147-13,2074/147,18978.10218978102,31.7850892926,34.6537284357,2022
2022-11-22,2022-11-22,"הראשונים 15, אשדוד",הראשונים 15,2086-36-18,דירה בבית קומות,5.0,ראשונה,83.0,2300000,,,1970.0,,4.0,10283683116,1,208636,False,34% ב 0.8 שנים,אשדוד,הראשונים,42.5,2086-36-18,2086/36,27710.84337349397,31.8085610793,34.6473048042,2022
2022-11-22,2022-11-22,"עופר אברהם 3, אשדוד",עופר אברהם 3,2189-10-28,דירה בבית קומות,4.0,שלישית,85.9,1800000,,,1994.0,,4.0,10284411396,1,218910,False,102% ב 12.4 שנים,אשדוד,עופר אברהם,8.23,2189-10-28,2189/10,20954.598370197906,31.8016538852,34.6464506109,2022
2022-11-22,2022-11-22,"הכרכום 6, אשדוד",הכרכום 6,2188-12-19,דירת גן,2.0,ראשונה,62.0,1240000,,,2020.0,,4.0,10283037072,1,218812,False,,אשדוד,הכרכום,,2188-12-19,2188/12,20000.0,31.7886009853,34.65707013,2022
2022-11-22,2022-11-22,"חטיבת כרמלי 1, אשדוד",חטיבת כרמלי 1,2464-70-36,דירה בבית קומות,3.0,שישית,63.0,1400000,,,1970.0,,8.0,10283014980,1,246470,False,95% ב 9.1 שנים,אשדוד,חטיבת כרמלי,10.44,2464-70-36,2464/70,22222.222222222223,31.8045841281,34.660865471,2022
2022-11-22,2022-11-22,"אורייה החיתי 29, אשדוד",אורייה החיתי 29,2395-17-23,דירה בבית קומות,4.0,ראשונה,82.2,1800000,,,1992.0,,5.0,10284578976,1,239517,False,,אשדוד,אוריה החיתי,,2395-17-23,2395/17,21897.810218978106,31.7808917222,34.6434051827,2022
2022-11-22,2022-11-22,"הציונות 41, אשדוד",הציונות 41,2449-10-20,דירה בבית קומות,3.0,שלישית,86.0,1800000,,,1997.0,,12.0,10284584520,1,244910,False,,אשדוד,הציונות,,2449-10-20,2449/10,20930.23255813953,31.7866043194,34.6448503221,2022
2022-11-22,2022-11-22,"רבי יהודה הנשיא 10, אשדוד",רבי יהודה הנשיא 10,472-144-27,מחסנים,,שש עשרה,,320000,,,2005.0,,6.0,10332179004,1,472144,False,,אשדוד,רבי יהודה הנשיא,,472-144-27,472/144,,31.790672991,34.6655904162,2022
2022-11-22,2022-11-22,"אדמו""ר מפיטסבורג 43, אשדוד","אדמו""ר מפיטסבורג 43",2462-5-2,דירת גן,3.0,ראשונה,61.0,2015000,,,1970.0,2022.0,4.0,10285136904,1,24625,False,21% ב 2.3 שנים,אשדוד,"אדמו""ר מפיטסבורג",9.13,2462-5-2,2462/5,33032.7868852459,31.7977638776,34.6591254561,2022
2022-11-22,2022-11-22,"אקסודוס 12, אשדוד",אקסודוס 12,2791-14-7,דירה בבית קומות,3.0,ראשונה,81.6,2350000,,,2001.0,,18.0,10284633744,1,279114,False,11% ב 1 שנים,אשדוד,אקסודוס,11.0,2791-14-7,2791/14,28799.01960784314,31.794202852,34.634053613,2022
2022-11-22,2022-11-22,"אברהם שפירא 33, אשדוד",אברהם שפירא 33,2456-68-70,דירה בבית קומות,3.0,שלישית,58.5,1870000,,,1970.0,,4.0,10283162484,1,245668,False,222% ב 13.3 שנים,אשדוד,שפירא אברהם,16.69,2456-68-70,2456/68,31965.811965811965,31.7913043198,34.6589028627,2022
2022-11-22,2022-11-22,"שבט דן 6, אשדוד",שבט דן 6,2438-11-51,דירה בבית קומות,4.0,חמישית,104.0,2100000,,,2000.0,,10.0,10283028756,1,243811,False,,אשדוד,שבט דן,,2438-11-51,2438/11,20192.30769230769,31.7785768482,34.6334138171,2022
2022-11-22,2022-11-22,"שבזי 3, אשדוד",שבזי 3,2068-92-31,דירה בבית קומות,3.0,רביעית,64.24,1530000,,,1970.0,,4.0,10283053032,1,206892,False,36% ב 4.4 שנים,אשדוד,שבזי,8.18,2068-92-31,2068/92,23816.936488169365,31.7989499633,34.6480655334,2022
2022-11-22,2022-11-22,"מכישווילי 30, אשדוד",מכישווילי 30,2459-19-9,דירה בבית קומות,3.0,שלישית,57.9,1765000,,,1970.0,,4.0,10285107084,1,245919,False,0% ב 0.7 שנים,אשדוד,מיכשוילי,0.0,2459-19-9,2459/19,30483.592400690846,31.7897049778,34.6569727174,2022
2022-11-22,2022-11-22,"הרב הרצוג 19, אשדוד",הרב הרצוג 19,2066-362-11,דירה בבית קומות,2.0,שניה,42.0,1230000,,,1960.0,,3.0,10283080836,1,2066362,False,64% ב 1.7 שנים,אשדוד,הרב הרצוג,37.65,2066-362-11,2066/362,29285.714285714286,31.8031843927,34.6542697908,2022
2022-11-22,2022-11-22,"ההגנה 1, אשדוד",ההגנה 1,2080-1-11,דירה בבית קומות,2.0,שניה,33.0,1300000,,,1960.0,,2.0,10283362236,1,20801,False,,אשדוד,ההגנה,,2080-1-11,2080/1,39393.93939393939,31.806381062,34.6481969388,2022
2022-11-22,2022-11-22,"תש""ח 7, אשדוד","תש""ח 7",2448-9-139,חנות,,קרקע,69.5,1025000,,,2000.0,,14.0,10282954584,1,24489,False,,אשדוד,"תש""ח",,2448-9-139,2448/9,14748.20143884892,31.7877164622,34.6454638673,2022
2022-11-21,2022-11-21,"אליעזר בן-הורקנוס 5, אשדוד",אליעזר בן-הורקנוס 5,472-161-15,דירה בבית קומות,4.0,ראשונה,120.0,2630000,,,2000.0,,5.0,10284029532,1,472161,False,,אשדוד,אליעזר בן הורקנוס,,472-161-15,472/161,21916.666666666668,31.7916014013,34.6600272731,2022
2022-11-21,2022-11-21,"הדולפין 6, אשדוד",הדולפין 6,2076-78-7,דירה בבית קומות,5.0,קומה ‎0‏,173.0,3270000,,,2022.0,,3.0,10283319816,1,207678,False,95% ב 2.5 שנים,אשדוד,הדולפין,38.0,2076-78-7,2076/78,18901.73410404624,31.8035007485,34.6395143955,2022
2022-11-21,2022-11-21,"רחובות 4, אשדוד",רחובות 4,2385-161-4,דירה בבית קומות,5.0,ראשונה,133.0,1900000,,,1991.0,,3.0,10282971216,1,2385161,False,,אשדוד,רחובות,,2385-161-4,2385/161,14285.714285714286,31.7844232238,34.6642668867,2022
2022-11-21,2022-11-21,"קיבוץ גלויות 1, אשדוד",קיבוץ גלויות 1,2066-88-104,חנות,,קרקע,34.13,400000,,,1960.0,,3.0,10283581140,1,206688,False,,אשדוד,קבוץ גלויות,,2066-88-104,2066/88,11719.89452094931,31.8058646465,34.6527026168,2022
2022-11-21,2022-11-21,"אגדיר 5, אשדוד",אגדיר 5,2066-321-8,דירה בבית קומות,2.5,קרקע,42.0,1180000,,,1960.0,,2.0,10282867896,1,2066321,False,47% ב 5.7 שנים,אשדוד,אגדיר,8.25,2066-321-8,2066/321,28095.23809523809,31.8035645963,34.6508490479,2022
2022-11-21,2022-11-21,"אבות ישורון 7, אשדוד",אבות ישורון 7,2071-191-81,דירה בבית קומות,3.0,שישית,68.43,1650000,,,1992.0,,8.0,10282981716,1,2071191,False,217% ב 17.1 שנים,אשדוד,אבות ישורון,12.69,2071-191-81,2071/191,24112.23147742218,31.7951731498,34.6499797722,2022
2022-11-21,2022-11-21,"אלבז 28, אשדוד",אלבז 28,2457-11-23,דירה בבית קומות,2.0,שניה,46.8,1590000,,,1970.0,,4.0,10282813884,1,245711,False,63% ב 4.5 שנים,אשדוד,אלבז נתן,14.0,2457-11-23,2457/11,33974.35897435898,31.7940786585,34.6524993722,2022
2022-11-21,2022-11-21,"יוספטל 10, אשדוד",יוספטל 10,2066-117-73,דירה בבית קומות,4.0,שלישית,80.5,1460000,,,1970.0,,4.0,10283948472,1,2066117,False,,אשדוד,יוספטל,,2066-117-73,2066/117,18136.64596273292,31.8083049645,34.6539996002,2022
2022-11-21,2022-11-21,"שבי ציון 39, אשדוד",שבי ציון 39,2066-115-49,דירה בבית קומות,4.0,שניה,66.74,1500000,,,1970.0,,6.0,10283545020,1,2066115,False,,אשדוד,שבי ציון,,2066-115-49,2066/115,22475.277195085408,31.806810659,34.6517874125,2022
2022-11-21,2022-11-21,"נחל שניר 19, אשדוד",נחל שניר 19,2193-26-22,דירה בבית קומות,4.0,חמישית,89.9,2430000,,,1995.0,,9.0,10282770372,1,219326,False,69% ב 7.5 שנים,אשדוד,נחל שניר,9.2,2193-26-22,2193/26,27030.03337041157,31.780252853,34.6333332386,2022
2022-11-21,2022-11-21,"הרא""ש 22, אשדוד","הרא""ש 22",2384-67-1,קוטג' דו משפחתי,5.0,ראשונה,264.0,4555000,,,1994.0,,1.0,10284084216,1,238467,False,,אשדוד,"הרא""ש",,2384-67-1,2384/67,17253.78787878788,31.7864070255,34.663130203,2022
2022-11-21,2022-11-21,"יהודה המכבי 1, אשדוד",יהודה המכבי 1,2455-15-22,דירה בבית קומות,5.0,,156.0,1900000,,,1970.0,,5.0,10285113468,1,245515,False,,אשדוד,יהודה המכבי,,2455-15-22,2455/15,12179.48717948718,31.7977696228,34.655316577,2022
2022-11-20,2022-11-20,"הכלנית 9, אשדוד",הכלנית 9,2074-186-208,דירה בבית קומות,4.0,תשיעית,99.0,2040000,,,2001.0,,15.0,10282983648,1,2074186,False,48% ב 7.4 שנים,אשדוד,הכלנית,6.49,2074-186-208,2074/186,20606.060606060608,31.7845459565,34.6530109031,2022
2022-11-20,2022-11-20,"שבי ציון 23, אשדוד",שבי ציון 23,2086-48-32,דירה בבית קומות,3.0,שניה,74.6,1720000,,,2022.0,,5.0,10284974700,1,208648,False,,אשדוד,שבי ציון,,2086-48-32,2086/48,23056.30026809652,31.8078514135,34.6492231643,2022
2022-11-20,2022-11-20,"נחל שניר 21, אשדוד",נחל שניר 21,2193-52-33,דירה בבית קומות,5.0,תשיעית,122.75,3900000,,,2002.0,,,10283199948,1,219352,False,299% ב 20.6 שנים,אשדוד,נחל שניר,14.51,2193-52-33,2193/52,31771.894093686355,31.7803558576,34.6325826361,2022
2022-11-18,2022-11-18,,,2088-148-98,דירה בבית קומות,5.0,שלוש עשרה,182.0,3720000,,,2020.0,,,10284824340,2,2088148,False,,אשדוד,הדקל,,2088-148-98,2088/148,20439.56043956044,31.8055938194,34.6414786432,2022
2022-11-17,2022-11-17,"מכישווילי 38, אשדוד",מכישווילי 38,2459-20-70,דירה בבית קומות,4.0,שניה,72.0,2040000,,,1970.0,,4.0,10283350476,1,245920,False,200% ב 12 שנים,אשדוד,מיכשוילי,16.67,2459-20-70,2459/20,28333.33333333333,31.7893921209,34.6578842761,2022
2022-11-17,2022-11-17,,,2088-148-66,,5.0,שלוש עשרה,182.0,3720000,1.0,מגדלי הדקל - אשדוד ים,,,,11181203810,2,2088148,False,,אשדוד,הדקל,,2088-148-66,2088/148,20439.56043956044,31.8055938194,34.6414786432,2022
2022-11-17,2022-11-17,"שמואל הנגיד 2, אשדוד",שמואל הנגיד 2,2068-62-18,דירה בבית קומות,3.0,ראשונה,70.84,1570000,,,1970.0,,4.0,10282332396,1,206862,False,207% ב 14.2 שנים,אשדוד,שמואל הנגיד,14.58,2068-62-18,2068/62,22162.619988706945,31.8003988707,34.6501054112,2022
2022-11-17,2022-11-17,"נחל לכיש 25, אשדוד",נחל לכיש 25,2196-67-127,דירה בבית קומות,4.0,ראשונה,108.02,2610000,,,2006.0,,12.0,10283129892,1,219667,False,,אשדוד,נחל לכיש,,2196-67-127,2196/67,24162.192186632103,31.7880389553,34.6330118482,2022
2022-11-17,2022-11-17,"הרב הרצוג 3, אשדוד",הרב הרצוג 3,2066-335-25,דירה בבית קומות,2.0,קרקע,39.0,1000000,,,1960.0,,3.0,10282639920,1,2066335,False,19% ב 3.6 שנים,אשדוד,הרב הרצוג,5.28,2066-335-25,2066/335,25641.02564102564,31.8035628907,34.6520782476,2022
2022-11-17,2022-11-17,"בלפור 3, אשדוד",בלפור 3,2071-119-68,דירה בבית קומות,4.0,שביעית,101.0,1970000,,,1993.0,,9.0,10282478556,1,2071119,False,,אשדוד,בלפור,,2071-119-68,2071/119,19504.950495049507,31.7972974745,34.6503689799,2022
2022-11-17,2022-11-17,"אקסודוס 7, אשדוד",אקסודוס 7,2791-34-39,דירה בבית קומות,5.0,רביעית,150.4,3250000,,,2004.0,,9.0,10282864368,1,279134,False,,אשדוד,אקסודוס,,2791-34-39,2791/34,21609.042553191488,31.7946630078,34.6326545143,2022
2022-11-17,2022-11-17,"ז'בוטינסקי 16, אשדוד",ז'בוטינסקי 16,2077-95-18,דירה בבית קומות,3.0,קומה ‎0‏,66.0,1430000,,,1970.0,2023.0,5.0,10284989988,1,207795,False,,אשדוד,ז'בוטינסקי,,2077-95-18,2077/95,21666.666666666668,31.8115416047,34.6471761887,2022
2022-11-17,2022-11-17,"האורגים 11, אשדוד",האורגים 11,2453-147-125,משרד,,רביעית,25.0,210000,,,2000.0,,5.0,10284698256,1,2453147,False,,אשדוד,האורגים,,2453-147-125,2453/147,8400.0,31.810429246,34.660192654,2022
2022-11-17,2022-11-17,"הבעל שם טוב 4, אשדוד",הבעל שם טוב 4,2462-23-7,דירה בבית קומות,3.0,רביעית,60.2,1900000,,,1970.0,,4.0,10282905360,1,246223,False,75% ב 4.2 שנים,אשדוד,הבעל שם טוב,17.86,2462-23-7,2462/23,31561.46179401993,31.7974613871,34.6613050477,2022
2022-11-17,2022-11-17,"רוגוזין 7, אשדוד",רוגוזין 7,2077-107-18,דירה בבית קומות,1.0,רביעית,33.06,1140000,,,1970.0,,7.0,10283091084,1,2077107,False,34% ב 3.8 שנים,אשדוד,רוגוזין,8.95,2077-107-18,2077/107,34482.75862068965,31.8069149904,34.6445718693,2022
2022-11-16,2022-11-16,"הנביאים 20, אשדוד",הנביאים 20,2399-2-17,דירה בבית קומות,2.0,שניה,54.0,1400000,,,1993.0,,3.0,10283300412,1,23992,False,,אשדוד,הנביאים,,2399-2-17,2399/2,25925.925925925927,31.7805793858,34.6491473409,2022
2022-11-16,2022-11-16,"הרב יוסף משאש 14, אשדוד",הרב יוסף משאש 14,2384-93-4,דירה בבית קומות,6.0,ראשונה,98.79,1830000,,,1995.0,,3.0,10282150704,1,238493,False,,אשדוד,הרב משאש יוסף,,2384-93-4,2384/93,18524.14211964773,31.7852417101,34.6588009782,2022
2022-11-16,2022-11-16,"הראשונים 15, אשדוד",הראשונים 15,2086-36-24,דירה בבית קומות,4.0,שניה,83.0,2000000,,,1970.0,2022.0,4.0,10283312844,1,208636,False,,אשדוד,הראשונים,,2086-36-24,2086/36,24096.385542168675,31.8085610793,34.6473048042,2022
2022-11-16,2022-11-16,"נחל לכיש 27, אשדוד",נחל לכיש 27,2196-11-33,דירה בבית קומות,4.0,שניה,102.49,2000000,,,1997.0,,9.0,10283597772,1,219611,False,,אשדוד,נחל לכיש,,2196-11-33,2196/11,19514.09893648161,31.7874518976,34.6338457443,2022
2022-11-16,2022-11-16,"מנחם אוסישקין 22, אשדוד",מנחם אוסישקין 22,2647-68-130,דירה בבית קומות,3.5,תשיעית,87.4,2100000,,,2000.0,,16.0,10282452768,1,264768,False,80% ב 11.3 שנים,אשדוד,אוסישקין מנחם,7.08,2647-68-130,2647/68,24027.459954233407,31.7718569656,34.6358047014,2022
2022-11-16,2022-11-16,"האורגים 16, אשדוד",האורגים 16,2062-45-3,חנות,,קרקע,62.82,1026000,,,1987.0,,4.0,10283165340,1,206245,True,-17% ב 22.3 שנים,אשדוד,האורגים,-0.76,2062-45-3,2062/45,16332.378223495702,31.812605179,34.6579158766,2022
2022-11-16,2022-11-16,"רב ינאי 50, אשדוד",רב ינאי 50,2023-21-10,דירה בבית קומות,3.0,ראשונה,70.0,1815000,,,1998.0,,4.0,10283168784,1,202321,False,,אשדוד,רב ינאי,,2023-21-10,2023/21,25928.571428571428,31.7867031388,34.6671128548,2022
2022-11-15,2022-11-15,,,2088-148-99,דירה בבית קומות,5.0,אחת עשרה,182.0,3673000,,,2020.0,,,10283915040,2,2088148,False,,אשדוד,הדקל,,2088-148-99,2088/148,20181.31868131868,31.8055938194,34.6414786432,2022
2022-11-15,2022-11-15,"שבי ציון 27, אשדוד",שבי ציון 27,2086-48-37,דירה בבית קומות,4.0,חמישית,95.0,1470000,,,1960.0,2022.0,3.0,10282748196,1,208648,False,212% ב 16 שנים,אשדוד,שבי ציון,13.25,2086-48-37,2086/48,15473.684210526317,31.8078514135,34.6492231643,2022
2022-11-15,2022-11-15,"ז'בוטינסקי 22, אשדוד",ז'בוטינסקי 22,2086-68-15,דירה בבית קומות,3.0,רביעית,54.3,621000,,,1960.0,,4.0,10283963676,1,208668,False,,אשדוד,ז'בוטינסקי,,2086-68-15,2086/68,11436.46408839779,31.8112974989,34.6480578087,2022
2022-11-15,2022-11-15,"עוזיהו 25, אשדוד",עוזיהו 25,2460-9-7,דירה בבית קומות,2.0,רביעית,42.5,622000,,,1970.0,,4.0,10284804264,1,24609,False,,אשדוד,עוזיהו,,2460-9-7,2460/9,14635.29411764706,31.8013908467,34.6606398313,2022
2022-11-15,2022-11-15,"הדמומית 6, אשדוד",הדמומית 6,2074-103-7,דירה בבית קומות,2.0,שניה,43.0,357000,,,1970.0,,4.0,10284804852,1,2074103,False,,אשדוד,הדמומית,,2074-103-7,2074/103,8302.32558139535,31.7861708076,34.6528992903,2022
2022-11-15,2022-11-15,"המעפילים 6, אשדוד",המעפילים 6,2066-231-26,דירה בבית קומות,3.0,שלישית,63.43,1534000,,,1960.0,,4.0,10282145916,1,2066231,False,66% ב 5.9 שנים,אשדוד,המעפילים,11.19,2066-231-26,2066/231,24184.13999684692,31.8096327041,34.6518030906,2022
2022-11-15,2022-11-15,"התנאים 4, אשדוד",התנאים 4,472-46-33,דירה בבית קומות,4.0,רביעית וחמישית,123.2,2800000,,,1992.0,,4.0,10282160364,1,47246,False,,אשדוד,התנאים,,472-46-33,472/46,22727.272727272728,31.792010704,34.6623647102,2022
2022-11-15,2022-11-15,"מילמן 2, אשדוד",מילמן 2,2458-31-31,דירה בבית קומות,4.0,שישית,91.0,941000,1.0,בית מרדכי - מילמן 2 אשדוד,1970.0,2017.0,4.0,10284807708,1,245831,False,,אשדוד,מילמן,,2458-31-31,2458/31,10340.65934065934,31.7919153206,34.6544272248,2022
2022-11-15,2022-11-15,"הרב קוק 33, אשדוד",הרב קוק 33,2066-214-28,דירה בבית קומות,3.0,שלישית,61.1,1590000,,,2025.0,,4.0,10282813296,1,2066214,False,,אשדוד,הרב קוק,,2066-214-28,2066/214,26022.91325695581,31.8087039703,34.6554339132,2022
2022-11-15,2022-11-15,"משה חיים שפירא 2, אשדוד",משה חיים שפירא 2,2190-10-24,דירה בבית קומות,3.0,רביעית,61.0,1800000,,,1970.0,,4.0,10282744752,1,219010,False,,אשדוד,שפירא משה חיים,,2190-10-24,2190/10,29508.19672131148,31.7990069674,34.644384376,2022
2022-11-14,2022-11-14,"דב גור 49, אשדוד",דב גור 49,2456-69-18,דירה בבית קומות,2.0,ראשונה,37.5,1790000,,,1970.0,2022.0,4.0,10282807752,1,245669,False,,אשדוד,גור דב,,2456-69-18,2456/69,47733.333333333336,31.7912592414,34.6582011488,2022
2022-11-14,2022-11-14,"הפלמ""ח 16, אשדוד","הפלמ""ח 16",2460-12-93,דירה בבית קומות,3.0,שניה,52.2,1400000,,,1970.0,,3.0,10282301736,1,246012,False,,אשדוד,"הפלמ""ח",,2460-12-93,2460/12,26819.923371647503,31.80171817,34.6620337423,2022
2022-11-14,2022-11-14,"הפלמ""ח 31, אשדוד","הפלמ""ח 31",2463-35-20,דירה בבית קומות,5.0,רביעית,110.6,2520000,,,2001.0,,4.0,10282727280,1,246335,False,251% ב 20.9 שנים,אשדוד,"הפלמ""ח",12.01,2463-35-20,2463/35,22784.81012658228,31.7983972014,34.6634368876,2022
2022-11-14,2022-11-14,"חפץ חיים 2, אשדוד",חפץ חיים 2,2461-8-48,דירה בבית קומות,2.0,שלישית,39.8,1470000,,,1970.0,,3.0,10282166076,1,24618,False,47% ב 2.9 שנים,אשדוד,חפץ חיים,16.21,2461-8-48,2461/8,36934.67336683418,31.7980566979,34.6569427279,2022
2022-11-14,2022-11-14,"רבא 13, אשדוד",רבא 13,2023-75-32,דירה בבית קומות,3.0,שניה,78.0,1800000,,,2000.0,,3.0,10283904792,1,202375,False,,אשדוד,רבא,,2023-75-32,2023/75,23076.92307692308,31.7901892747,34.6676569535,2022
2022-11-14,2022-11-14,,,2088-148-65,,5.0,אחת עשרה,182.0,3600000,1.0,מגדלי הדקל - אשדוד ים,,,,11181203809,2,2088148,False,,אשדוד,הדקל,,2088-148-65,2088/148,19780.21978021978,31.8055938194,34.6414786432,2022
2022-11-13,2022-11-13,"חטיבת הנגב 33, אשדוד",חטיבת הנגב 33,2463-8-7,דירה בבית קומות,3.0,שניה,69.5,1860000,,,1970.0,,4.0,10281950364,1,24638,False,,אשדוד,חטיבת הנגב,,2463-8-7,2463/8,26762.589928057558,31.800453602,34.6648328491,2022
2022-11-13,2022-11-13,"המעפילים 5, אשדוד",המעפילים 5,2066-116-25,דירה בבית קומות,4.0,שלישית,80.5,1000000,,,1960.0,,4.0,10281822936,1,2066116,False,119% ב 14.8 שנים,אשדוד,המעפילים,8.04,2066-116-25,2066/116,12422.360248447205,31.808708704,34.6522262212,2022
2022-11-13,2022-11-13,"אח""י אילת 5, אשדוד","אח""י אילת 5",2080-103-11,דירה בבית קומות,3.0,שלישית,54.3,1300000,,,1960.0,,4.0,10281866532,1,2080103,False,,אשדוד,"אח""י אילת",,2080-103-11,2080/103,23941.06813996317,31.8066727579,34.6489607184,2022
2022-11-12,2022-12-11,"דב גור 43, אשדוד",דב גור 43,2456-70-7,דירה בבית קומות,3.0,שניה,49.5,1850000,,,1970.0,,5.0,10285084992,1,245670,False,,אשדוד,גור דב,,2456-70-7,2456/70,37373.73737373737,31.791373913,34.6577784616,2022
2022-11-12,2022-12-11,"גיא אוני 2, אשדוד",גיא אוני 2,2384-101-66,דירה בבית קומות,3.0,תשיעית,97.0,1650000,,,1995.0,,11.0,10284762012,1,2384101,False,,אשדוד,גיא אוני,,2384-101-66,2384/101,17010.309278350516,31.7854064529,34.6602000407,2022
2022-11-12,2022-12-11,"חפץ חיים 2, אשדוד",חפץ חיים 2,2461-8-71,דירה בבית קומות,2.0,ראשונה,44.6,1440000,,,1970.0,,3.0,10284418200,1,24618,False,59% ב 6.5 שנים,אשדוד,חפץ חיים,9.08,2461-8-71,2461/8,32286.995515695067,31.7980566979,34.6569427279,2022
2022-11-12,2022-12-11,"חפץ חיים 2, אשדוד",חפץ חיים 2,2461-8-89,דירה בבית קומות,2.0,שניה,39.8,658000,,,1970.0,,3.0,10332781200,1,24618,False,,אשדוד,חפץ חיים,,2461-8-89,2461/8,16532.663316582915,31.7980566979,34.6569427279,2022
2022-11-12,2022-12-11,"ה' באייר 21, אשדוד",ה' באייר 21,2450-24-80,דירה בבית קומות,5.0,שלישית,127.5,2900000,,,1997.0,,6.0,10285057188,1,245024,False,,אשדוד,ה' באייר,,2450-24-80,2450/24,22745.098039215685,31.7836186264,34.6436270339,2022
2022-11-11,2022-11-11,"הנביא עמוס 1, אשדוד",הנביא עמוס 1,2400-14-4,דירה בבית קומות,4.0,ראשונה,78.7,1750000,,,1992.0,,2.0,10281822348,1,240014,False,37% ב 6.4 שנים,אשדוד,הנביא עמוס,5.78,2400-14-4,2400/14,22236.340533672173,31.7812206623,34.6454299455,2022
2022-11-11,2022-11-11,"אליעזר בן-הורקנוס 7, אשדוד",אליעזר בן-הורקנוס 7,472-151-8,דירה בבית קומות,3.0,שניה,71.75,1554000,,,1990.0,,5.0,10338258840,1,472151,False,55% ב 9.4 שנים,אשדוד,אליעזר בן הורקנוס,5.85,472-151-8,472/151,21658.53658536585,31.7922202002,34.6603844468,2022
2022-11-10,2022-10-11,"העצמאות 50, אשדוד",העצמאות 50,2448-8-94,דירה בבית קומות,4.0,חמישית,114.0,1950000,,,2018.0,,13.0,10280849292,1,24488,False,,אשדוד,העצמאות,,2448-8-94,2448/8,17105.263157894737,31.7896347252,34.6452386087,2022
2022-11-10,2022-10-11,"הטיילת 5, אשדוד",הטיילת 5,2061-139-58,דירה בבית קומות,2.0,רביעית,36.0,1350000,,,1995.0,,15.0,10280021220,1,2061139,False,35% ב 4.4 שנים,אשדוד,הטיילת,7.95,2061-139-58,2061/139,37500.0,31.8134394574,34.6423276926,2022
2022-11-09,2022-09-11,"אחד העם 14, אשדוד",אחד העם 14,2068-56-11,דירה בבית קומות,4.0,שלישית,77.21,1500000,,,1980.0,,7.0,10280206356,1,206856,False,,אשדוד,אחד העם,,2068-56-11,2068/56,19427.535293355784,31.8019054257,34.6483429896,2022
2022-11-09,2022-09-11,"הר כנען 6, אשדוד",הר כנען 6,2193-54-2,דירה בבית קומות,4.0,חמישית,118.0,1850000,,,1970.0,,1.0,10276742532,1,219354,False,,אשדוד,הר כנען,,2193-54-2,2193/54,15677.966101694916,31.7798492902,34.6298706117,2022
2022-11-09,2022-09-11,"הדקל 5, אשדוד",הדקל 5,2088-149-89,דירה בבית קומות,3.0,חמישית,90.0,2350000,,,2024.0,,12.0,10278039996,1,2088149,False,,אשדוד,הדקל,,2088-149-89,2088/149,26111.11111111111,31.8053459414,34.6420896573,2022
2022-11-09,2022-09-11,"הרב קוק 5, אשדוד",הרב קוק 5,2066-236-19,דירה בבית קומות,3.0,רביעית,70.0,1390000,1.0,,1970.0,,4.0,10278100896,1,2066236,False,,אשדוד,הרב קוק,,2066-236-19,2066/236,19857.14285714286,31.8097389624,34.6528356432,2022
2022-11-09,2022-09-11,"שמאי 3, אשדוד",שמאי 3,472-125-1,דירה בבית קומות,5.0,קרקע,130.1,3600000,,,2000.0,,4.0,10276821576,1,472125,False,35% ב 1.5 שנים,אשדוד,שמאי,23.33,472-125-1,472/125,27671.02229054573,31.7917412562,34.6663875368,2022
2022-11-08,2022-08-11,,,2190-12-141,דירה בבית קומות,5.0,שלישית,163.0,2640000,,,2020.0,,,10275660780,2,219012,False,,אשדוד,הרב שאולי,,2190-12-141,2190/12,16196.319018404907,31.7973258603,34.6433261473,2022
2022-11-08,2022-08-11,"הרב קוק 14, אשדוד",הרב קוק 14,2066-268-7,דירה בבית קומות,2.0,שלישית,44.0,1200000,,,1960.0,,3.0,10274748876,1,2066268,False,50% ב 3.1 שנים,אשדוד,הרב קוק,16.13,2066-268-7,2066/268,27272.727272727272,31.8079122156,34.6551719283,2022
2022-11-08,2022-08-11,"הראשונים 42, אשדוד",הראשונים 42,2085-8-6,דירה בבית קומות,2.0,שלישית,40.7,1260000,,,1960.0,,3.0,10274047476,1,20858,False,17% ב 1.1 שנים,אשדוד,הראשונים,15.45,2085-8-6,2085/8,30958.23095823096,31.8050235769,34.644189586,2022
2022-11-08,2022-08-11,"שבט לוי 16, אשדוד",שבט לוי 16,2438-24-19,מחסנים,,קומה ‎0‏,,70000,,,2003.0,,21.0,10275285972,1,243824,False,,אשדוד,שבט לוי,,2438-24-19,2438/24,,31.7782567697,34.6358764452,2022
2022-11-08,2022-08-11,"מבצע חורב 4, אשדוד",מבצע חורב 4,2462-30-5,דירה בבית קומות,3.0,שלישית,60.2,2030000,,,1970.0,,4.0,10276069608,1,246230,False,,אשדוד,מבצע חורב,,2462-30-5,2462/30,33720.93023255814,31.7986237152,34.661685111,2022
2022-11-08,2022-08-11,"כוכב הדרום 4, אשדוד",כוכב הדרום 4,2438-21-19,דירה בבית קומות,5.0,חמישית,168.1,2450000,,,2009.0,,7.0,10276310100,1,243821,False,94% ב 14 שנים,אשדוד,כוכב הדרום,6.71,2438-21-19,2438/21,14574.657941701367,31.7767913077,34.6349508371,2022
2022-11-08,2022-08-11,"רשב""י 11, אשדוד","רשב""י 11",472-189-100,דירה בבית קומות,5.0,רביעית,129.0,2550000,,,2020.0,,5.0,10278143316,1,472189,False,,אשדוד,"רשב""י",,472-189-100,472/189,19767.441860465115,31.7895682226,34.6635334586,2022
2022-11-08,2022-08-11,"הפרחים 21, אשדוד",הפרחים 21,2074-101-26,דירה בבית קומות,2.0,שלישית,43.0,355000,,,1970.0,,4.0,10276351008,1,2074101,False,,אשדוד,הפרחים,,2074-101-26,2074/101,8255.813953488372,31.7865366757,34.6521579748,2022
2022-11-08,2022-08-11,"בן אליעזר אריה 22, אשדוד",בן אליעזר אריה 22,2189-27-28,דירה בבית קומות,4.0,שביעית,78.0,1625000,,,1980.0,,7.0,10275452208,1,218927,False,,אשדוד,בן אליעזר אריה,,2189-27-28,2189/27,20833.33333333333,31.8020165952,34.6452917181,2022
2022-11-08,2022-08-11,"אדמו""ר מפיטסבורג 39, אשדוד","אדמו""ר מפיטסבורג 39",2462-34-63,דירה בבית קומות,3.0,רביעית,59.9,1450000,,,1970.0,,4.0,10274418252,1,246234,False,,אשדוד,"אדמו""ר מפיטסבורג",,2462-34-63,2462/34,24207.01168614357,31.7986640418,34.6602739843,2022
2022-11-07,2022-07-11,"ציזלינג 2, אשדוד",ציזלינג 2,2455-1-26,דירה בבית קומות,3.0,ראשונה,40.8,1250000,,,1970.0,,4.0,10271147964,1,24551,False,76% ב 8.9 שנים,אשדוד,ציזלינג,8.54,2455-1-26,2455/1,30637.254901960787,31.7978216024,34.6543230002,2022
2022-11-07,2022-07-11,"גבעת עדה 2, אשדוד",גבעת עדה 2,2386-132-9,דירה בבית קומות,3.0,שניה,67.0,1600000,,,1993.0,,3.0,10270597680,1,2386132,False,92% ב 9.4 שנים,אשדוד,גבעת עדה,9.79,2386-132-9,2386/132,23880.597014925374,31.7832085947,34.657879642,2022
2022-11-07,2022-07-11,"אטלי 8, אשדוד",אטלי 8,2648-25-1,קוטג' חד משפחתי,5.0,ראשונה,180.0,7600000,,,2000.0,,1.0,10273136244,1,264825,False,,אשדוד,אטלי,,2648-25-1,2648/25,42222.22222222222,31.7696133476,34.63064499,2022
2022-11-07,2022-07-11,"שבט שמעון 9, אשדוד",שבט שמעון 9,2438-6-14,,3.0,תשיעית,75.0,2100000,1.0,,2022.0,,8.0,11181205463,1,24386,False,,אשדוד,שבט שמעון,,2438-6-14,2438/6,28000.0,31.7795519076,34.6347663786,2022
2022-11-07,2022-07-11,"ההסתדרות 14, אשדוד",ההסתדרות 14,2086-112-15,דירה בבית קומות,3.0,רביעית,58.5,1100000,,,1970.0,,5.0,10270540308,1,2086112,False,,אשדוד,ההסתדרות,,2086-112-15,2086/112,18803.418803418805,31.808925504,34.6484446627,2022
2022-11-07,2022-07-11,"הפלמ""ח 25, אשדוד","הפלמ""ח 25",2463-16-24,דירה בבית קומות,4.0,ראשונה,72.3,1700000,,,1970.0,,4.0,10271991408,1,246316,False,,אשדוד,"הפלמ""ח",,2463-16-24,2463/16,23513.13969571231,31.7989830431,34.6633128358,2022
2022-11-07,2022-07-11,"האומן 12, אשדוד",האומן 12,2451-9-38,מחסנים,,שלישית,126.0,1205000,,,2025.0,,3.0,10273396056,1,24519,False,,אשדוד,האומן,,2451-9-38,2451/9,9563.492063492064,31.8229580531,34.6646725858,2022
2022-11-07,2022-07-11,"הרב קוק 21, אשדוד",הרב קוק 21,2066-209-18,משרד,,קומה ‎0‏,,1304000,,,1970.0,2020.0,5.0,10273425120,1,2066209,False,,אשדוד,הרב קוק,,2066-209-18,2066/209,,31.8094229419,34.6538414584,2022
2022-11-07,2022-07-11,"אבן עזרא 8, אשדוד",אבן עזרא 8,2068-96-11,דירה בבית קומות,3.0,שניה,64.24,1550000,,,1970.0,,4.0,10270583988,1,206896,False,,אשדוד,אבן עזרא,,2068-96-11,2068/96,24128.268991282694,31.7986691344,34.6496053666,2022
2022-11-07,2022-07-11,"ירבעם המלך 9, אשדוד",ירבעם המלך 9,2393-15-47,דירה בבית קומות,4.0,רביעית,91.0,2030000,,,1997.0,,9.0,10270537452,1,239315,False,83% ב 10.3 שנים,אשדוד,המלך ירבעם,8.06,2393-15-47,2393/15,22307.69230769231,31.7720335826,34.6460524711,2022
2022-11-07,2022-07-11,"שבט דן 8, אשדוד",שבט דן 8,2438-11-23,דירה בבית קומות,4.0,שישית,100.0,2250000,,,2000.0,,10.0,10273522980,1,243811,False,64% ב 7.5 שנים,אשדוד,שבט דן,8.53,2438-11-23,2438/11,22500.0,31.7785768482,34.6334138171,2022
2022-11-05,2022-05-11,"שבט זבולון 7, אשדוד",שבט זבולון 7,2437-7-104,דירה בבית קומות,4.0,רביעית,97.2,2190000,,,2001.0,,7.0,10265173716,1,24377,False,24% ב 4.2 שנים,אשדוד,שבט זבולון,5.71,2437-7-104,2437/7,22530.864197530864,31.7743380012,34.6367540431,2022
2022-11-05,2022-05-11,"האדמו""ר מבלעז 13, אשדוד","האדמו""ר מבלעז 13",2464-24-77,,4.0,רביעית,80.8,1570000,,,1990.0,,5.0,10264335900,1,246424,False,124% ב 8.6 שנים,אשדוד,"האדמו""ר מבעלז",14.42,2464-24-77,2464/24,19430.69306930693,31.8058400309,34.6625587911,2022
2022-11-05,2022-05-11,"אדמו""ר מפיטסבורג 37, אשדוד","אדמו""ר מפיטסבורג 37",2462-34-47,דירה בבית קומות,2.0,שניה,43.1,1330000,,,1970.0,,4.0,10264141104,1,246234,False,51% ב 4.5 שנים,אשדוד,"אדמו""ר מפיטסבורג",11.33,2462-34-47,2462/34,30858.4686774942,31.7986640418,34.6602739843,2022
2022-11-05,2022-05-11,"סיגל 3, אשדוד",סיגל 3,2071-52-2,דירה בבית קומות,3.0,ראשונה,61.5,1515000,,,1970.0,,4.0,10264282560,1,207152,False,,אשדוד,סיגל,,2071-52-2,2071/52,24634.146341463416,31.7937333965,34.6469566451,2022
2022-11-05,2022-05-11,"הגולשים 7, אשדוד",הגולשים 7,2191-30-1,קוטג' דו משפחתי,6.0,ראשונה,260.0,3400000,,,1983.0,,1.0,10264318596,1,219130,False,,אשדוד,הגולשים,,2191-30-1,2191/30,13076.923076923076,31.7994263983,34.6379969888,2022
2022-11-05,2022-05-11,"כינור 10, אשדוד",כינור 10,3174-1-180,דירה בבית קומות,5.0,שלושים ואחת,238.0,6500000,,,2022.0,,31.0,10264482060,1,31741,False,,אשדוד,כינור,,3174-1-180,3174/1,27310.9243697479,31.7912646711,34.6328776399,2022
2022-11-05,2022-05-11,"דב גור 36, אשדוד",דב גור 36,2459-8-1,דירה בבית קומות,3.0,ראשונה,49.5,1400000,,,1970.0,,4.0,10262618520,1,24598,False,,אשדוד,גור דב,,2459-8-1,2459/8,28282.828282828283,31.7907860267,34.6572844129,2022
2022-11-05,2022-05-11,"אריה בן-אליעזר 16, אשדוד",אריה בן-אליעזר 16,2189-30-26,דירה בבית קומות,3.0,שביעית,67.0,1420000,,,1970.0,,7.0,10263972012,1,218930,False,29% ב 5.6 שנים,אשדוד,בן אליעזר אריה,5.18,2189-30-26,2189/30,21194.02985074627,31.8024090946,34.6445379409,2022
2022-11-05,2022-05-11,"דב גור 20, אשדוד",דב גור 20,2459-4-21,דירה בבית קומות,4.0,שלישית,71.0,415000,,,1970.0,,4.0,10263820980,1,24594,False,,אשדוד,גור דב,,2459-4-21,2459/4,5845.070422535211,31.7915391228,34.6552291952,2022
2022-11-05,2022-05-11,"נתן אלבז 34, אשדוד",נתן אלבז 34,2458-34-93,דירה בבית קומות,3.0,שמינית,67.0,1400000,,,1970.0,,8.0,10264152276,1,245834,False,33% ב 4.9 שנים,אשדוד,אלבז נתן,6.73,2458-34-93,2458/34,20895.5223880597,31.7927369913,34.6513625783,2022
2022-11-05,2022-05-11,"ציזלינג 2, אשדוד",ציזלינג 2,2455-1-28,דירה בבית קומות,3.0,שניה,49.0,1450000,,,1970.0,,4.0,10263983100,1,24551,False,,אשדוד,ציזלינג,,2455-1-28,2455/1,29591.83673469388,31.7978216024,34.6543230002,2022
2022-11-04,2022-04-11,"הנביא צפניה 2, אשדוד",הנביא צפניה 2,2397-28-14,דירה בבית קומות,4.0,ראשונה,73.6,1620000,,,1993.0,,3.0,10261199928,1,239728,False,74% ב 7.5 שנים,אשדוד,הנביא צפניה,9.87,2397-28-14,2397/28,22010.869565217392,31.7842755642,34.6462104211,2022
2022-11-04,2022-04-11,"שבט שמעון 9, אשדוד",שבט שמעון 9,2438-6-61,דירה בבית קומות,2.0,רביעית,55.0,1670000,,,2022.0,,8.0,10261410600,1,24386,False,,אשדוד,שבט שמעון,,2438-6-61,2438/6,30363.636363636364,31.7795519076,34.6347663786,2022
2022-11-04,2022-04-11,"אלכסנדר פן 3, אשדוד",אלכסנדר פן 3,2071-300-255,דירה בבית קומות,3.0,שתים עשרה,75.0,1810000,,,2020.0,,16.0,10262034300,1,2071300,False,,אשדוד,פן אלכסנדר,,2071-300-255,2071/300,24133.33333333333,31.7931214113,34.648559239,2022
2022-11-04,2022-04-11,"חטיבת כרמלי 7, אשדוד",חטיבת כרמלי 7,2464-71-15,דירה בבית קומות,3.0,שלישית,52.0,1200000,,,1970.0,,3.0,10262125104,1,246471,False,23% ב 5.7 שנים,אשדוד,חטיבת כרמלי,4.04,2464-71-15,2464/71,23076.92307692308,31.805146334,34.6612841553,2022
2022-11-04,2022-04-11,"זלמן ארן 1, אשדוד",זלמן ארן 1,2189-14-5,דירה בבית קומות,4.0,שניה,85.1,1320000,,,1980.0,,8.0,10262523684,1,218914,False,25% ב 8.4 שנים,אשדוד,ארן זלמן,2.98,2189-14-5,2189/14,15511.163337250297,31.802728049,34.6463529845,2022
2022-11-04,2022-04-11,"הרב קוק 19, אשדוד",הרב קוק 19,2066-224-8,דירה בבית קומות,3.0,שניה,54.7,1205000,,,1970.0,,8.0,10261107780,1,2066224,False,20% ב 5.8 שנים,אשדוד,הרב קוק,3.45,2066-224-8,2066/224,22029.25045703839,31.8095225413,34.6535103919,2022
2022-11-04,2022-04-11,"נחמן סירקין 14, אשדוד",נחמן סירקין 14,2647-70-38,דירה בבית קומות,4.0,ראשונה,120.0,2665000,,,2000.0,,11.0,10262168196,1,264770,False,,אשדוד,סירקין נחמן,,2647-70-38,2647/70,22208.33333333333,31.7704512315,34.6348431635,2022
2022-11-04,2022-04-11,"רמב""ם 2, אשדוד","רמב""ם 2",2066-329-23,דירה בבית קומות,3.0,שלישית,65.0,1275000,,,1960.0,,3.0,10262284452,1,2066329,False,208% ב 15.3 שנים,אשדוד,"רמב""ם",13.59,2066-329-23,2066/329,19615.384615384617,31.8049921946,34.6523225402,2022
2022-11-04,2022-04-11,"שבט לוי 14, אשדוד",שבט לוי 14,2437-24-40,דירה בבית קומות,4.0,קומה ‎5‏,125.45,2140000,,,2003.0,,20.0,10262031528,1,243724,False,75% ב 11.2 שנים,אשדוד,שבט לוי,6.7,2437-24-40,2437/24,17058.589079314468,31.7778515721,34.6366537366,2022
2022-11-02,2022-02-11,"רוטשילד 30, אשדוד",רוטשילד 30,2648-55-87,דירה בבית קומות,3.0,שביעית,78.89,1830000,,,1998.0,,8.0,10254230448,1,264855,False,58% ב 9.9 שנים,אשדוד,רוטשילד,5.86,2648-55-87,2648/55,23196.856382304475,31.7692182769,34.6330162793,2022
2022-11-01,2022-01-11,"אבן גבירול 19, אשדוד",אבן גבירול 19,2066-285-24,דירה בבית קומות,2.0,שניה,39.0,885000,,,1960.0,,2.0,10252973388,1,2066285,False,,אשדוד,אבן גבירול,,2066-285-24,2066/285,22692.30769230769,31.8058128834,34.6558549846,2022
2022-11-01,2022-01-11,"ההגנה 10, אשדוד",ההגנה 10,2080-54-10,דירה בבית קומות,3.0,שניה,38.4,400000,,,1960.0,,4.0,10249942080,1,208054,False,,אשדוד,ההגנה,,2080-54-10,2080/54,10416.666666666668,31.8063963553,34.6472105326,2022
2022-11-01,2022-01-11,"אלכסנדר פן 3, אשדוד",אלכסנדר פן 3,2071-300-230,,3.0,עשירית,75.0,1750000,1.0,אביבי אשדוד הצעירה,2020.0,,16.0,11181203210,1,2071300,False,,אשדוד,פן אלכסנדר,,2071-300-230,2071/300,23333.33333333333,31.7931214113,34.648559239,2022
2022-11-01,2022-01-11,"גיא אוני 2, אשדוד",גיא אוני 2,2384-101-59,דירה בבית קומות,3.0,שלישית,98.0,1350000,,,1995.0,,11.0,10250080092,1,2384101,False,,אשדוד,גיא אוני,,2384-101-59,2384/101,13775.510204081633,31.7854064529,34.6602000407,2022
2022-11-01,2022-01-11,"מכישווילי 34, אשדוד",מכישווילי 34,2459-20-1,דירה בבית קומות,3.0,ראשונה,57.9,1400000,,,1970.0,,4.0,10251133368,1,245920,False,,אשדוד,מיכשוילי,,2459-20-1,2459/20,24179.62003454232,31.7893921209,34.6578842761,2022
2022-11-01,2022-01-11,"הציונות 32, אשדוד",הציונות 32,2450-10-17,דירה בבית קומות,4.0,קומה ‎5‏,108.8,2150000,,,2008.0,,15.0,10250848692,1,245010,False,53% ב 7.1 שנים,אשדוד,הציונות,7.46,2450-10-17,2450/10,19761.029411764703,31.7855761451,34.6412670284,2022
2022-11-01,2022-01-11,"חסן ובן גרה 4, אשדוד",חסן ובן גרה 4,2457-4-8,דירה בבית קומות,3.0,רביעית,56.7,1214000,,,1970.0,,4.0,10251242988,1,24574,False,14% ב 2.5 שנים,אשדוד,חסן ובן גרה,5.6,2457-4-8,2457/4,21410.93474426808,31.7949636927,34.6524644587,2022
2022-11-01,2022-01-11,"הראשונים 36, אשדוד",הראשונים 36,2085-5-11,דירה בבית קומות,3.0,שלישית,40.7,1373000,,,1960.0,,3.0,10251191076,1,20855,False,90% ב 6.5 שנים,אשדוד,הראשונים,13.85,2085-5-11,2085/5,33734.64373464373,31.806005285,34.644970291,2022
2022-11-01,2022-01-11,"הרב אבוחצירא 6, אשדוד",הרב אבוחצירא 6,2462-11-15,דירה בבית קומות,3.0,רביעית,58.5,1360000,,,1970.0,,5.0,10250371152,1,246211,False,44% ב 6.5 שנים,אשדוד,הרב אבוחצירה,6.77,2462-11-15,2462/11,23247.863247863246,31.7967298453,34.6588046066,2022
2022-10-31,2022-10-31,"הרב קוק 39, אשדוד",הרב קוק 39,2066-216-20,דירה בבית קומות,3.0,רביעית,54.7,1850000,,,1970.0,2021.0,8.0,10280961600,1,2066216,False,59% ב 4.2 שנים,אשדוד,הרב קוק,14.05,2066-216-20,2066/216,33820.84095063985,31.808299788,34.656498861,2022
2022-10-31,2022-10-31,"כוכב השחר 3, אשדוד",כוכב השחר 3,2440-4-84,דירה בבית קומות,3.0,קומה ‎2‏,81.1,1800000,,,2002.0,,8.0,10281158580,1,24404,False,,אשדוד,כוכב השחר,,2440-4-84,2440/4,22194.82120838471,31.7787905875,34.6396516781,2022
2022-10-31,2022-10-31,"המעפילים 3, אשדוד",המעפילים 3,2066-116-2,דירה בבית קומות,4.5,ראשונה,68.2,1720000,,,1960.0,,4.0,10281300540,1,2066116,False,48% ב 4 שנים,אשדוד,המעפילים,12.0,2066-116-2,2066/116,25219.941348973607,31.808708704,34.6522262212,2022
2022-10-31,2022-10-31,"אברהם שפירא 21, אשדוד",אברהם שפירא 21,2456-66-14,דירה בבית קומות,3.0,שלישית,58.5,1700000,,,1970.0,,4.0,10280997720,1,245666,False,26% ב 1.5 שנים,אשדוד,שפירא אברהם,17.33,2456-66-14,2456/66,29059.82905982906,31.7929172251,34.6594353538,2022
2022-10-31,2022-10-31,"אחד העם 20, אשדוד",אחד העם 20,2068-79-23,דירה בבית קומות,3.0,רביעית,51.75,1320000,,,1970.0,,4.0,10281909624,1,206879,False,256% ב 14.8 שנים,אשדוד,אחד העם,17.3,2068-79-23,2068/79,25507.2463768116,31.8008052434,34.6468813889,2022
2022-10-31,2022-10-31,"הראשונים 15, אשדוד",הראשונים 15,2086-36-23,דירה בבית קומות,5.0,שניה,83.0,2280000,,,1970.0,,4.0,10281985140,1,208636,False,,אשדוד,הראשונים,,2086-36-23,2086/36,27469.87951807229,31.8085610793,34.6473048042,2022
2022-10-31,2022-10-31,,,2190-12-129,דירה בבית קומות,5.0,שלוש עשרה,163.0,2917000,,,2022.0,,,10281904836,2,219012,False,,אשדוד,הרב שאולי,,2190-12-129,2190/12,17895.70552147239,31.7973258603,34.6433261473,2022
2022-10-31,2022-10-31,"הפלמ""ח 12, אשדוד","הפלמ""ח 12",2460-12-25,דירה בבית קומות,3.0,קרקע,52.2,1180000,,,1960.0,,3.0,10282075188,1,246012,False,,אשדוד,"הפלמ""ח",,2460-12-25,2460/12,22605.363984674328,31.80171817,34.6620337423,2022
2022-10-30,2022-10-30,"הדקל 5, אשדוד",הדקל 5,2088-149-86,דירה בבית קומות,3.0,שמינית,90.0,2395000,,,2024.0,,12.0,10283126364,1,2088149,False,,אשדוד,הדקל,,2088-149-86,2088/149,26611.11111111111,31.8053459414,34.6420896573,2022
2022-10-30,2022-10-30,,,2088-148-100,דירה בבית קומות,5.0,עשרים ושש,172.0,3465000,,,2020.0,,,10282725936,2,2088148,False,,אשדוד,הדקל,,2088-148-100,2088/148,20145.3488372093,31.8055938194,34.6414786432,2022
2022-10-30,2022-10-30,"ההגנה 6, אשדוד",ההגנה 6,2080-52-22,דירה בבית קומות,2.0,רביעית,38.4,1077000,,,1960.0,,4.0,10281048288,1,208052,False,,אשדוד,ההגנה,,2080-52-22,2080/52,28046.875,31.806857902,34.6477989963,2022
2022-10-30,2022-10-30,"רב ינאי 30, אשדוד",רב ינאי 30,2023-19-67,דירה בבית קומות,5.0,רביעית,110.0,2250000,,,2019.0,,7.0,10283175756,1,202319,False,,אשדוד,רב ינאי,,2023-19-67,2023/19,20454.545454545456,31.786805686,34.6662872428,2022
2022-10-30,2022-10-30,"האורגים 11, אשדוד",האורגים 11,2453-147-120,משרד,,רביעית,,150000,,,2000.0,,5.0,10282878396,1,2453147,False,,אשדוד,האורגים,,2453-147-120,2453/147,,31.810429246,34.660192654,2022
2022-10-30,2022-10-30,"האורגים 16, אשדוד",האורגים 16,2062-45-9,חנות,,קרקע,36.66,400000,,,1987.0,,4.0,10282812624,1,206245,False,,אשדוד,האורגים,,2062-45-9,2062/45,10911.074740861975,31.812605179,34.6579158766,2022
2022-10-30,2022-10-30,"האורגים 16, אשדוד",האורגים 16,2062-45-10,חנות,,קרקע,39.48,1500000,,,1987.0,,4.0,10282842360,1,206245,False,,אשדוד,האורגים,,2062-45-10,2062/45,37993.92097264438,31.812605179,34.6579158766,2022
2022-10-29,2022-10-29,"הדקל 5, אשדוד",הדקל 5,2088-149-16,,3.0,שמינית,90.0,2395000,1.0,,,,12.0,11181203823,1,2088149,False,,אשדוד,הדקל,,2088-149-16,2088/149,26611.11111111111,31.8053459414,34.6420896573,2022
2022-10-28,2022-10-28,"הר כנען 5, אשדוד",הר כנען 5,2193-21-4,דירה בבית קומות,4.0,ראשונה,80.0,2052000,,,1992.0,,7.0,10281269880,1,219321,False,28% ב 1.5 שנים,אשדוד,הר כנען,18.67,2193-21-4,2193/21,25650.0,31.7788267889,34.6309956506,2022
2022-10-28,2022-10-28,"בלפור 3, אשדוד",בלפור 3,2071-119-64,דירה בבית קומות,4.0,שישית,102.5,1950000,,,1993.0,,9.0,10282391952,1,2071119,False,52% ב 8.7 שנים,אשדוד,בלפור,5.98,2071-119-64,2071/119,19024.39024390244,31.7972974745,34.6503689799,2022
2022-10-28,2022-10-28,"הכלנית 9, אשדוד",הכלנית 9,2074-186-223,דירה בבית קומות,3.0,שלישית,86.5,2130000,,,2001.0,,15.0,10281661488,1,2074186,False,,אשדוד,הכלנית,,2074-186-223,2074/186,24624.2774566474,31.7845459565,34.6530109031,2022
2022-10-27,2022-10-27,,,2088-148-101,דירה בבית קומות,3.0,עשרים וארבע,84.0,2280000,,,2020.0,,,10282617828,2,2088148,False,,אשדוד,הדקל,,2088-148-101,2088/148,27142.85714285714,31.8055938194,34.6414786432,2022
2022-10-27,2022-10-27,,,2190-12-130,דירה בבית קומות,5.0,עשירית,158.0,2835000,,,2022.0,,,10282662852,2,219012,False,,אשדוד,הרב שאולי,,2190-12-130,2190/12,17943.037974683546,31.7973258603,34.6433261473,2022
2022-10-27,2022-10-27,"עופר אברהם 3, אשדוד",עופר אברהם 3,2189-10-22,דירה בבית קומות,3.5,שניה,79.5,1650000,,,1994.0,,4.0,10280758656,1,218910,False,211% ב 18 שנים,אשדוד,עופר אברהם,11.72,2189-10-22,2189/10,20754.716981132075,31.8016538852,34.6464506109,2022
2022-10-27,2022-10-27,"יהודה המכבי 4, אשדוד",יהודה המכבי 4,2455-25-19,דירה בבית קומות,3.0,שניה,58.6,1540000,,,1970.0,,4.0,10280810568,1,245525,False,,אשדוד,יהודה המכבי,,2455-25-19,2455/25,26279.86348122867,31.7968234908,34.6561323814,2022
2022-10-27,2022-10-27,"כינור 26, אשדוד",כינור 26,3174-14-17,דירה בבית קומות,5.0,שישית,174.0,3200000,,,2013.0,,8.0,10280995032,1,317414,False,,אשדוד,כינור,,3174-14-17,3174/14,18390.80459770115,31.788607961,34.6346760119,2022
2022-10-27,2022-10-27,"הזית 8, אשדוד",הזית 8,2088-18-1,דירה בבית קומות,4.0,ראשונה,69.0,2000000,,,1982.0,,1.0,10280960256,1,208818,False,,אשדוד,הזית,,2088-18-1,2088/18,28985.50724637681,31.8081280985,34.6410536635,2022
2022-10-27,2022-10-27,"הצבעוני 46, אשדוד",הצבעוני 46,2073-72-12,דירה בבית קומות,5.0,שלישית,155.0,2500000,,,1992.0,,4.0,10281384372,1,207372,False,,אשדוד,הצבעוני,,2073-72-12,2073/72,16129.032258064515,31.7882232657,34.6485754447,2022
2022-10-27,2022-10-27,"העצמאות 95, אשדוד",העצמאות 95,2447-6-154,דירה בבית קומות,4.0,שלישית,106.2,2300000,,,2000.0,,9.0,10281209064,1,24476,False,,אשדוד,העצמאות,,2447-6-154,2447/6,21657.25047080979,31.7907572228,34.6419972162,2022
2022-10-27,2022-10-27,"מנחם בגין 126, אשדוד",מנחם בגין 126,2074-189-178,דירה בבית קומות,4.0,ארבע עשרה,86.0,2325000,,,2019.0,,16.0,10282170192,1,2074189,False,,אשדוד,בגין מנחם,,2074-189-178,2074/189,27034.883720930236,31.783551433,34.6538359615,2022
2022-10-27,2022-10-27,"מבצע חורב 2, אשדוד",מבצע חורב 2,2462-33-20,דירה בבית קומות,3.0,שלישית,60.2,1500000,,,1970.0,,4.0,10280989404,1,246233,False,,אשדוד,מבצע חורב,,2462-33-20,2462/33,24916.943521594683,31.7991246555,34.6614124668,2022
2022-10-26,2022-10-26,"מנחם בגין 126, אשדוד",מנחם בגין 126,2074-189-179,דירה בבית קומות,4.0,אחת עשרה,99.0,2300000,,,2019.0,,16.0,10282166748,1,2074189,False,,אשדוד,בגין מנחם,,2074-189-179,2074/189,23232.323232323237,31.783551433,34.6538359615,2022
2022-10-26,2022-10-26,"עמרי המלך 4, אשדוד",עמרי המלך 4,2396-26-15,דירה בבית קומות,4.0,רביעית,73.78,2045000,,,1992.0,,9.0,10283779968,1,239626,False,107% ב 9.7 שנים,אשדוד,המלך עמרי,11.03,2396-26-15,2396/26,27717.538628354567,31.7755252285,34.6449161677,2022
2022-10-26,2022-10-26,"דוד וולפסון 2, אשדוד",דוד וולפסון 2,2648-61-109,דירה בבית קומות,3.0,קרקע,54.6,1840000,,,2000.0,,7.0,10282056456,1,264861,False,53% ב 7.3 שנים,אשדוד,וולפסון דוד,7.26,2648-61-109,2648/61,33699.6336996337,31.7681678385,34.6322973044,2022
2022-10-26,2022-10-26,"כינור 10, אשדוד",כינור 10,3174-1-202,חניה,,,,117000,,,2022.0,,31.0,10283533260,1,31741,False,,אשדוד,כינור,,3174-1-202,3174/1,,31.7912646711,34.6328776399,2022
2022-10-26,2022-10-26,,,2088-148-64,,3.0,עשרים וארבע,84.0,2280000,1.0,מגדלי הדקל - אשדוד ים,,,,11181203808,2,2088148,False,,אשדוד,הדקל,,2088-148-64,2088/148,27142.85714285714,31.8055938194,34.6414786432,2022
2022-10-25,2022-10-25,,,2088-148-102,דירה בבית קומות,5.0,עשרים ושתיים,172.0,3260000,,,2020.0,,,10282606824,2,2088148,False,,אשדוד,הדקל,,2088-148-102,2088/148,18953.488372093023,31.8055938194,34.6414786432,2022
2022-10-25,2022-10-25,"הרותם 4, אשדוד",הרותם 4,2188-13-25,דירה בבית קומות,5.0,שישית,128.0,1600000,,,1977.0,2022.0,4.0,10281992784,1,218813,False,,אשדוד,הרותם,,2188-13-25,2188/13,12500.0,31.7882489002,34.6570387929,2022
2022-10-25,2022-10-25,"אברהם שפירא 37, אשדוד",אברהם שפירא 37,2459-28-69,דירה בבית קומות,3.0,שביעית,70.0,1320000,1.0,סביוני שפירא,1970.0,2019.0,4.0,10281730788,1,245928,False,,אשדוד,שפירא אברהם,,2459-28-69,2459/28,18857.14285714286,31.7898824337,34.6584423226,2022
2022-10-25,2022-10-25,"מנחם אוסישקין 26, אשדוד",מנחם אוסישקין 26,2647-68-68,דירה בבית קומות,3.5,ראשונה,87.3,1920000,,,1998.0,,4.0,10280635932,1,264768,False,69% ב 11.3 שנים,אשדוד,אוסישקין מנחם,6.11,2647-68-68,2647/68,21993.127147766325,31.7718569656,34.6358047014,2022
2022-10-25,2022-10-25,"אגס 7, אשדוד",אגס 7,2815-11-23,דירה בבית קומות,4.0,שישית,108.9,2560000,,,2006.0,,18.0,10280604600,1,281511,False,205% ב 15.1 שנים,אשדוד,אגס,13.58,2815-11-23,2815/11,23507.80532598714,31.7714559324,34.6370408431,2022
2022-10-25,2022-10-25,"ירקון 5, אשדוד",ירקון 5,2197-62-2,דירה בבית קומות,8.0,ראשונה,400.0,5740000,,,1980.0,,1.0,10281574296,1,219762,False,,אשדוד,ירקון,,2197-62-2,2197/62,14350.0,31.7871283661,34.6287712273,2022
2022-10-25,2022-10-25,"הרב אבן-דנן 10, אשדוד",הרב אבן-דנן 10,2462-8-15,דירה בבית קומות,3.0,רביעית,61.0,1800000,,,1970.0,,4.0,10281008808,1,24628,False,,אשדוד,הרב אבן דנן,,2462-8-15,2462/8,29508.19672131148,31.7971862821,34.6593333095,2022
2022-10-25,2022-10-25,"גיא אוני 2, אשדוד",גיא אוני 2,2384-101-65,דירה בבית קומות,3.0,שלישית,97.0,1560000,,,1995.0,,11.0,10280730852,1,2384101,False,,אשדוד,גיא אוני,,2384-101-65,2384/101,16082.474226804125,31.7854064529,34.6602000407,2022
2022-10-25,2022-10-25,"גיא אוני 2, אשדוד",גיא אוני 2,2384-101-64,דירה בבית קומות,2.0,שמינית,66.0,1325000,,,1995.0,,11.0,10280750340,1,2384101,False,,אשדוד,גיא אוני,,2384-101-64,2384/101,20075.757575757576,31.7854064529,34.6602000407,2022
2022-10-25,2022-10-25,"הכלנית 25, אשדוד",הכלנית 25,2073-57-34,דירה בבית קומות,4.0,חמישית,92.0,1810000,,,1980.0,2023.0,4.0,10281565308,1,207357,False,,אשדוד,הכלנית,,2073-57-34,2073/57,19673.91304347826,31.7868631769,34.6486413125,2022
2022-10-24,2022-10-24,,,2088-148-63,,5.0,עשרים ושתיים,172.0,3260000,1.0,מגדלי הדקל - אשדוד ים,,,,11181203807,2,2088148,False,,אשדוד,הדקל,,2088-148-63,2088/148,18953.488372093023,31.8055938194,34.6414786432,2022
2022-10-24,2022-10-24,"קדרון 3, אשדוד",קדרון 3,2195-12-20,דירה בבית קומות,4.0,שניה,79.0,1750000,,,1990.0,,8.0,10280468940,1,219512,False,,אשדוד,קדרון,,2195-12-20,2195/12,22151.89873417721,31.7849396814,34.6358817044,2022
2022-10-24,2022-10-24,"יורדי הסירה 4, אשדוד",יורדי הסירה 4,2066-179-23,דירה בבית קומות,4.0,ראשונה,90.0,1950000,,,1960.0,2022.0,5.0,10280515308,1,2066179,False,,אשדוד,יורדי הסירה,,2066-179-23,2066/179,21666.666666666668,31.8024028007,34.648983825,2022
2022-10-24,2022-10-24,"הציונות 14, אשדוד",הציונות 14,2450-8-126,דירה בבית קומות,4.0,רביעית,121.85,2510000,,,1999.0,,7.0,10280495988,1,24508,False,,אשדוד,הציונות,,2450-8-126,2450/8,20599.097250718096,31.785898823,34.6427028908,2022
2022-10-24,2022-10-24,"רש""י 8, אשדוד","רש""י 8",2384-97-5,דירה בבית קומות,4.0,שניה,83.08,1650000,,,1995.0,,3.0,10282023192,1,238497,False,,אשדוד,"רש""י",,2384-97-5,2384/97,19860.375541646605,31.7859087724,34.6613373534,2022
2022-10-24,2022-10-24,"ירושלים 2, אשדוד",ירושלים 2,2072-39-40,דירה בבית קומות,4.0,רביעית,108.29,2620000,,,1983.0,,8.0,10281930456,1,207239,False,,אשדוד,ירושלים,,2072-39-40,2072/39,24194.293101856125,31.7957840582,34.6380331139,2022
2022-10-24,2022-10-24,"אלברט קמי 11, אשדוד",אלברט קמי 11,2679-64-1,קוטג' חד משפחתי,6.0,ראשונה,143.0,5550000,,,1995.0,,1.0,10281633012,1,267964,False,,אשדוד,קמי אלברט,,2679-64-1,2679/64,38811.18881118881,31.7710692813,34.6257119183,2022
2022-10-24,2022-10-24,"מיכקשוילי 16, אשדוד",מיכקשוילי 16,2458-61-24,דירה בבית קומות,3.0,שישית,62.0,1500000,,,1980.0,,8.0,10280809224,1,245861,False,79% ב 8.7 שנים,אשדוד,מיכשוילי,9.08,2458-61-24,2458/61,24193.548387096773,31.7905698558,34.6537550592,2022
2022-10-24,2022-10-24,"נתן אלבז 33, אשדוד",נתן אלבז 33,2458-11-26,דירה בבית קומות,5.0,קרקע,102.0,1490000,,,1970.0,2021.0,4.0,10282940724,1,245811,True,-17% ב 1.7 שנים,אשדוד,אלבז נתן,-10.0,2458-11-26,2458/11,14607.843137254902,31.7921196183,34.6519694401,2022
2022-10-24,2022-10-24,"ישפה 1, אשדוד",ישפה 1,2670-24-3,דירה בבית קומות,4.0,קרקע,112.18,3610000,,,2005.0,,9.0,10280950596,1,267024,False,93% ב 8.4 שנים,אשדוד,ישפה,11.07,2670-24-3,2670/24,32180.424318060257,31.7701449945,34.6239978261,2022
2022-10-23,2022-10-23,"אריק איינשטיין 2, אשדוד",אריק איינשטיין 2,3174-22-50,דירה בבית קומות,6.0,עשרים,264.0,6900000,,,2024.0,,17.0,10280884740,1,317422,False,,אשדוד,אריק איינשטיין,,3174-22-50,3174/22,26136.36363636364,31.7909210225,34.6363982785,2022
2022-10-23,2022-10-23,"ירבעם המלך 4, אשדוד",ירבעם המלך 4,2393-14-21,דירה בבית קומות,5.0,קרקע,105.0,2920000,,,1997.0,,1.0,10280816868,1,239314,False,,אשדוד,המלך ירבעם,,2393-14-21,2393/14,27809.52380952381,31.7720679922,34.645095661,2022
2022-10-23,2022-10-23,"הרב קוק 31, אשדוד",הרב קוק 31,2066-214-23,דירה בבית קומות,3.0,שניה,50.5,1760000,,,1970.0,2025.0,5.0,10282852860,1,2066214,False,,אשדוד,הרב קוק,,2066-214-23,2066/214,34851.485148514854,31.8087039703,34.6554339132,2022
2022-10-23,2022-10-23,"החובלים 9, אשדוד",החובלים 9,2189-17-91,דירה בבית קומות,4.0,חמישית,92.05,1830000,,,1990.0,,9.0,10280249280,1,218917,False,,אשדוד,החובלים,,2189-17-91,2189/17,19880.499728408475,31.8010588898,34.6423433405,2022
2022-10-23,2022-10-23,"שומרון 3, אשדוד",שומרון 3,2193-17-64,דירה בבית קומות,3.0,שמינית,65.0,891000,,,1985.0,,8.0,10282994148,1,219317,False,,אשדוד,שומרון,,2193-17-64,2193/17,13707.692307692309,31.7799697843,34.6323601794,2022
2022-10-23,2022-10-23,"רוגוזין 21, אשדוד",רוגוזין 21,2189-41-25,דירה בבית קומות,4.0,חמישית,117.8,1870000,,,1970.0,,10.0,10280685156,1,218941,False,28% ב 6.6 שנים,אשדוד,רוגוזין,4.24,2189-41-25,2189/41,15874.363327674024,31.8039696568,34.6431447024,2022
2022-10-23,2022-10-23,,,2088-148-103,דירה בבית קומות,3.0,עשרים ושתיים,84.0,2290000,,,2020.0,,,10282603968,2,2088148,False,,אשדוד,הדקל,,2088-148-103,2088/148,27261.904761904763,31.8055938194,34.6414786432,2022
2022-10-23,2022-10-23,"בן יוסף שלמה 4, אשדוד",בן יוסף שלמה 4,2455-62-7,דירה בבית קומות,4.0,רביעית,76.8,2200000,,,1970.0,,4.0,10281130104,1,245562,False,144% ב 7.3 שנים,אשדוד,בן יוסף שלמה,19.73,2455-62-7,2455/62,28645.833333333336,31.7958255214,34.6572547783,2022
2022-10-23,2022-10-23,"הנביאים 1, אשדוד",הנביאים 1,2397-66-89,דירה בבית קומות,2.0,שניה,50.6,1300000,,,1992.0,,6.0,10280660880,1,239766,False,18% ב 1.8 שנים,אשדוד,מדרחוב הנביאים,10.0,2397-66-89,2397/66,25691.699604743084,31.7830119058,34.6478851259,2022
2022-10-22,2022-10-22,,,2088-148-62,,3.0,עשרים ושתיים,84.0,2290000,1.0,מגדלי הדקל - אשדוד ים,,,,11181203806,2,2088148,False,,אשדוד,הדקל,,2088-148-62,2088/148,27261.904761904763,31.8055938194,34.6414786432,2022
2022-10-21,2022-10-21,"קרן היסוד 27, אשדוד",קרן היסוד 27,2190-6-32,דירה בבית קומות,3.0,רביעית,80.5,1280000,,,1970.0,,4.0,10280769660,1,21906,False,,אשדוד,קרן היסוד,,2190-6-32,2190/6,15900.621118012425,31.7975931232,34.641963452,2022
2022-10-20,2022-10-20,"האדמו""ר מבלעז 37, אשדוד","האדמו""ר מבלעז 37",2464-125-6,דירה בבית קומות,4.0,שלישית,115.0,1600000,,,1970.0,,3.0,10281396804,1,2464125,False,,אשדוד,"האדמו""ר מבעלז",,2464-125-6,2464/125,13913.04347826087,31.805199129,34.6642730281,2022
2022-10-20,2022-10-20,"מנחם בגין 126, אשדוד",מנחם בגין 126,2074-189-120,דירה בבית קומות,4.0,רביעית,106.0,1800000,,,2019.0,,16.0,10280999232,1,2074189,False,,אשדוד,בגין מנחם,,2074-189-120,2074/189,16981.132075471698,31.783551433,34.6538359615,2022
2022-10-20,2022-10-20,"אדר 9, אשדוד",אדר 9,2440-7-52,דירה בבית קומות,4.0,שלישית,94.3,2200000,,,2000.0,,5.0,10280386368,1,24407,False,73% ב 9.4 שנים,אשדוד,אדר,7.77,2440-7-52,2440/7,23329.79851537646,31.7802471874,34.639742022,2022
2022-10-19,2022-10-19,"האורגים 11, אשדוד",האורגים 11,2453-147-119,משרד,,שלישית,25.0,183000,,,2000.0,,5.0,10282869240,1,2453147,False,,אשדוד,האורגים,,2453-147-119,2453/147,7320.0,31.810429246,34.660192654,2022
2022-10-19,2022-10-19,"הרב שאולי 13, אשדוד",הרב שאולי 13,2190-11-29,דירה בבית קומות,4.0,שניה,73.0,1799000,,,1970.0,,3.0,10280032392,1,219011,False,,אשדוד,הרב שאולי,,2190-11-29,2190/11,24643.835616438355,31.7983112045,34.6438442697,2022
2022-10-19,2022-10-19,"אייר 14, אשדוד",אייר 14,2439-16-18,דירה בבית קומות,4.0,חמישית,100.6,2250000,,,2000.0,,8.0,10280891712,1,243916,False,25% ב 2 שנים,אשדוד,אייר,12.5,2439-16-18,2439/16,22365.805168986084,31.784463139,34.6374624362,2022
2022-10-19,2022-10-19,"הציונות 3, אשדוד",הציונות 3,2449-9-55,דירה בבית קומות,4.0,שישית,98.1,2200000,,,1996.0,,8.0,10280432148,1,24499,False,160% ב 14.9 שנים,אשדוד,הציונות,10.74,2449-9-55,2449/9,22426.09582059124,31.7878796433,34.6406266083,2022
