DEALDATE,DEALDATETIME,FULLADRESS,DISPLAYADRESS,GUSH,DEALNATUREDESCRIPTION,ASSETROOMNUM,FLOORNO,DEALNATURE,DEALAMOUNT,NEWPROJECTTEXT,PROJECTNAME,BUILDINGYEAR,YEARBUILT,BUILDINGFLOORS,KEYVALUE,TYPE,POLYGON_ID,TREND_IS_NEGATIVE,TREND_FORMAT,city_name,street,presentage per year,GUSH - Copy,Gush_Helka,Price per sqm,lat,lon,Year
2013-12-31,2013-12-31,"פרץ נפתלי 3, פתח תקווה",פרץ נפתלי 3,6361-534-9,דירה בבית קומות,1.0,ראשונה,100.0,1000000,,,1970.0,,5.0,3310511675,1,6361534,False,,פתח תקווה,פרץ,,6361-534-9,6361/534,10000.0,32.0935183158,34.8871455954,2013
2013-12-31,2013-12-31,"רינגלבלום 6, פתח תקווה",רינגלבלום 6,6376-198-12,דירה בבית קומות,4.0,רביעית וגג,99.5,867000,,,1982.0,,4.0,3306269265,1,6376198,False,,פתח תקווה,רינגלבלום,,6376-198-12,6376/198,8713.56783919598,32.0943845153,34.8791467756,2013
2013-12-31,2013-12-31,"זאב ברנדה 58, פתח תקווה",זאב ברנדה 58,6387-176-26,דירה בבית קומות,4.0,רביעית,124.0,1109000,,,1970.0,2013.0,3.0,3306457069,1,6387176,False,,פתח תקווה,ברנדה זאב,,6387-176-26,6387/176,8943.548387096775,32.0773967551,34.8861373544,2013
2013-12-31,2013-12-31,"אד""ג 13, פתח תקווה","אד""ג 13",6404-117-30,דירה בבית קומות,3.0,ב,41.19,922000,,,1960.0,,3.0,3306588932,1,6404117,False,,פתח תקווה,א ד ג,,6404-117-30,6404/117,22384.07380432144,32.0893519413,34.8953926128,2013
2013-12-31,2013-12-31,"פרץ נפתלי 3, פתח תקווה",פרץ נפתלי 3,6361-534-8,דירה בבית קומות,1.0,ראשונה,100.0,1363000,,,1970.0,,5.0,3310512139,1,6361534,False,,פתח תקווה,פרץ,,6361-534-8,6361/534,13630.0,32.0935183158,34.8871455954,2013
2013-12-31,2013-12-31,"פרץ נפתלי 3, פתח תקווה",פרץ נפתלי 3,6361-534-7,דירה בבית קומות,1.0,ראשונה,100.0,100000,,,1970.0,,5.0,3310509036,1,6361534,False,,פתח תקווה,פרץ,,6361-534-7,6361/534,1000.0,32.0935183158,34.8871455954,2013
2013-12-31,2013-12-31,"דגל ראובן 64, פתח תקווה",דגל ראובן 64,6372-190-8,דירה בבית קומות,3.5,שניה,57.06,975000,,,1960.0,,4.0,3306571938,1,6372190,False,,פתח תקווה,דגל ראובן,,6372-190-8,6372/190,17087.276550998948,32.0817995757,34.8680030077,2013
2013-12-31,2013-12-31,"שטרית בכור 8, פתח תקווה",שטרית בכור 8,6388-456-4,דירה בבית קומות,3.0,קרקע,59.1,860000,,,1970.0,,3.0,3306031900,1,6388456,False,,פתח תקווה,שיטרית בכור,,6388-456-4,6388/456,14551.60744500846,32.0756954627,34.893185918,2013
2013-12-31,2013-12-31,"חפץ חיים 47, פתח תקווה",חפץ חיים 47,6397-18-6,דירה בבית קומות,3.0,א,60.19,1000000,,,1970.0,,4.0,3306599952,1,639718,False,,פתח תקווה,חפץ חיים,,6397-18-6,6397/18,16614.055490945342,32.0811321696,34.8885543855,2013
2013-12-31,2013-12-31,"חיים לסקוב 29, פתח תקווה",חיים לסקוב 29,6328-94-4,דירה בבית קומות,4.0,א,82.0,1579000,,,1957.0,,1.0,3306171419,1,632894,False,,פתח תקווה,לסקוב חיים,,6328-94-4,6328/94,19256.09756097561,32.0852230874,34.903674132,2013
2013-12-31,2013-12-31,"גדנ""ע 3, פתח תקווה","גדנ""ע 3",6388-595-5,דירה בבית קומות,3.5,שלישית,35.5,1035000,,,1995.0,,4.0,3306311866,1,6388595,False,45% ב 4.8 שנים,פתח תקווה,"גדנ""ע",9.38,6388-595-5,6388/595,29154.929577464787,32.0739889333,34.8932683901,2013
2013-12-31,2013-12-31,"יצחק בן-צבי 16, פתח תקווה",יצחק בן-צבי 16,6715-253-44,דירה בבית קומות,4.0,אחת עשרה,102.95,1525000,,,1996.0,,14.0,3307021235,1,6715253,False,41% ב 5.3 שנים,פתח תקווה,בן צבי יצחק,7.74,6715-253-44,6715/253,14813.01602719767,32.0728455229,34.8856858537,2013
2013-12-31,2013-12-31,"יהלום בנימין 22, פתח תקווה",יהלום בנימין 22,6373-992-24,דירה בבית קומות,4.0,רביעית,97.0,1320000,,,1970.0,,7.0,3307294531,1,6373992,False,,פתח תקווה,יהלום בנימין,,6373-992-24,6373/992,13608.247422680412,32.0837300645,34.8752353398,2013
2013-12-31,2013-12-31,"צבי ברגמן 3, פתח תקווה",צבי ברגמן 3,6354-58-2,תעשיה,,ראשונה,2500.0,7800000,,,1994.0,,2.0,3306842479,1,635458,False,,פתח תקווה,ברגמן צבי,,6354-58-2,6354/58,3120.0,32.1077537122,34.8898618404,2013
2013-12-31,2013-12-31,"יוסף רוזובסקי 12, פתח תקווה",יוסף רוזובסקי 12,5481-26-6,דירה בבית קומות,4.0,ראשונה,88.9,1240000,,,1998.0,,4.0,3306807853,1,548126,False,,פתח תקווה,רוזובסקי יוסף,,5481-26-6,5481/26,13948.256467941506,32.0685856718,34.9140135981,2013
2013-12-31,2013-12-31,"בן-חור 5, פתח תקווה",בן-חור 5,6360-312-111,דירה בבית קומות,5.0,שלוש עשרה,108.7,1800000,,,2010.0,,16.0,3306694695,1,6360312,False,13% ב 3.6 שנים,פתח תקווה,בן חור,3.61,6360-312-111,6360/312,16559.33762649494,32.1042954394,34.8790062456,2013
2013-12-31,2013-12-31,"פינסקר 36, פתח תקווה",פינסקר 36,6361-42-7,דירה בבית קומות,2.0,ב,51.9,725000,,,1960.0,,3.0,3308112969,1,636142,False,,פתח תקווה,פינסקר,,6361-42-7,6361/42,13969.171483622353,32.0934867559,34.8832330035,2013
2013-12-31,2013-12-31,"רמב""ם 33, פתח תקווה","רמב""ם 33",6379-214-18,דירה בבית קומות,2.0,ג,40.8,860000,,,1960.0,,4.0,3306181685,1,6379214,False,,פתח תקווה,"רמב""ם",,6379-214-18,6379/214,21078.43137254902,32.0893358907,34.890845016,2013
2013-12-31,2013-12-31,"רמב""ם 30, פתח תקווה","רמב""ם 30",6379-76-27,דירה בבית קומות,3.0,ד,58.41,880000,,,1960.0,,4.0,3308266553,1,637976,False,25% ב 5.1 שנים,פתח תקווה,"רמב""ם",4.9,6379-76-27,6379/76,15065.913370998118,32.0890373095,34.8902679744,2013
2013-12-31,2013-12-31,"הענבל 26, פתח תקווה",הענבל 26,5510-6-16,דירה בבית קומות,4.0,,100.0,1300000,,,1995.0,,3.0,3307528735,1,55106,False,,פתח תקווה,העינבל,,5510-6-16,5510/6,13000.0,32.0763295923,34.9092046855,2013
2013-12-31,2013-12-31,"דוד פרנקפורטר 12, פתח תקווה",דוד פרנקפורטר 12,6394-149-12,דירה בבית קומות,5.0,רביעית וגג,111.0,1400000,,,1984.0,,4.0,3306839666,1,6394149,False,,פתח תקווה,פרנקפורטר דוד,,6394-149-12,6394/149,12612.612612612613,32.0858102507,34.8806998916,2013
2013-12-31,2013-12-31,"נחלת צבי 50, פתח תקווה",נחלת צבי 50,6355-665-10,דירה בבית קומות,4.0,שלישית,78.5,1200000,,,1980.0,,6.0,3306599430,1,6355665,False,,פתח תקווה,נחלת צבי,,6355-665-10,6355/665,15286.624203821655,32.0935658061,34.8923094189,2013
2013-12-31,2013-12-31,"נחלת צבי 35, פתח תקווה",נחלת צבי 35,6378-18-3,דירה בבית קומות,4.0,א,66.14,1238000,,,1967.0,,5.0,3307277450,1,637818,False,154% ב 15.6 שנים,פתח תקווה,נחלת צבי,9.87,6378-18-3,6378/18,18717.87118234049,32.0924771593,34.8901192951,2013
2013-12-31,2013-12-31,"מבצע יפתח 2, פתח תקווה",מבצע יפתח 2,6361-529-115,דירה בבית קומות,5.0,שמינית,121.8,1280000,,,2010.0,,24.0,3307140628,1,6361529,True,-6% ב 3.4 שנים,פתח תקווה,מבצע יפתח,-1.76,6361-529-115,6361/529,10509.03119868637,32.0990513761,34.8824682888,2013
2013-12-31,2013-12-31,"מנחם בגין 58, פתח תקווה",מנחם בגין 58,5482-42-61,דירה בבית קומות,3.0,שביעית,75.0,1060000,,,1998.0,,9.0,3306631301,1,548242,False,,פתח תקווה,בגין מנחם,,5482-42-61,5482/42,14133.333333333334,32.0718056715,34.9082332294,2013
2013-12-31,2013-12-31,"רוטשילד 68, פתח תקווה",רוטשילד 68,6374-28-17,דירה בבית קומות,3.0,ד,61.09,860000,,,1960.0,,4.0,3306311431,1,637428,False,,פתח תקווה,רוטשילד,,6374-28-17,6374/28,14077.590440333934,32.0882513925,34.8808254655,2013
2013-12-31,2013-12-31,"כרמלי 1, פתח תקווה",כרמלי 1,6404-278-10,דירה בבית קומות,4.0,שלישית,89.14,1400000,,,2014.0,,6.0,3306150568,1,6404278,False,,פתח תקווה,כרמלי,,6404-278-10,6404/278,15705.631590756117,32.0888526352,34.892368811,2013
2013-12-31,2013-12-31,"נתן בירנבוים 34, פתח תקווה",נתן בירנבוים 34,6193-232-1,בית בודד,3.0,ראשונה,75.0,1275000,,,1946.0,,1.0,3306782478,1,6193232,False,,פתח תקווה,בירנבוים נתן,,6193-232-1,6193/232,17000.0,32.0896124005,34.8498405236,2013
2013-12-31,2013-12-31,"עגנון 6, פתח תקווה",עגנון 6,6373-900-3,דירה בבית קומות,4.0,ראשונה,71.0,1194000,,,1973.0,,4.0,3306168548,1,6373900,False,96% ב 9.4 שנים,פתח תקווה,עגנון,10.21,6373-900-3,6373/900,16816.901408450703,32.0880380844,34.8700447008,2013
2013-12-31,2013-12-31,"אסירי ציון 24, פתח תקווה",אסירי ציון 24,6362-256-76,דירה בבית קומות,5.0,קומה ‎19‏,115.0,1850000,,,2009.0,,23.0,3306560686,1,6362256,False,32% ב 5.4 שנים,פתח תקווה,אסירי ציון,5.93,6362-256-76,6362/256,16086.95652173913,32.0967610695,34.8753362951,2013
2013-12-31,2013-12-31,"ישראל ושרה 29, פתח תקווה",ישראל ושרה 29,6372-248-2,קוטג' דו משפחתי,6.0,ראשונה,255.0,3440000,,,2012.0,,2.0,3308940513,1,6372248,False,,פתח תקווה,ישראל ושרה,,6372-248-2,6372/248,13490.196078431372,32.0840900839,34.8641756715,2013
2013-12-31,2013-12-31,"אלתר מיהוד 3, פתח תקווה",אלתר מיהוד 3,6381-48-7,דירה בבית קומות,3.0,רביעית,56.55,1220000,,,1970.0,,6.0,3306031668,1,638148,False,111% ב 8.4 שנים,פתח תקווה,אלתר מיהוד,13.21,6381-48-7,6381/48,21573.828470380195,32.0816446314,34.8829337575,2013
2013-12-31,2013-12-31,"משה סנה 33, פתח תקווה",משה סנה 33,6360-299-20,דירה בבית קומות,4.0,חמישית,103.3,1560000,,,2006.0,,9.0,3306156832,1,6360299,False,,פתח תקווה,סנה משה,,6360-299-20,6360/299,15101.64569215876,32.1018087236,34.8795447459,2013
2013-12-31,2013-12-31,"חובבי ציון 4, פתח תקווה",חובבי ציון 4,6374-73-8,דירה בבית קומות,3.0,ראשונה,99.66,700000,,,1960.0,,7.0,3306237684,1,637473,False,,פתח תקווה,חובבי ציון,,6374-73-8,6374/73,7023.881196066627,32.0874624581,34.8822412273,2013
2013-12-31,2013-12-31,"אלעזר פרידמן 3, פתח תקווה",אלעזר פרידמן 3,6401-8-10,דירה בבית קומות,4.0,רביעית,100.0,1220000,,,1997.0,,5.0,3307510755,1,64018,False,,פתח תקווה,פרידמן אלעזר,,6401-8-10,6401/8,12200.0,32.0821048583,34.9026186781,2013
2013-12-31,2013-12-31,"עקיבא ליברכט 14, פתח תקווה",עקיבא ליברכט 14,6377-249-6,דירה בבית קומות,3.0,שלישית,67.04,935000,,,1970.0,,4.0,3306031436,1,6377249,False,,פתח תקווה,ליברכט עקיבא,,6377-249-6,6377/249,13946.89737470167,32.0922082654,34.884774236,2013
2013-12-31,2013-12-31,"אליעזר קפלן 31, פתח תקווה",אליעזר קפלן 31,6373-856-8,דירה בבית קומות,3.0,שניה,62.0,1100000,,,1970.0,,3.0,3306137460,1,6373856,False,98% ב 14.7 שנים,פתח תקווה,קפלן אליעזר,6.67,6373-856-8,6373/856,17741.935483870966,32.084949944,34.8683238638,2013
2013-12-31,2013-12-31,"הכורם 7, פתח תקווה",הכורם 7,6372-240-5,קוטג' דו משפחתי,7.0,ראשונה,261.0,3200000,,,2010.0,,1.0,3307562955,1,6372240,False,,פתח תקווה,הכורם,,6372-240-5,6372/240,12260.536398467431,32.0847580866,34.8616384229,2013
2013-12-31,2013-12-31,"עמנואל זמיר 5, פתח תקווה",עמנואל זמיר 5,6371-904-13,דירה בבית קומות,5.0,שלישית,122.2,2055000,,,2008.0,,6.0,3306167852,1,6371904,False,51% ב 5.4 שנים,פתח תקווה,זמיר עמנואל,9.44,6371-904-13,6371/904,16816.69394435352,32.0718364408,34.8637236431,2013
2013-12-31,2013-12-31,"עמנואל קוז'ידלו 1, פתח תקווה",עמנואל קוז'ידלו 1,6715-478-9,דירה בבית קומות,5.0,שלישית,107.4,1955000,,,2006.0,,6.0,3307054034,1,6715478,False,,פתח תקווה,קוז'ידלו עמנואל,,6715-478-9,6715/478,18202.97951582868,32.073245981,34.8777819023,2013
2013-12-31,2013-12-31,"הרב ישעיהו משורר 3, פתח תקווה",הרב ישעיהו משורר 3,6811-60-43,דירה בבית קומות,5.0,רביעית,119.25,1600000,,,2010.0,,6.0,9577766100,1,681160,False,,פתח תקווה,הרב משורר ישעיהו,,6811-60-43,6811/60,13417.190775681342,32.0681966953,34.9105546536,2013
2013-12-31,2013-12-31,"ארלוזורוב 44, פתח תקווה",ארלוזורוב 44,6373-1075-3,דירה בבית קומות,4.0,ראשונה,101.0,828000,,,1960.0,,5.0,3307934503,1,63731075,False,,פתח תקווה,ארלוזורוב,,6373-1075-3,6373/1075,8198.019801980197,32.0858385878,34.8692924471,2013
2013-12-31,2013-12-31,"אהרון כצנלסון 26, פתח תקווה",אהרון כצנלסון 26,6362-271-47,דירה בבית קומות,5.0,קומה ‎12‏,126.84,1706000,,,2012.0,,17.0,3306191748,1,6362271,False,,פתח תקווה,כצנלסון אהרון,,6362-271-47,6362/271,13450.015767896562,32.0957380563,34.8760847077,2013
2013-12-31,2013-12-31,"צה""ל 37, פתח תקווה","צה""ל 37",6373-533-1,קוטג' דו משפחתי,6.0,,200.0,4930000,,,1986.0,,1.0,3307162610,1,6373533,False,,פתח תקווה,"צה""ל",,6373-533-1,6373/533,24650.0,32.0865326933,34.8707322117,2013
2013-12-31,2013-12-31,"פרץ נפתלי 3, פתח תקווה",פרץ נפתלי 3,6361-534-7,דירה בבית קומות,1.0,ראשונה,100.0,100000,,,1970.0,,5.0,3310509036,1,6361534,False,,פתח תקווה,פרץ נפתלי,,6361-534-7,6361/534,1000.0,32.0935183158,34.8871455954,2013
2013-12-31,2013-12-31,"פרץ נפתלי 3, פתח תקווה",פרץ נפתלי 3,6361-534-8,דירה בבית קומות,1.0,ראשונה,100.0,1363000,,,1970.0,,5.0,3310512139,1,6361534,False,,פתח תקווה,פרץ נפתלי,,6361-534-8,6361/534,13630.0,32.0935183158,34.8871455954,2013
2013-12-31,2013-12-31,"פרץ נפתלי 3, פתח תקווה",פרץ נפתלי 3,6361-534-9,דירה בבית קומות,1.0,ראשונה,100.0,1000000,,,1970.0,,5.0,3310511675,1,6361534,False,,פתח תקווה,פרץ נפתלי,,6361-534-9,6361/534,10000.0,32.0935183158,34.8871455954,2013
2013-12-30,2013-12-30,"הוורד 2, פתח תקווה",הוורד 2,6371-177-1,דירה בבית קומות,6.0,ראשונה,150.0,3500000,,,1996.0,,1.0,3306748026,1,6371177,False,,פתח תקווה,הורד,,6371-177-1,6371/177,23333.33333333333,32.076662796,34.866607836,2013
2013-12-30,2013-12-30,"ישראל ושרה 29, פתח תקווה",ישראל ושרה 29,6372-248-1,קוטג' דו משפחתי,6.0,ראשונה,255.0,3133000,,,2012.0,,2.0,3307523457,1,6372248,False,,פתח תקווה,ישראל ושרה,,6372-248-1,6372/248,12286.27450980392,32.0840900839,34.8641756715,2013
2013-12-30,2013-12-30,"נחלת צבי 14, פתח תקווה",נחלת צבי 14,6378-206-13,דירה בבית קומות,4.0,רביעית + גג,82.17,1445000,,,1990.0,,4.0,3307128680,1,6378206,False,68% ב 5 שנים,פתח תקווה,נחלת צבי,13.6,6378-206-13,6378/206,17585.493489107947,32.0909231803,34.8891402502,2013
2013-12-30,2013-12-30,"תפוצות ישראל 4, פתח תקווה",תפוצות ישראל 4,4042-103-4,דירה בבית קומות,2.5,א,31.5,850000,,,1960.0,,1.0,3306805214,1,4042103,False,41% ב 5 שנים,פתח תקווה,תפוצות ישראל,8.2,4042-103-4,4042/103,26984.126984126982,32.0770979495,34.8999331562,2013
2013-12-30,2013-12-30,"בגין מנחם 16, פתח תקווה",בגין מנחם 16,5509-39-19,דירה בבית קומות,4.0,ראשונה,80.9,1090000,,,1995.0,,3.0,3306344433,1,550939,False,,פתח תקווה,בגין מנחם,,5509-39-19,5509/39,13473.423980222497,32.079246449,34.9070475548,2013
2013-12-30,2013-12-30,"נחלת צבי 47, פתח תקווה",נחלת צבי 47,6378-12-7,דירה בבית קומות,3.0,ב,71.0,1000000,,,1970.0,,4.0,3306310445,1,637812,False,,פתח תקווה,נחלת צבי,,6378-12-7,6378/12,14084.50704225352,32.0932717005,34.8910910113,2013
2013-12-30,2013-12-30,"צה""ל 74, פתח תקווה","צה""ל 74",6372-180-9,דירה בבית קומות,2.0,שלישית,52.08,810000,,,1960.0,,5.0,3306344201,1,6372180,False,,פתח תקווה,"צה""ל",,6372-180-9,6372/180,15552.99539170507,32.0822457826,34.8695975236,2013
2013-12-30,2013-12-30,"מנחם בגין 54, פתח תקווה",מנחם בגין 54,5482-34-3,דירה בבית קומות,4.0,שניה,75.0,1095000,,,1995.0,,5.0,3306585539,1,548234,False,,פתח תקווה,בגין מנחם,,5482-34-3,5482/34,14600.0,32.0726164159,34.9072193198,2013
2013-12-30,2013-12-30,"אנדרסן 12, פתח תקווה",אנדרסן 12,6373-737-51,דירה בבית קומות,4.0,שניה,83.28,1270000,,,1970.0,,7.0,3307181779,1,6373737,False,75% ב 14.6 שנים,פתח תקווה,אנדרסן,5.14,6373-737-51,6373/737,15249.759846301631,32.0889508863,34.873286268,2013
2013-12-30,2013-12-30,"הכורם 7, פתח תקווה",הכורם 7,6372-240-3,קוטג' דו משפחתי,7.0,ראשונה,228.0,3200000,,,2010.0,,1.0,3307521543,1,6372240,False,,פתח תקווה,הכורם,,6372-240-3,6372/240,14035.087719298246,32.0847580866,34.8616384229,2013
2013-12-30,2013-12-30,"טרומפלדור 35, פתח תקווה",טרומפלדור 35,6394-225-4,דירה בבית קומות,3.0,א,56.91,1110000,,,1970.0,,3.0,3306182903,1,6394225,False,,פתח תקווה,טרומפלדור,,6394-225-4,6394/225,19504.480759093305,32.0840535903,34.8785184526,2013
2013-12-30,2013-12-30,"מבצע יפתח 2, פתח תקווה",מבצע יפתח 2,6361-529-162,דירה בבית קומות,4.0,תשע עשרה,111.6,1650000,,,2010.0,,24.0,3287655673,1,6361529,False,17% ב 3.4 שנים,פתח תקווה,מבצע יפתח,5.0,6361-529-162,6361/529,14784.94623655914,32.0990513761,34.8824682888,2013
2013-12-30,2013-12-30,"מבצע דקל 17, פתח תקווה",מבצע דקל 17,6366-167-154,דירה בבית קומות,4.0,קומה ‎12‏,124.55,1632000,,,2013.0,,27.0,3306208742,1,6366167,False,,פתח תקווה,מבצע דקל,,6366-167-154,6366/167,13103.171417101566,32.0958167828,34.8707727946,2013
2013-12-30,2013-12-30,"שלום שבזי 7, פתח תקווה",שלום שבזי 7,6397-289-6,דירה בבית קומות,4.0,שניה,90.3,1200000,,,2012.0,,6.0,3306309459,1,6397289,False,,פתח תקווה,שבזי שלום,,6397-289-6,6397/289,13289.036544850498,32.0803989267,34.8921910297,2013
2013-12-30,2013-12-30,"מזכרת בתיה 5, פתח תקווה",מזכרת בתיה 5,7195-22-52,דירה בבית קומות,4.0,קרקע,97.9,1800000,,,1998.0,,8.0,3306171941,1,719522,False,106% ב 14.7 שנים,פתח תקווה,מזכרת בתיה,7.21,7195-22-52,7195/22,18386.108273748723,32.1009907384,34.8750268287,2013
2013-12-30,2013-12-30,"סעדיה גאון 5, פתח תקווה",סעדיה גאון 5,6374-22-11,דירה בבית קומות,4.0,ב,62.59,1090000,,,1954.0,,3.0,3306908831,1,637422,False,172% ב 7.1 שנים,פתח תקווה,סעדיה גאון,24.23,6374-22-11,6374/22,17414.922511583318,32.0877152123,34.8791811064,2013
2013-12-30,2013-12-30,"הרב מסעוד פינטו 6, פתח תקווה",הרב מסעוד פינטו 6,6355-752-25,דירה בבית קומות,5.0,שניה,96.21,1530000,,,2002.0,,5.0,3307576324,1,6355752,False,70% ב 10.3 שנים,פתח תקווה,הרב פינטו מסעוד,6.8,6355-752-25,6355/752,15902.712815715624,32.0984570003,34.8912590349,2013
2013-12-30,2013-12-30,"הרב שקדי 11, פתח תקווה",הרב שקדי 11,6388-89-7,דירה בבית קומות,4.0,שלישית,77.08,1344000,,,2011.0,,6.0,3306346550,1,638889,False,,פתח תקווה,הרב שקדי,,6388-89-7,6388/89,17436.42968344577,32.0780677278,34.8934674479,2013
2013-12-30,2013-12-30,"שפרינצק 36, פתח תקווה",שפרינצק 36,6388-529-22,דירה בבית קומות,3.5,שניה,67.0,800000,,,1960.0,,4.0,3307861249,1,6388529,False,,פתח תקווה,שפרינצק,,6388-529-22,6388/529,11940.298507462689,32.0728389053,34.891746657,2013
2013-12-30,2013-12-30,"דורון 4, פתח תקווה",דורון 4,6373-643-11,דירה בבית קומות,3.0,א,48.0,1400000,,,1960.0,,2.0,3307309321,1,6373643,False,,פתח תקווה,דורון,,6373-643-11,6373/643,29166.666666666668,32.089398465,34.8762521639,2013
2013-12-30,2013-12-30,"אחד העם 35, פתח תקווה",אחד העם 35,6383-88-9,דירה בבית קומות,5.0,חמישית + שישית + גג,120.85,1620000,,,1993.0,,8.0,3306841290,1,638388,False,55% ב 5.6 שנים,פתח תקווה,אחד העם,9.82,6383-88-9,6383/88,13405.047579644188,32.0843967498,34.8882195514,2013
2013-12-30,2013-12-30,"מבצע יפתח 2, פתח תקווה",מבצע יפתח 2,6361-529-217,דירה בבית קומות,5.0,שתים עשרה,121.7,1750000,,,2010.0,,24.0,3306279560,1,6361529,False,22% ב 3.4 שנים,פתח תקווה,מבצע יפתח,6.47,6361-529-217,6361/529,14379.62202136401,32.0990513761,34.8824682888,2013
2013-12-30,2013-12-30,"תל חי 14, פתח תקווה",תל חי 14,6377-102-7,דירה בבית קומות,3.0,א,53.82,750000,,,1960.0,,3.0,3307331593,1,6377102,False,75% ב 11 שנים,פתח תקווה,תל חי,6.82,6377-102-7,6377/102,13935.340022296545,32.0934296988,34.8853343244,2013
2013-12-30,2013-12-30,"נחמיה עמינח 3, פתח תקווה",נחמיה עמינח 3,6400-72-1,דירה בבית קומות,4.0,ראשונה,82.49,1050000,,,1984.0,,3.0,3306175943,1,640072,False,,פתח תקווה,עמינח נחמיה,,6400-72-1,6400/72,12728.81561401382,32.0976282013,34.8972655163,2013
2013-12-29,2013-12-29,"התשעים ושלוש 34, פתח תקווה",התשעים ושלוש 34,6381-168-11,דירה,4.0,,97.0,1800000,1.0,התשעים ושלוש,2012.0,,5.0,11181273853,1,6381168,False,,פתח תקווה,התשעים ושלוש,,6381-168-11,6381/168,18556.701030927838,32.0814140119,34.8789206798,2013
2013-12-29,2013-12-29,"הרב משה בלוי 19, פתח תקווה",הרב משה בלוי 19,6355-513-6,דירה בבית קומות,4.0,שלישית,75.03,1200000,,,1996.0,,4.0,3306342258,1,6355513,False,,פתח תקווה,הרב בלוי משה,,6355-513-6,6355/513,15993.602558976409,32.0963197554,34.8924843868,2013
2013-12-29,2013-12-29,"הרב פינצ'י 1, פתח תקווה",הרב פינצ'י 1,4043-74-16,דירה בבית קומות,6.0,ארבע עשרה,150.0,1810000,,,2016.0,,17.0,3306287709,1,404374,False,,פתח תקווה,הרב פינצ'י,,4043-74-16,4043/74,12066.666666666666,32.0754082874,34.9057539861,2013
2013-12-29,2013-12-29,"מבצע דקל 17, פתח תקווה",מבצע דקל 17,6366-167-146,דירה בבית קומות,4.0,קומה ‎10‏,124.55,1612000,,,2013.0,,27.0,3306708557,1,6366167,False,,פתח תקווה,מבצע דקל,,6366-167-146,6366/167,12942.593336009635,32.0958167828,34.8707727946,2013
2013-12-29,2013-12-29,"החמישה 16, פתח תקווה",החמישה 16,6390-164-1,דירה בבית קומות,2.0,,38.0,725000,,,1956.0,,1.0,3287657094,1,6390164,False,,פתח תקווה,החמישה,,6390-164-1,6390/164,19078.947368421053,32.0718708178,34.8965065257,2013
2013-12-29,2013-12-29,"אריה בראון 22, פתח תקווה",אריה בראון 22,6360-243-32,דירה בבית קומות,5.0,שמינית,110.9,1795000,,,2008.0,,10.0,3306110925,1,6360243,False,65% ב 6 שנים,פתח תקווה,בראון אריה,10.83,6360-243-32,6360/243,16185.752930568078,32.1042297533,34.8781947506,2013
2013-12-29,2013-12-29,"רופין 11, פתח תקווה",רופין 11,6362-75-3,דירה בבית קומות,3.0,א,41.12,790000,,,1966.0,,3.0,3308154613,1,636275,False,,פתח תקווה,רופין,,6362-75-3,6362/75,19212.06225680934,32.0918860832,34.8784148243,2013
2013-12-29,2013-12-29,"חדרה 11, פתח תקווה",חדרה 11,7194-16-25,דירה בבית קומות,4.0,חמישית,95.4,1530000,,,1997.0,,7.0,3306050402,1,719416,False,,פתח תקווה,חדרה,,7194-16-25,7194/16,16037.735849056602,32.1047579491,34.8721068784,2013
2013-12-29,2013-12-29,"בנימין מינץ 47, פתח תקווה",בנימין מינץ 47,6390-277-8,דירה בבית קומות,3.0,שניה,69.63,950000,,,1980.0,,5.0,3306768587,1,6390277,False,72% ב 9.3 שנים,פתח תקווה,מינץ בנימין,7.74,6390-277-8,6390/277,13643.544449231656,32.0720071161,34.8915219097,2013
2013-12-29,2013-12-29,"פרץ נפתלי 3, פתח תקווה",פרץ נפתלי 3,6361-534-4,דירה בבית קומות,1.0,ראשונה,100.0,1000000,,,1970.0,,5.0,3310514082,1,6361534,False,,פתח תקווה,פרץ נפתלי,,6361-534-4,6361/534,10000.0,32.0935183158,34.8871455954,2013
2013-12-29,2013-12-29,"דגל ראובן 60, פתח תקווה",דגל ראובן 60,6372-188-9,דירה בבית קומות,3.0,שלישית,65.09,905000,,,1960.0,,4.0,3287656340,1,6372188,False,68% ב 9.7 שנים,פתח תקווה,דגל ראובן,7.01,6372-188-9,6372/188,13903.8254724228,32.081864101,34.8686328792,2013
2013-12-29,2013-12-29,"הנשיאים 51, פתח תקווה",הנשיאים 51,6714-379-10,דירה בבית קומות,4.0,רביעית,100.96,1310000,,,1980.0,,5.0,3306252793,1,6714379,False,11% ב 4.2 שנים,פתח תקווה,הנשיאים,2.62,6714-379-10,6714/379,12975.435816164818,32.0761361603,34.8828853577,2013
2013-12-29,2013-12-29,"פרץ נפתלי 3, פתח תקווה",פרץ נפתלי 3,6361-534-4,דירה בבית קומות,1.0,ראשונה,100.0,1000000,,,1970.0,,5.0,3310514082,1,6361534,False,,פתח תקווה,פרץ,,6361-534-4,6361/534,10000.0,32.0935183158,34.8871455954,2013
2013-12-29,2013-12-29,"בייליס 16, פתח תקווה",בייליס 16,6376-146-15,דירה בבית קומות,3.0,שלישית,65.0,1200000,,,2002.0,,7.0,3306598531,1,6376146,False,,פתח תקווה,בייליס,,6376-146-15,6376/146,18461.53846153846,32.0949381728,34.881898077,2013
2013-12-29,2013-12-29,"האחים בן עזר 13, פתח תקווה",האחים בן עזר 13,6373-1000-59,דירה בבית קומות,4.0,שביעית,82.9,700000,,,1988.0,,8.0,3306444860,1,63731000,False,,פתח תקווה,האחים בן עזר,,6373-1000-59,6373/1000,8443.90832328106,32.0870180957,34.8694984179,2013
2013-12-29,2013-12-29,"ארלוזורוב 44, פתח תקווה",ארלוזורוב 44,6373-1075-2,דירה בבית קומות,3.0,שלישית,92.0,852000,,,1960.0,,5.0,3308892953,1,63731075,False,,פתח תקווה,ארלוזורוב,,6373-1075-2,6373/1075,9260.869565217392,32.0858385878,34.8692924471,2013
2013-12-29,2013-12-29,"מכנס גד 6, פתח תקווה",מכנס גד 6,6387-110-6,דירה בבית קומות,4.0,שלישית,83.32,1180000,,,1980.0,,4.0,3306112578,1,6387110,False,17% ב 3.6 שנים,פתח תקווה,מכנס גד,4.72,6387-110-6,6387/110,14162.26596255401,32.0763138622,34.8856500565,2013
2013-12-29,2013-12-29,"הוברמן 8, פתח תקווה",הוברמן 8,6388-599-13,דירה בבית קומות,3.5,רביעית,73.0,1095000,,,1989.0,,7.0,3306048952,1,6388599,False,,פתח תקווה,הוברמן,,6388-599-13,6388/599,15000.0,32.075489956,34.887322279,2013
2013-12-29,2013-12-29,"ספיר 56, פתח תקווה",ספיר 56,6355-717-15,דירה בבית קומות,4.0,רביעית,87.0,1090000,,,1980.0,,5.0,3307558663,1,6355717,False,,פתח תקווה,ספיר יוסף,,6355-717-15,6355/717,12528.735632183909,32.0975549998,34.8941378077,2013
2013-12-29,2013-12-29,"כרמלי 1, פתח תקווה",כרמלי 1,6404-278-14,דירה בבית קומות,4.0,רביעית,89.14,1400000,,,2014.0,,6.0,3306151322,1,6404278,False,,פתח תקווה,כרמלי,,6404-278-14,6404/278,15705.631590756117,32.0888526352,34.892368811,2013
2013-12-29,2013-12-29,"זאב אורלוב 16, פתח תקווה",זאב אורלוב 16,6375-333-2,דירה בבית קומות,3.0,א,68.45,920000,,,1970.0,,3.0,3308091451,1,6375333,False,,פתח תקווה,אורלוב זאב,,6375-333-2,6375/333,13440.467494521548,32.0925737085,34.8794593146,2013
2013-12-29,2013-12-29,"פרופ' שור 17, פתח תקווה",פרופ' שור 17,6361-273-1,דירה בבית קומות,3.0,קרקע,39.0,868000,,,1960.0,,3.0,3306808085,1,6361273,False,22% ב 1.2 שנים,פתח תקווה,פרופ' שור,18.33,6361-273-1,6361/273,22256.410256410258,32.0942663644,34.8873962877,2013
2013-12-28,2013-12-28,"הרב פינצ'י 1, פתח תקווה",הרב פינצ'י 1,4043-74-15,דירה,6.0,ארבע עשרה,140.0,1810000,1.0,משכנות הדר גנים,2016.0,,17.0,11181244239,1,404374,False,,פתח תקווה,הרב פינצ'י,,4043-74-15,4043/74,12928.57142857143,32.0754082874,34.9057539861,2013
2013-12-27,2013-12-27,"צבי הרמן שפירא 13, פתח תקווה",צבי הרמן שפירא 13,6382-196-15,דירה בבית קומות,4.0,חמישית,85.4,1140000,,,1960.0,,6.0,3306589860,1,6382196,False,,פתח תקווה,שפירא הרמן צבי,,6382-196-15,6382/196,13348.94613583138,32.0834937274,34.8860298146,2013
2013-12-27,2013-12-27,"אחד העם 28, פתח תקווה",אחד העם 28,6385-86-5,דירה בבית קומות,4.0,א,72.42,1100000,,,1970.0,,7.0,3307177023,1,638586,False,126% ב 15.8 שנים,פתח תקווה,אחד העם,7.97,6385-86-5,6385/86,15189.174261253796,32.0842215185,34.8886283804,2013
2013-12-27,2013-12-27,"היבנר 29, פתח תקווה",היבנר 29,6712-342-18,דירה בבית קומות,4.0,שלישית,110.0,1450000,,,1985.0,,6.0,3287639172,1,6712342,False,74% ב 15.5 שנים,פתח תקווה,היבנר,4.77,6712-342-18,6712/342,13181.818181818182,32.0800928897,34.8753953058,2013
2013-12-26,2013-12-26,"אמיר בנימיני 5, פתח תקווה",אמיר בנימיני 5,6405-242-7,דירה בבית קומות,3.0,שניה,63.58,1045000,,,1982.0,,3.0,3306861213,1,6405242,False,10% ב 1.3 שנים,פתח תקווה,בנימיני אמיר,7.69,6405-242-7,6405/242,16435.98615916955,32.0854680401,34.8975229237,2013
2013-12-26,2013-12-26,"הרב פינצ'י 14, פתח תקווה",הרב פינצ'י 14,5482-72-6,דירה בבית קומות,4.0,ראשונה,84.0,2300000,,,2004.0,,3.0,3287645842,1,548272,False,,פתח תקווה,הרב פינצ'י,,5482-72-6,5482/72,27380.95238095238,32.0742476067,34.9076148654,2013
2013-12-26,2013-12-26,"אהרון כצנלסון 26, פתח תקווה",אהרון כצנלסון 26,6362-271-11,דירה בבית קומות,5.0,קומה ‎3‏,126.25,1640000,,,2012.0,,17.0,3306191284,1,6362271,False,,פתח תקווה,כצנלסון אהרון,,6362-271-11,6362/271,12990.09900990099,32.0957380563,34.8760847077,2013
2013-12-26,2013-12-26,"מבצע יפתח 2, פתח תקווה",מבצע יפתח 2,6361-529-234,דירה בבית קומות,4.0,שש עשרה,101.3,1590000,,,2010.0,,24.0,3306538443,1,6361529,False,24% ב 3.4 שנים,פתח תקווה,מבצע יפתח,7.06,6361-529-234,6361/529,15695.952615992102,32.0990513761,34.8824682888,2013
2013-12-26,2013-12-26,"טרומפלדור 35, פתח תקווה",טרומפלדור 35,6394-225-8,דירה בבית קומות,3.0,ג,56.11,888000,,,1970.0,,3.0,3306019024,1,6394225,False,36% ב 3.2 שנים,פתח תקווה,טרומפלדור,11.25,6394-225-8,6394/225,15826.055961504188,32.0840535903,34.8785184526,2013
2013-12-26,2013-12-26,"הזוהר 3, פתח תקווה",הזוהר 3,6389-84-14,דירה בבית קומות,4.0,רביעית,75.0,1100000,,,2010.0,,5.0,3307773002,1,638984,False,,פתח תקווה,הזוהר,,6389-84-14,6389/84,14666.666666666666,32.0793443048,34.8947007585,2013
2013-12-26,2013-12-26,"רוטשילד 95, פתח תקווה",רוטשילד 95,6382-219-6,דירה בבית קומות,3.0,קרקע,41.4,1025000,,,1960.0,,3.0,3306114985,1,6382219,False,,פתח תקווה,רוטשילד,,6382-219-6,6382/219,24758.454106280195,32.0842543489,34.8830761795,2013
2013-12-26,2013-12-26,"הרב הרצוג 17, פתח תקווה",הרב הרצוג 17,6400-488-28,דירה בבית קומות,4.0,שלישית,86.93,1050000,,,1970.0,,4.0,3306032886,1,6400488,False,,פתח תקווה,הרב הרצוג,,6400-488-28,6400/488,12078.683998619576,32.0973353341,34.8981710365,2013
2013-12-26,2013-12-26,"בן-חור 2, פתח תקווה",בן-חור 2,6357-87-44,דירה בבית קומות,5.0,קומה ‎11‏,117.56,1750000,,,2007.0,,14.0,3306345129,1,635787,False,53% ב 6.9 שנים,פתח תקווה,בן חור,7.68,6357-87-44,6357/87,14886.01565158217,32.1039868313,34.8806775457,2013
2013-12-26,2013-12-26,"מסקין 48, פתח תקווה",מסקין 48,6716-354-21,דירה בבית קומות,5.0,שישית,144.15,2385000,,,2014.0,,7.0,3306709746,1,6716354,False,,פתח תקווה,מסקין,,6716-354-21,6716/354,16545.265348595214,32.0727453396,34.875277195,2013
2013-12-26,2013-12-26,"הנרייטה סאלד 44, פתח תקווה",הנרייטה סאלד 44,6389-270-18,דירה בבית קומות,3.0,חמישית,62.8,955000,,,1970.0,,8.0,3306040049,1,6389270,False,,פתח תקווה,סולד הנריטה,,6389-270-18,6389/270,15207.006369426752,32.0762764731,34.8977280088,2013
2013-12-26,2013-12-26,"מחנה יהודה 23, פתח תקווה",מחנה יהודה 23,6405-208-11,דירה בבית קומות,5.0,שלישית,105.0,1230000,,,1985.0,,6.0,3306279328,1,6405208,False,,פתח תקווה,מחנה יהודה,,6405-208-11,6405/208,11714.285714285714,32.0836537992,34.8966807384,2013
2013-12-26,2013-12-26,"זרח ברנט 20, פתח תקווה",זרח ברנט 20,6403-112-13,דירה בבית קומות,3.0,חמישית,60.8,1200000,,,1970.0,,5.0,3306069281,1,6403112,False,,פתח תקווה,ברנט זרח,,6403-112-13,6403/112,19736.84210526316,32.094844144,34.8945081571,2013
2013-12-26,2013-12-26,"העליה השניה 2, פתח תקווה",העליה השניה 2,6379-1-58,דירה בבית קומות,4.0,ג,73.17,1120000,,,1960.0,,8.0,3287635576,1,63791,False,13% ב 2.9 שנים,פתח תקווה,העליה השניה,4.48,6379-1-58,6379/1,15306.819734864015,32.0866868679,34.8876439429,2013
2013-12-26,2013-12-26,"הירקונים 12, פתח תקווה",הירקונים 12,6400-503-5,דירה בבית קומות,4.0,שלישית,101.1,1320000,,,2014.0,,5.0,3306127165,1,6400503,False,,פתח תקווה,הירקונים,,6400-503-5,6400/503,13056.379821958457,32.0981849444,34.8966571405,2013
2013-12-26,2013-12-26,"פרץ נפתלי 3, פתח תקווה",פרץ נפתלי 3,6361-534-1,דירה בבית קומות,1.0,ראשונה,100.0,100000,,,1970.0,,5.0,3310509500,1,6361534,False,,פתח תקווה,פרץ,,6361-534-1,6361/534,1000.0,32.0935183158,34.8871455954,2013
2013-12-26,2013-12-26,"פרץ נפתלי 3, פתח תקווה",פרץ נפתלי 3,6361-534-2,דירה בבית קומות,1.0,ראשונה,100.0,1000000,,,1970.0,,5.0,3310514314,1,6361534,False,,פתח תקווה,פרץ,,6361-534-2,6361/534,10000.0,32.0935183158,34.8871455954,2013
2013-12-26,2013-12-26,"עמנואל זמיר 4, פתח תקווה",עמנואל זמיר 4,6371-636-94,דירה בבית קומות,5.0,שביעית,117.3,2050000,,,2009.0,,9.0,3307540683,1,6371636,False,,פתח תקווה,זמיר עמנואל,,6371-636-94,6371/636,17476.555839727196,32.0726816587,34.8644938754,2013
2013-12-26,2013-12-26,"יהושע שטמפפר 106, פתח תקווה",יהושע שטמפפר 106,6355-82-3,דירה בבית קומות,3.0,ראשונה,78.05,900000,,,1980.0,,4.0,3306966715,1,635582,False,28% ב 4.2 שנים,פתח תקווה,שטמפפר יהושע,6.67,6355-82-3,6355/82,11531.069827033953,32.0960563994,34.8947238378,2013
2013-12-26,2013-12-26,"של""ג 17, פתח תקווה","של""ג 17",6193-241-1,בית בודד,4.0,,117.0,2550000,,,1960.0,,1.0,3307164785,1,6193241,False,,פתח תקווה,"של""ג",,6193-241-1,6193/241,21794.871794871797,32.090293704,34.8481767728,2013
2013-12-26,2013-12-26,"פרץ נפתלי 3, פתח תקווה",פרץ נפתלי 3,6361-534-1,דירה בבית קומות,1.0,ראשונה,100.0,100000,,,1970.0,,5.0,3310509500,1,6361534,False,,פתח תקווה,פרץ נפתלי,,6361-534-1,6361/534,1000.0,32.0935183158,34.8871455954,2013
2013-12-26,2013-12-26,"פרץ נפתלי 3, פתח תקווה",פרץ נפתלי 3,6361-534-2,דירה בבית קומות,1.0,ראשונה,100.0,1000000,,,1970.0,,5.0,3310514314,1,6361534,False,,פתח תקווה,פרץ נפתלי,,6361-534-2,6361/534,10000.0,32.0935183158,34.8871455954,2013
2013-12-25,2013-12-25,"הרב מימון 22, פתח תקווה",הרב מימון 22,6388-396-8,דירה בבית קומות,3.5,רביעית,75.79,1180000,,,1997.0,,5.0,3287624759,1,6388396,False,,פתח תקווה,הרב מימון,,6388-396-8,6388/396,15569.336324053304,32.0770874301,34.8929259501,2013
2013-12-25,2013-12-25,"יעל רום 5, פתח תקווה",יעל רום 5,6360-305-60,דירה בבית קומות,5.0,שבע עשרה,120.1,1872000,,,2011.0,,22.0,3306812348,1,6360305,False,,פתח תקווה,רום יעל,,6360-305-60,6360/305,15587.010824313073,32.0996732412,34.8808075308,2013
2013-12-25,2013-12-25,"הרב פינצ'י 1, פתח תקווה",הרב פינצ'י 1,4043-74-344,דירה בבית קומות,4.0,חמישית,101.0,1370000,,,2016.0,,17.0,3306131022,1,404374,False,,פתח תקווה,הרב פינצ'י,,4043-74-344,4043/74,13564.356435643564,32.0754082874,34.9057539861,2013
2013-12-25,2013-12-25,"אליעזר קפלן 3, פתח תקווה",אליעזר קפלן 3,6373-887-12,דירה בבית קומות,3.5,שלישית,71.0,1040000,,,1960.0,,4.0,3306068527,1,6373887,False,,פתח תקווה,קפלן אליעזר,,6373-887-12,6373/887,14647.887323943662,32.0905376769,34.869528828,2013
2013-12-25,2013-12-25,"יהושע שטמפפר 18, פתח תקווה",יהושע שטמפפר 18,6378-137-9,דירה בבית קומות,1.0,ראשונה,,120000,,,1970.0,,3.0,3307095649,1,6378137,False,,פתח תקווה,שטמפפר יהושע,,6378-137-9,6378/137,,32.0904264479,34.8867633548,2013
2013-12-25,2013-12-25,"מיכל לייב כץ 41, פתח תקווה",מיכל לייב כץ 41,6388-598-7,דירה בבית קומות,5.0,שניה,100.0,1500000,,,1990.0,,7.0,3306410205,1,6388598,False,104% ב 12.4 שנים,פתח תקווה,כץ מיכל לייב,8.39,6388-598-7,6388/598,15000.0,32.0752116635,34.8867364013,2013
2013-12-25,2013-12-25,"יוסף רוזובסקי 9, פתח תקווה",יוסף רוזובסקי 9,5481-35-11,דירה בבית קומות,3.0,שלישית,73.5,1005000,,,1996.0,,5.0,3307142803,1,548135,False,,פתח תקווה,רוזובסקי יוסף,,5481-35-11,5481/35,13673.469387755102,32.0682496792,34.9145300336,2013
2013-12-25,2013-12-25,"מבצע יפתח 2, פתח תקווה",מבצע יפתח 2,6361-529-235,דירה בבית קומות,4.0,שש עשרה,101.3,1600000,,,2010.0,,24.0,3287474510,1,6361529,False,22% ב 3.4 שנים,פתח תקווה,מבצע יפתח,6.47,6361-529-235,6361/529,15794.66929911155,32.0990513761,34.8824682888,2013
2013-12-25,2013-12-25,"חדרה 8, פתח תקווה",חדרה 8,7194-73-10,דירה בבית קומות,5.0,שניה,122.4,1660000,,,1999.0,,4.0,3287520272,1,719473,False,,פתח תקווה,חדרה,,7194-73-10,7194/73,13562.091503267971,32.1060712807,34.8732077227,2013
2013-12-25,2013-12-25,"התחיה 3, פתח תקווה",התחיה 3,4042-171-1,דירה בבית קומות,2.0,א,36.9,625000,,,1958.0,,2.0,3306868405,1,4042171,False,,פתח תקווה,התחיה,,4042-171-1,4042/171,16937.669376693768,32.0770565766,34.9030953184,2013
2013-12-25,2013-12-25,"יוסף רוזובסקי 10, פתח תקווה",יוסף רוזובסקי 10,5481-27-7,דירה בבית קומות,4.0,ראשונה,87.15,1200000,,,1997.0,,4.0,3307655958,1,548127,False,,פתח תקווה,רוזובסקי יוסף,,5481-27-7,5481/27,13769.363166953528,32.0688537076,34.9140352942,2013
2013-12-25,2013-12-25,"מסקין 11, פתח תקווה",מסקין 11,6712-450-1,דירה בבית קומות,5.0,ראשונה,126.6,1960000,,,2003.0,,5.0,3287597499,1,6712450,False,,פתח תקווה,מסקין,,6712-450-1,6712/450,15481.83254344392,32.0757254362,34.8764357194,2013
2013-12-25,2013-12-25,"כרמלי 1, פתח תקווה",כרמלי 1,6404-278-18,דירה בבית קומות,4.0,חמישית,89.14,1400000,,,2014.0,,6.0,3287538658,1,6404278,False,,פתח תקווה,כרמלי,,6404-278-18,6404/278,15705.631590756117,32.0888526352,34.892368811,2013
2013-12-25,2013-12-25,"שמשון 3, פתח תקווה",שמשון 3,6367-168-95,משרד,,שניה,88.0,900000,,,2010.0,,6.0,3307087036,1,6367168,False,,פתח תקווה,שמשון,,6367-168-95,6367/168,10227.272727272728,32.0944984291,34.8643729433,2013
2013-12-24,2013-12-24,"הרב ישעיהו משורר 14, פתח תקווה",הרב ישעיהו משורר 14,6811-55-88,דירה בבית קומות,4.0,חמישית,107.0,1430000,,,2014.0,,19.0,9578117472,1,681155,False,,פתח תקווה,הרב משורר ישעיהו,,6811-55-88,6811/55,13364.485981308411,32.0687920446,34.9076335474,2013
2013-12-24,2013-12-24,"הרצל 63, פתח תקווה",הרצל 63,6383-292-15,דירה בבית קומות,3.0,ג,61.62,1100000,,,1970.0,,4.0,3306109011,1,6383292,False,,פתח תקווה,הרצל,,6383-292-15,6383/292,17851.346965271016,32.0859823012,34.8896471141,2013
2013-12-24,2013-12-24,"קיש 6, פתח תקווה",קיש 6,6388-64-14,דירה בבית קומות,3.0,רביעית,67.37,1110000,,,1998.0,,7.0,3307472736,1,638864,False,76% ב 9.8 שנים,פתח תקווה,קיש,7.76,6388-64-14,6388/64,16476.17633961704,32.0764541119,34.8948020515,2013
2013-12-24,2013-12-24,"דניאל ליפשיץ 1, פתח תקווה",דניאל ליפשיץ 1,6712-483-23,דירה בבית קומות,5.0,שישית+שביעית,158.56,2710000,,,2009.0,,6.0,3306062553,1,6712483,False,,פתח תקווה,ליפשיץ דניאל,,6712-483-23,6712/483,17091.321897073663,32.0750797391,34.8743551333,2013
2013-12-24,2013-12-24,"טרומפלדור 27, פתח תקווה",טרומפלדור 27,6394-241-2,דירה בבית קומות,5.0,ראשונה,105.8,1230000,,,1980.0,,5.0,3306851614,1,6394241,False,,פתח תקווה,טרומפלדור,,6394-241-2,6394/241,11625.70888468809,32.0851428005,34.8785588476,2013
2013-12-24,2013-12-24,"צה""ל 76, פתח תקווה","צה""ל 76",6372-179-12,דירה בבית קומות,2.0,שלישית,50.8,950000,,,1960.0,,4.0,3306276457,1,6372179,False,117% ב 14.5 שנים,פתח תקווה,"צה""ל",8.07,6372-179-12,6372/179,18700.78740157481,32.0820516857,34.869561591,2013
2013-12-24,2013-12-24,"מבצע יפתח 6, פתח תקווה",מבצע יפתח 6,6361-529-17,דירה בבית קומות,5.0,חמישית,121.7,1650000,,,2010.0,,24.0,3306048198,1,6361529,False,19% ב 3.4 שנים,פתח תקווה,מבצע חורב,5.59,6361-529-17,6361/529,13557.929334428924,32.0990513761,34.8824682888,2013
2013-12-24,2013-12-24,"הרב פינצ'י 1, פתח תקווה",הרב פינצ'י 1,4043-74-14,דירה,4.0,שישית,101.0,1375000,1.0,משכנות הדר גנים,2016.0,,17.0,11181244229,1,404374,False,,פתח תקווה,הרב פינצ'י,,4043-74-14,4043/74,13613.861386138617,32.0754082874,34.9057539861,2013
2013-12-24,2013-12-24,"הרב פינצ'י 1, פתח תקווה",הרב פינצ'י 1,4043-74-346,דירה בבית קומות,4.0,חמישית,101.0,1396000,,,2016.0,,17.0,3306133893,1,404374,False,,פתח תקווה,הרב פינצ'י,,4043-74-346,4043/74,13821.782178217822,32.0754082874,34.9057539861,2013
2013-12-24,2013-12-24,"אהרון כצנלסון 23, פתח תקווה",אהרון כצנלסון 23,6362-165-3,דירה בבית קומות,4.0,שניה,92.9,1550000,,,2005.0,,7.0,3287635112,1,6362165,False,77% ב 7.5 שנים,פתח תקווה,כצנלסון אהרון,10.27,6362-165-3,6362/165,16684.607104413346,32.0952383753,34.8751354369,2013
2013-12-24,2013-12-24,"המכבים 3, פתח תקווה",המכבים 3,6361-444-160,דירה בבית קומות,4.0,עשירית,71.84,1040000,,,1998.0,,17.0,3287474278,1,6361444,False,,פתח תקווה,המכבים,,6361-444-160,6361/444,14476.614699331849,32.0939870138,34.889769975,2013
2013-12-24,2013-12-24,"משה סנה 12, פתח תקווה",משה סנה 12,6360-281-7,דירה בבית קומות,5.0,שניה,133.75,1730000,,,2003.0,,20.0,3306713371,1,6360281,False,76% ב 9.5 שנים,פתח תקווה,סנה משה,8.0,6360-281-7,6360/281,12934.579439252337,32.099858408,34.8797733563,2013
2013-12-24,2013-12-24,"הרב פינצ'י 1, פתח תקווה",הרב פינצ'י 1,4043-74-13,דירה,4.0,חמישית,101.0,1370000,1.0,משכנות הדר גנים,2016.0,,17.0,11181244222,1,404374,False,,פתח תקווה,הרב פינצ'י,,4043-74-13,4043/74,13564.356435643564,32.0754082874,34.9057539861,2013
2013-12-23,2013-12-23,"דוד פרנקפורטר 5, פתח תקווה",דוד פרנקפורטר 5,6394-176-14,דירה בבית קומות,2.0,ג,51.01,950000,,,1960.0,,3.0,3306349885,1,6394176,False,122% ב 6.3 שנים,פתח תקווה,פרנקפורטר דוד,19.37,6394-176-14,6394/176,18623.79925504803,32.0851556309,34.8814601518,2013
2013-12-23,2013-12-23,"יהודה הלוי 9, פתח תקווה",יהודה הלוי 9,6379-111-5,דירה בבית קומות,3.0,שלישית,57.0,1200000,,,1970.0,,4.0,3306110461,1,6379111,False,,פתח תקווה,יהודה הלוי,,6379-111-5,6379/111,21052.63157894737,32.0894004334,34.8896505329,2013
2013-12-23,2013-12-23,"שלמה שדרובצקי 12, פתח תקווה",שלמה שדרובצקי 12,6372-391-1,בית בודד,6.0,,229.0,6400000,,,2000.0,,,3306560222,1,6372391,False,,פתח תקווה,שדרובצקי שלמה,,6372-391-1,6372/391,27947.598253275108,32.08155006,34.8618558867,2013
2013-12-23,2013-12-23,"הרב פינצ'י 1, פתח תקווה",הרב פינצ'י 1,4043-74-12,דירה,4.0,חמישית,118.0,1396285,1.0,משכנות הדר גנים,2016.0,,17.0,11181244211,1,404374,False,,פתח תקווה,הרב פינצ'י,,4043-74-12,4043/74,11832.92372881356,32.0754082874,34.9057539861,2013
2013-12-23,2013-12-23,"אליהו גולומב 24, פתח תקווה",אליהו גולומב 24,6355-330-6,דירה בבית קומות,5.0,רביעית,90.0,1030000,,,1976.0,,4.0,3306438654,1,6355330,False,,פתח תקווה,גולומב אליהו,,6355-330-6,6355/330,11444.444444444443,32.0974679293,34.8906437091,2013
2013-12-23,2013-12-23,"גרינשפן 27, פתח תקווה",גרינשפן 27,6362-257-188,דירה בבית קומות,6.0,שמונה עשרה,140.0,1933000,,,2013.0,,21.0,3306023809,1,6362257,False,,פתח תקווה,גרינשפן,,6362-257-188,6362/257,13807.142857142857,32.0963582794,34.874025839,2013
2013-12-23,2013-12-23,"ויסבורג 2, פתח תקווה",ויסבורג 2,6400-362-19,דירה בבית קומות,2.0,ג',44.3,600000,,,1960.0,,5.0,3306470699,1,6400362,False,,פתח תקווה,ויסבורג,,6400-362-19,6400/362,13544.018058690746,32.0940900049,34.9042061142,2013
2013-12-22,2013-12-22,"הנח""ל 16, פתח תקווה","הנח""ל 16",6399-123-1,קוטג' דו משפחתי,3.0,ראשונה,73.0,1800000,,,1960.0,,1.0,3306386541,1,6399123,False,,פתח תקווה,"הנח""ל",,6399-123-1,6399/123,24657.534246575346,32.0981376186,34.9011595486,2013
2013-12-22,2013-12-22,"גרינשפן 27, פתח תקווה",גרינשפן 27,6362-257-189,דירה בבית קומות,6.0,שבע עשרה,140.0,1923000,,,2013.0,,21.0,3306023113,1,6362257,False,,פתח תקווה,גרינשפן,,6362-257-189,6362/257,13735.714285714286,32.0963582794,34.874025839,2013
2013-12-22,2013-12-22,"מבצע יפתח 2, פתח תקווה",מבצע יפתח 2,6361-529-198,דירה בבית קומות,4.0,שביעית,101.3,1640000,,,2010.0,,24.0,3287604430,1,6361529,False,35% ב 3.4 שנים,פתח תקווה,מבצע יפתח,10.29,6361-529-198,6361/529,16189.53603158934,32.0990513761,34.8824682888,2013
2013-12-22,2013-12-22,"יעל רום 5, פתח תקווה",יעל רום 5,6360-305-52,דירה בבית קומות,5.0,חמש עשרה,120.1,1887000,,,2011.0,,22.0,3307186622,1,6360305,False,,פתח תקווה,רום יעל,,6360-305-52,6360/305,15711.906744379685,32.0996732412,34.8808075308,2013
2013-12-22,2013-12-22,"כרמלי 1, פתח תקווה",כרמלי 1,6404-278-8,דירה בבית קומות,3.0,שניה,79.16,1125000,,,2014.0,,6.0,3287415205,1,6404278,False,,פתח תקווה,כרמלי,,6404-278-8,6404/278,14211.723092470946,32.0888526352,34.892368811,2013
2013-12-22,2013-12-22,"אנדרסן 7, פתח תקווה",אנדרסן 7,6373-285-8,קוטג' טורי,3.0,ראשונה,89.0,1300000,,,1950.0,,2.0,3306183367,1,6373285,False,,פתח תקווה,אנדרסן,,6373-285-8,6373/285,14606.741573033709,32.0896206487,34.8738671603,2013
2013-12-22,2013-12-22,"יהושע שטמפפר 101, פתח תקווה",יהושע שטמפפר 101,6355-742-1,דירה בבית קומות,4.0,שניה,100.0,1430000,,,1990.0,,4.0,3306109939,1,6355742,False,,פתח תקווה,שטמפפר יהושע,,6355-742-1,6355/742,14300.0,32.0956899115,34.893035872,2013
2013-12-22,2013-12-22,"סיני 14, פתח תקווה",סיני 14,6388-580-1,דירה בבית קומות,1.0,קרקע,61.0,1200000,,,1950.0,,1.0,3287637229,1,6388580,False,,פתח תקווה,סיני,,6388-580-1,6388/580,19672.131147540986,32.072558919,34.8936969556,2013
2013-12-22,2013-12-22,"העצמון 1, פתח תקווה",העצמון 1,6372-150-21,דירה בבית קומות,3.0,שלישית,49.0,1030000,,,1960.0,,3.0,3287547039,1,6372150,False,21% ב 1.1 שנים,פתח תקווה,העצמון,19.09,6372-150-21,6372/150,21020.408163265307,32.0855080627,34.866454404,2013
2013-12-21,2013-12-21,"יעל רום 15, פתח תקווה",יעל רום 15,6360-178-60,דירה בבית קומות,5.0,חמש עשרה,113.25,1800000,,,2006.0,,20.0,3287519750,1,6360178,False,,פתח תקווה,רום יעל,,6360-178-60,6360/178,15894.039735099335,32.101585597,34.8816585504,2013
2013-12-21,2013-12-21,"יהודה הלוי 26, פתח תקווה",יהודה הלוי 26,6379-48-4,דירה בבית קומות,3.0,א,60.8,970000,,,1960.0,,3.0,3307172963,1,637948,False,,פתח תקווה,יהודה הלוי,,6379-48-4,6379/48,15953.947368421052,32.0878071995,34.8896613464,2013
2013-12-21,2013-12-21,"ישראל עידוד 10, פתח תקווה",ישראל עידוד 10,6371-894-5,דירה בבית קומות,5.0,ראשונה,127.3,2042000,,,2007.0,,6.0,3287546575,1,6371894,False,0% ב 0.2 שנים,פתח תקווה,עידוד ישראל,0.0,6371-894-5,6371/894,16040.848389630792,32.0716230473,34.8631285608,2013
2013-12-20,2013-12-20,"צה""ל 60, פתח תקווה","צה""ל 60",6373-841-21,דירה בבית קומות,2.0,שלישית,35.4,680000,,,1970.0,,4.0,3287549446,1,6373841,False,,פתח תקווה,"צה""ל",,6373-841-21,6373/841,19209.0395480226,32.0836905009,34.8695213724,2013
2013-12-20,2013-12-20,"הפורצים 9, פתח תקווה",הפורצים 9,6373-454-2,דירה בבית קומות,2.0,א,45.28,650000,,,1960.0,,3.0,3306203464,1,6373454,False,,פתח תקווה,הפורצים,,6373-454-2,6373/454,14355.12367491166,32.0887382132,34.8769294508,2013
2013-12-19,2013-12-19,"חדרה 23, פתח תקווה",חדרה 23,7194-15-97,דירה בבית קומות,4.0,שלישית,94.64,1635000,,,1999.0,,6.0,3287350883,1,719415,False,69% ב 6.3 שנים,פתח תקווה,חדרה,10.95,7194-15-97,7194/15,17275.9932375317,32.1036267239,34.8714205595,2013
2013-12-19,2013-12-19,"אלכסנדר גרוטו 6, פתח תקווה",אלכסנדר גרוטו 6,6362-172-129,דירה בבית קומות,5.0,שישית,125.0,1730000,,,2014.0,,9.0,3306136532,1,6362172,False,,פתח תקווה,גרוטו אלכסנדר,,6362-172-129,6362/172,13840.0,32.0931377202,34.8758107566,2013
2013-12-19,2013-12-19,"מבצע יפתח 2, פתח תקווה",מבצע יפתח 2,6361-529-180,דירה בבית קומות,5.0,שלישית,121.7,1670000,,,2010.0,,24.0,3287346562,1,6361529,False,23% ב 3.4 שנים,פתח תקווה,מבצע יפתח,6.76,6361-529-180,6361/529,13722.26787181594,32.0990513761,34.8824682888,2013
2013-12-19,2013-12-19,"כרמלי 1, פתח תקווה",כרמלי 1,6404-278-20,דירה בבית קומות,4.0,חמישית,91.61,1400000,,,2014.0,,6.0,3287412537,1,6404278,False,,פתח תקווה,כרמלי,,6404-278-20,6404/278,15282.174435105338,32.0888526352,34.892368811,2013
2013-12-19,2013-12-19,"חפץ חיים 6, פתח תקווה",חפץ חיים 6,6382-58-4,משרד,,קרקע,24.6,500000,,,1930.0,,3.0,3306773633,1,638258,False,,פתח תקווה,חפץ חיים,,6382-58-4,6382/58,20325.20325203252,32.0847028863,34.886552911,2013
2013-12-19,2013-12-19,"משה סנה 41, פתח תקווה",משה סנה 41,6360-187-35,דירה בבית קומות,5.0,תשיעית,112.0,1720000,,,2006.0,,19.0,3306842044,1,6360187,False,69% ב 7 שנים,פתח תקווה,סנה משה,9.86,6360-187-35,6360/187,15357.142857142857,32.1035234472,34.8799717823,2013
2013-12-19,2013-12-19,"ארלוזורוב 44, פתח תקווה",ארלוזורוב 44,6373-1075-1,דירה בבית קומות,4.0,ראשונה,91.0,852000,,,1960.0,,5.0,3308890778,1,63731075,False,,פתח תקווה,ארלוזורוב,,6373-1075-1,6373/1075,9362.637362637362,32.0858385878,34.8692924471,2013
2013-12-19,2013-12-19,"הצוערים 8, פתח תקווה",הצוערים 8,6373-895-7,דירה בבית קומות,4.0,ראשונה,78.0,1020000,,,1970.0,,3.0,3287549678,1,6373895,False,52% ב 5.7 שנים,פתח תקווה,הצוערים,9.12,6373-895-7,6373/895,13076.923076923076,32.0895104265,34.870347629,2013
2013-12-19,2013-12-19,"חנה רובינא 10, פתח תקווה",חנה רובינא 10,5510-7-1,דירה בבית קומות,4.0,קרקע,72.8,1350000,,,1992.0,,5.0,3287492026,1,55107,False,,פתח תקווה,רובינא חנה,,5510-7-1,5510/7,18543.956043956045,32.0758352417,34.9097592117,2013
2013-12-19,2013-12-19,"אחד העם 29, פתח תקווה",אחד העם 29,6383-96-19,דירה בבית קומות,5.0,שלישית,128.27,1566000,,,2014.0,,8.0,3287367819,1,638396,False,,פתח תקווה,אחד העם,,6383-96-19,6383/96,12208.622437046854,32.0844854891,34.8871835657,2013
2013-12-19,2013-12-19,"שרגא רפאלי 18, פתח תקווה",שרגא רפאלי 18,7209-26-19,דירה בבית קומות,5.0,שלישית,125.0,1790000,,,2005.0,,17.0,3306157528,1,720926,False,,פתח תקווה,רפאלי שרגא,,7209-26-19,7209/26,14320.0,32.1064952013,34.8764942506,2013
2013-12-19,2013-12-19,"היבנר 33, פתח תקווה",היבנר 33,6712-270-6,דירה בבית קומות,4.0,שניה,95.5,1425000,,,1970.0,,4.0,3287407085,1,6712270,False,,פתח תקווה,היבנר,,6712-270-6,6712/270,14921.465968586388,32.0801500545,34.8744489246,2013
2013-12-18,2013-12-18,"בנימין מינץ 26, פתח תקווה",בנימין מינץ 26,6388-618-18,דירה בבית קומות,4.0,חמישית,103.1,1235000,,,1989.0,,7.0,3287553535,1,6388618,False,,פתח תקווה,מינץ בנימין,,6388-618-18,6388/618,11978.66149369544,32.074579485,34.88966317,2013
2013-12-18,2013-12-18,"יעל רום 4, פתח תקווה",יעל רום 4,6376-261-61,דירה בבית קומות,5.0,שש עשרה,151.55,2088000,,,2016.0,,23.0,3306130500,1,6376261,False,,פתח תקווה,רום יעל,,6376-261-61,6376/261,13777.631144836689,32.0983682639,34.8802701996,2013
2013-12-18,2013-12-18,"בגין מנחם 14, פתח תקווה",בגין מנחם 14,5509-39-12,דירה בבית קומות,4.0,ראשונה,80.9,1170000,,,1995.0,,3.0,3307112875,1,550939,False,46% ב 4.9 שנים,פתח תקווה,בגין מנחם,9.39,5509-39-12,5509/39,14462.29913473424,32.079246449,34.9070475548,2013
2013-12-18,2013-12-18,"גרינשפן 27, פתח תקווה",גרינשפן 27,6362-257-190,דירה בבית קומות,6.0,עשרים ושתיים,140.0,2839000,,,2013.0,,21.0,3306797065,1,6362257,False,,פתח תקווה,גרינשפן,,6362-257-190,6362/257,20278.571428571428,32.0963582794,34.874025839,2013
2013-12-18,2013-12-18,"דניאל ליפשיץ 1, פתח תקווה",דניאל ליפשיץ 1,6712-483-17,דירה בבית קומות,5.0,רביעית,122.34,2000000,,,2009.0,,6.0,3306427924,1,6712483,False,,פתח תקווה,ליפשיץ דניאל,,6712-483-17,6712/483,16347.882949158084,32.0750797391,34.8743551333,2013
2013-12-18,2013-12-18,"ביל""ו 17, פתח תקווה","ביל""ו 17",6374-263-6,דירה בבית קומות,3.0,ב,63.71,1219000,,,1970.0,,6.0,3306791787,1,6374263,False,90% ב 6.7 שנים,פתח תקווה,"ביל""ו",13.43,6374-263-6,6374/263,19133.574007220217,32.0868310819,34.8794447449,2013
2013-12-18,2013-12-18,"הרב ישעיהו משורר 4, פתח תקווה",הרב ישעיהו משורר 4,6811-58-93,דירה בבית קומות,5.0,קומה ‎6‏,114.03,1600000,,,2015.0,,19.0,9576114660,1,681158,False,,פתח תקווה,הרב משורר ישעיהו,,6811-58-93,6811/58,14031.39524686486,32.0688695517,34.9097677073,2013
2013-12-18,2013-12-18,"כ""ט בנובמבר 7, פתח תקווה","כ""ט בנובמבר 7",6403-105-7,דירה בבית קומות,3.0,שניה,64.2,870000,,,1975.0,,4.0,3287463548,1,6403105,False,138% ב 6.8 שנים,פתח תקווה,"כ""ט בנובמבר",20.29,6403-105-7,6403/105,13551.401869158875,32.0940502021,34.8960612278,2013
2013-12-18,2013-12-18,"הרצל 12, פתח תקווה",הרצל 12,6382-292-21,דירה בבית קומות,4.0,רביעית,101.62,1590000,,,2013.0,,8.0,3287384581,1,6382292,False,,פתח תקווה,הרצל,,6382-292-21,6382/292,15646.52627435544,32.0847446161,34.8839737952,2013
2013-12-18,2013-12-18,"דוד וולפסון 20, פתח תקווה",דוד וולפסון 20,6383-31-6,דירה בבית קומות,4.0,שלישית,100.21,1280000,,,1985.0,,6.0,3306868173,1,638331,False,87% ב 8.4 שנים,פתח תקווה,וולפסון דוד,10.36,6383-31-6,6383/31,12773.176329707614,32.0863284933,34.889428642,2013
2013-12-18,2013-12-18,"צבי הרמן שפירא 18, פתח תקווה",צבי הרמן שפירא 18,6382-48-4,דירה בבית קומות,2.0,ב,52.96,850000,,,1960.0,,3.0,3306270715,1,638248,False,,פתח תקווה,שפירא הרמן צבי,,6382-48-4,6382/48,16049.848942598188,32.0833091097,34.8853522616,2013
2013-12-18,2013-12-18,"השלושה 2, פתח תקווה",השלושה 2,6403-142-6,דירה בבית קומות,5.0,שניה,95.0,1350000,,,1993.0,,7.0,3307034894,1,6403142,False,69% ב 11 שנים,פתח תקווה,השלושה,6.27,6403-142-6,6403/142,14210.526315789471,32.092378454,34.8948892323,2013
2013-12-18,2013-12-18,"קיש 27, פתח תקווה",קיש 27,6389-146-6,דירה בבית קומות,4.0,שלישית,86.76,1190000,,,1997.0,,5.0,3287404446,1,6389146,False,36% ב 11.5 שנים,פתח תקווה,קיש,3.13,6389-146-6,6389/146,13715.99815583218,32.0736904063,34.8952514584,2013
2013-12-18,2013-12-18,"אלכסנדר גרוטו 6, פתח תקווה",אלכסנדר גרוטו 6,6362-172-101,דירה,5.0,שניה,129.0,1700000,1.0,הדר במושבה שלב ב',,,9.0,11181271975,1,6362172,False,,פתח תקווה,גרוטו אלכסנדר,,6362-172-101,6362/172,13178.29457364341,32.0931377202,34.8758107566,2013
2013-12-17,2013-12-17,"הסדנה 6, פתח תקווה",הסדנה 6,6367-15-11,תעשיה,,,100.0,649000,,,1970.0,,3.0,3306892562,1,636715,False,,פתח תקווה,הסדנה,,6367-15-11,6367/15,6490.0,32.0950519781,34.8597809971,2013
2013-12-17,2013-12-17,"מבצע יפתח 6, פתח תקווה",מבצע יפתח 6,6361-529-38,דירה בבית קומות,5.0,עשירית,121.7,1595000,,,2010.0,,24.0,3287529581,1,6361529,False,11% ב 3.4 שנים,פתח תקווה,מבצע חורב,3.24,6361-529-38,6361/529,13105.998356614626,32.0990513761,34.8824682888,2013
2013-12-17,2013-12-17,"האחים בכר 4, פתח תקווה",האחים בכר 4,6376-43-17,דירה בבית קומות,4.0,שישית,84.0,1500000,,,2013.0,,6.0,3287444147,1,637643,False,,פתח תקווה,האחים בכר,,6376-43-17,6376/43,17857.14285714286,32.0963389111,34.8808053307,2013
2013-12-17,2013-12-17,"משה סנה 45, פתח תקווה",משה סנה 45,6357-83-9,דירה בבית קומות,5.0,שניה,111.95,1730000,,,2004.0,,9.0,3287344619,1,635783,False,77% ב 7.9 שנים,פתח תקווה,סנה משה,9.75,6357-83-9,6357/83,15453.32737829388,32.1044342269,34.8811499423,2013
2013-12-17,2013-12-17,"הרב משה אויערבך 6, פתח תקווה",הרב משה אויערבך 6,6371-580-22,דירה בבית קומות,5.0,חמישית,132.5,2020000,,,2011.0,,9.0,3306811188,1,6371580,False,,פתח תקווה,הרב אויערבך משה,,6371-580-22,6371/580,15245.283018867924,32.0720282816,34.8657807082,2013
2013-12-17,2013-12-17,"שלום צלח 1, פתח תקווה",שלום צלח 1,6320-193-29,דירה בבית קומות,3.0,שביעית,70.9,1060000,,,2000.0,,8.0,3287469000,1,6320193,False,,פתח תקווה,צלח שלום,,6320-193-29,6320/193,14950.634696755991,32.0780284808,34.9125048343,2013
2013-12-17,2013-12-17,"מנחם רצון 41, פתח תקווה",מנחם רצון 41,6389-184-4,דירה בבית קומות,4.0,שניה,82.17,1315000,,,2012.0,,5.0,3287384813,1,6389184,False,,פתח תקווה,רצון מנחם,,6389-184-4,6389/184,16003.40756967263,32.0798269903,34.8974261702,2013
2013-12-17,2013-12-17,"בייליס 1, פתח תקווה",בייליס 1,6376-151-38,דירה בבית קומות,2.0,שלישית,44.0,799999,,,1963.0,,3.0,3306042920,1,6376151,False,,פתח תקווה,בייליס,,6376-151-38,6376/151,18181.795454545456,32.0938246586,34.881523881,2013
2013-12-17,2013-12-17,"סלומון 2, פתח תקווה",סלומון 2,6394-200-14,דירה בבית קומות,3.0,א,67.57,1030000,,,1969.0,,7.0,3287316663,1,6394200,False,50% ב 12 שנים,פתח תקווה,סלומון,4.17,6394-200-14,6394/200,15243.451235755514,32.0849870026,34.8818694743,2013
2013-12-17,2013-12-17,"משה פלד 3, פתח תקווה",משה פלד 3,6360-227-12,דירה בבית קומות,5.0,שלישית,124.6,1640000,,,2015.0,,8.0,3287642275,1,6360227,False,,פתח תקווה,פלד משה,,6360-227-12,6360/227,13162.118780096307,32.1005350269,34.8782309306,2013
2013-12-16,2013-12-16,"אחים יפה 6, פתח תקווה",אחים יפה 6,6386-127-5,דירה בבית קומות,5.0,קומה ‎3‏,96.5,1660000,,,2014.0,,5.0,3306388194,1,6386127,False,,פתח תקווה,אחים יפה,,6386-127-5,6386/127,17202.072538860102,32.0801965383,34.8814587457,2013
2013-12-16,2013-12-16,"גרינשפן 27, פתח תקווה",גרינשפן 27,6362-257-191,דירה בבית קומות,5.0,תשע עשרה,125.0,1821000,,,2013.0,,21.0,3287643435,1,6362257,False,,פתח תקווה,גרינשפן,,6362-257-191,6362/257,14568.0,32.0963582794,34.874025839,2013
2013-12-16,2013-12-16,"מבצע יפתח 2, פתח תקווה",מבצע יפתח 2,6361-529-94,דירה בבית קומות,4.5,שניה,111.6,1620000,,,2010.0,,24.0,3287499653,1,6361529,False,30% ב 3.4 שנים,פתח תקווה,מבצע יפתח,8.82,6361-529-94,6361/529,14516.129032258064,32.0990513761,34.8824682888,2013
2013-12-16,2013-12-16,"הנשיאים 5, פתח תקווה",הנשיאים 5,6714-172-8,דירה בבית קומות,3.0,רביעית + גג,68.5,1087000,,,2008.0,,4.0,3287325711,1,6714172,False,87% ב 5.8 שנים,פתח תקווה,הנשיאים,15.0,6714-172-8,6714/172,15868.61313868613,32.0794649748,34.8786784229,2013
2013-12-16,2013-12-16,"יעל רום 5, פתח תקווה",יעל רום 5,6360-305-66,דירה בבית קומות,5.0,שמונה עשרה,120.1,1852000,,,2011.0,,22.0,3306470003,1,6360305,False,,פתח תקווה,רום יעל,,6360-305-66,6360/305,15420.482930890925,32.0996732412,34.8808075308,2013
2013-12-16,2013-12-16,"מבצע דקל 15, פתח תקווה",מבצע דקל 15,6366-169-100,דירה בבית קומות,4.0,שמינית,107.0,1650000,,,2013.0,,26.0,3306336748,1,6366169,False,,פתח תקווה,מבצע דקל,,6366-169-100,6366/169,15420.56074766355,32.095390812,34.8706173766,2013
2013-12-16,2013-12-16,"אהרון כצנלסון 26, פתח תקווה",אהרון כצנלסון 26,6362-271-4,דירה בבית קומות,5.0,קומה ‎1‏,126.25,1605000,,,2012.0,,17.0,3287421904,1,6362271,False,,פתח תקווה,כצנלסון אהרון,,6362-271-4,6362/271,12712.871287128712,32.0957380563,34.8760847077,2013
2013-12-16,2013-12-16,"הפורצים 3, פתח תקווה",הפורצים 3,6373-448-4,דירה בבית קומות,3.0,ראשונה,65.0,790000,,,1952.0,,1.0,3287597035,1,6373448,False,,פתח תקווה,הפורצים,,6373-448-4,6373/448,12153.846153846154,32.0892006042,34.8769635486,2013
2013-12-16,2013-12-16,"נקאש 9, פתח תקווה",נקאש 9,6371-953-88,דירה בבית קומות,6.0,רביעית,151.15,2146000,,,2013.0,,10.0,3306213730,1,6371953,False,,פתח תקווה,נקאש,,6371-953-88,6371/953,14197.816738339396,32.0707787473,34.8613215228,2013
2013-12-16,2013-12-16,"הרב פינצ'י 1, פתח תקווה",הרב פינצ'י 1,4043-74-347,דירה בבית קומות,4.0,שישית,101.0,1379000,,,2016.0,,17.0,3287524361,1,404374,False,,פתח תקווה,הרב פינצ'י,,4043-74-347,4043/74,13653.465346534653,32.0754082874,34.9057539861,2013
2013-12-16,2013-12-16,"מנחם בגין 38, פתח תקווה",מנחם בגין 38,4043-77-48,דירה בבית קומות,4.0,עשירית,94.6,1400000,,,2007.0,,14.0,3306616888,1,404377,False,65% ב 6.5 שנים,פתח תקווה,בגין מנחם,10.0,4043-77-48,4043/77,14799.154334038056,32.0748223534,34.9050603796,2013
2013-12-16,2013-12-16,"יצחק שיפר 30, פתח תקווה",יצחק שיפר 30,6355-273-29,דירה בבית קומות,5.0,שלישית,125.0,1450000,,,2015.0,,6.0,3287441479,1,6355273,False,,פתח תקווה,שיפר יצחק,,6355-273-29,6355/273,11600.0,32.097591764,34.8925627938,2013
2013-12-16,2013-12-16,"כצנלסון ברל 27, פתח תקווה",כצנלסון ברל 27,6373-980-31,דירה בבית קומות,4.0,רביעית,80.4,975000,,,1970.0,,4.0,3287390555,1,6373980,False,,פתח תקווה,כצנלסון ברל,,6373-980-31,6373/980,12126.86567164179,32.0868158,34.8757968526,2013
2013-12-15,2013-12-15,"עין גנים 14, פתח תקווה",עין גנים 14,6404-254-10,דירה בבית קומות,4.5,שלישית,99.5,1215000,,,1984.0,,5.0,3287290099,1,6404254,False,64% ב 13.1 שנים,פתח תקווה,עין גנים,4.89,6404-254-10,6404/254,12211.055276381909,32.0894700957,34.8926848946,2013
2013-12-15,2013-12-15,"אהרון כצנלסון 14, פתח תקווה",אהרון כצנלסון 14,6362-141-16,דירה בבית קומות,4.0,רביעית,91.4,1540000,,,2002.0,,7.0,3287404214,1,6362141,False,99% ב 11.9 שנים,פתח תקווה,כצנלסון אהרון,8.32,6362-141-16,6362/141,16849.015317286652,32.0932645023,34.8766391273,2013
2013-12-15,2013-12-15,"משה מרכוס 3, פתח תקווה",משה מרכוס 3,6375-304-9,דירה בבית קומות,3.0,א,56.6,935000,,,1960.0,,4.0,3287308949,1,6375304,False,,פתח תקווה,מרכוס משה,,6375-304-9,6375/304,16519.434628975265,32.0914071115,34.883454233,2013
2013-12-15,2013-12-15,"יצחק שיפר 30, פתח תקווה",יצחק שיפר 30,6355-273-4,דירה,5.0,שלישית,123.0,1450000,1.0,שיפר 30,2015.0,,6.0,11181271270,1,6355273,False,,פתח תקווה,שיפר יצחק,,6355-273-4,6355/273,11788.61788617886,32.097591764,34.8925627938,2013
2013-12-15,2013-12-15,"ארלוזורוב 28, פתח תקווה",ארלוזורוב 28,6373-729-236,דירה בבית קומות,3.0,שלישית,55.0,802000,,,1960.0,,5.0,3287236275,1,6373729,False,,פתח תקווה,ארלוזורוב,,6373-729-236,6373/729,14581.818181818182,32.0852808962,34.8741183471,2013
2013-12-15,2013-12-15,"התוף 16, פתח תקווה",התוף 16,5509-43-2,דירה בבית קומות,4.0,ראשונה,73.8,1060000,,,1990.0,,5.0,3287504206,1,550943,False,,פתח תקווה,התוף,,5509-43-2,5509/43,14363.143631436316,32.0773155222,34.9092432241,2013
2013-12-15,2013-12-15,"הרב פינצ'י 1, פתח תקווה",הרב פינצ'י 1,4043-74-11,דירה,4.0,שישית,101.0,1379000,1.0,משכנות הדר גנים,2016.0,,17.0,11181244201,1,404374,False,,פתח תקווה,הרב פינצ'י,,4043-74-11,4043/74,13653.465346534653,32.0754082874,34.9057539861,2013
2013-12-13,2013-12-13,"יוסף נקר 6, פתח תקווה",יוסף נקר 6,6716-198-33,דירה בבית קומות,5.0,קומה ‎3‏,116.23,2050000,,,2008.0,,7.0,3287553999,1,6716198,False,68% ב 6.3 שנים,פתח תקווה,נקר יוסף,10.79,6716-198-33,6716/198,17637.443000946398,32.0736778403,34.8725536479,2013
2013-12-13,2013-12-13,"מבצע דקל 17, פתח תקווה",מבצע דקל 17,6366-167-196,דירה בבית קומות,6.0,שבע עשרה,133.0,1837000,,,2013.0,,27.0,3306134589,1,6366167,False,,פתח תקווה,מבצע דקל,,6366-167-196,6366/167,13812.03007518797,32.0958167828,34.8707727946,2013
2013-12-13,2013-12-13,"נתן צבי פינקל 13, פתח תקווה",נתן צבי פינקל 13,5481-37-27,דירת גן,5.0,,124.0,1800000,1.0,פתח תקווה,1996.0,,,11181252226,1,548137,False,,פתח תקווה,פינקל נתן צבי,,5481-37-27,5481/37,14516.129032258064,32.0682864438,34.9151706227,2013
2013-12-12,2013-12-12,"ברוריה 4, פתח תקווה",ברוריה 4,6362-219-164,דירה בבית קומות,4.0,חמש עשרה,99.43,1650000,,,2007.0,,17.0,3287142953,1,6362219,False,62% ב 5.7 שנים,פתח תקווה,ברוריה,10.88,6362-219-164,6362/219,16594.58915820175,32.0973942076,34.877605836,2013
2013-12-12,2013-12-12,"יוסף אהרונוביץ 10, פתח תקווה",יוסף אהרונוביץ 10,6403-128-3,דירה בבית קומות,4.0,ראשונה,83.42,1150000,,,1992.0,,4.0,3287400618,1,6403128,False,,פתח תקווה,אהרונוביץ יוסף,,6403-128-3,6403/128,13785.662910573004,32.0933162578,34.8951034082,2013
2013-12-12,2013-12-12,"הרב הלר 8, פתח תקווה",הרב הלר 8,6383-213-9,דירה בבית קומות,2.0,ב,45.44,930000,,,1960.0,,4.0,3306472874,1,6383213,False,14% ב 3.1 שנים,פתח תקווה,הרב הלר,4.52,6383-213-9,6383/213,20466.54929577465,32.0850594411,34.891356549,2013
2013-12-12,2013-12-12,"שפינוזה 11, פתח תקווה",שפינוזה 11,6388-487-14,דירה בבית קומות,3.0,רביעית,53.0,760000,,,1970.0,,4.0,3287408303,1,6388487,False,,פתח תקווה,שפינוזה,,6388-487-14,6388/487,14339.622641509432,32.074988904,34.890957615,2013
2013-12-12,2013-12-12,"הרב שמואל מוהליבר 1, פתח תקווה",הרב שמואל מוהליבר 1,6380-69-9,חנות,,קרקע,29.0,700000,,,1950.0,,3.0,3306852078,1,638069,False,,פתח תקווה,הרב מוהליבר שמואל,,6380-69-9,6380/69,24137.93103448276,32.0884718727,34.8846760112,2013
2013-12-12,2013-12-12,"רוטשילד 54, פתח תקווה",רוטשילד 54,6374-335-31,דירה בבית קומות,4.0,רביעית,91.48,1085000,,,1985.0,,11.0,3287375968,1,6374335,False,,פתח תקווה,רוטשילד,,6374-335-31,6374/335,11860.515959772629,32.0893947069,34.8805208114,2013
2013-12-12,2013-12-12,"זאב אורלוב 40, פתח תקווה",זאב אורלוב 40,6375-58-6,דירה בבית קומות,4.0,שלישית,89.5,1020000,,,1991.0,,5.0,3306280053,1,637558,False,,פתח תקווה,אורלוב זאב,,6375-58-6,6375/58,11396.648044692738,32.0934894052,34.8822143138,2013
2013-12-12,2013-12-12,"מבצע דקל 15, פתח תקווה",מבצע דקל 15,6366-169-83,דירה,5.0,שניה,107.0,1810000,1.0,פתח תקווה,,,26.0,11181272284,1,6366169,False,,פתח תקווה,מבצע דקל,,6366-169-83,6366/169,16915.88785046729,32.095390812,34.8706173766,2013
2013-12-12,2013-12-12,"יעל רום 5, פתח תקווה",יעל רום 5,6360-305-20,דירה בבית קומות,5.0,שביעית,120.1,1779000,,,2011.0,,22.0,3287420251,1,6360305,False,,פתח תקווה,רום יעל,,6360-305-20,6360/305,14812.656119900084,32.0996732412,34.8808075308,2013
2013-12-12,2013-12-12,"אלכסנדר גרוטו 6, פתח תקווה",אלכסנדר גרוטו 6,6362-172-130,דירה בבית קומות,6.0,ראשונה,140.0,1780000,,,2014.0,,9.0,3287642739,1,6362172,False,,פתח תקווה,גרוטו אלכסנדר,,6362-172-130,6362/172,12714.285714285714,32.0931377202,34.8758107566,2013
2013-12-12,2013-12-12,"הרב פינצ'י 1, פתח תקווה",הרב פינצ'י 1,4043-74-348,דירה בבית קומות,6.0,חמישית,140.0,1748000,,,2016.0,,17.0,3287286764,1,404374,False,,פתח תקווה,הרב פינצ'י,,4043-74-348,4043/74,12485.714285714286,32.0754082874,34.9057539861,2013
2013-12-12,2013-12-12,"אריה בן-אליעזר 24, פתח תקווה",אריה בן-אליעזר 24,6811-57-53,דירה בבית קומות,5.0,קומה ‎14‏,128.15,1592000,,,2013.0,,18.0,3306254678,1,681157,False,,פתח תקווה,אריה בן אליעזר,,6811-57-53,6811/57,12422.94186500195,32.0692122903,34.9107702404,2013
2013-12-12,2013-12-12,"מרדכי בן-דרור 12, פתח תקווה",מרדכי בן-דרור 12,6355-799-396,דירה בבית קומות,4.5,שביעית,109.0,1500000,,,2009.0,,9.0,3287219513,1,6355799,False,,פתח תקווה,בן דרור מרדכי,,6355-799-396,6355/799,13761.467889908256,32.0988137368,34.8892206376,2013
2013-12-12,2013-12-12,"בגין מנחם 3, פתח תקווה",בגין מנחם 3,6321-135-5,דירה בבית קומות,5.0,ראשונה,106.44,1350000,,,2008.0,,8.0,3287455399,1,6321135,False,40% ב 5.7 שנים,פתח תקווה,בגין מנחם,7.02,6321-135-5,6321/135,12683.201803833146,32.0796482438,34.9083283868,2013
2013-12-12,2013-12-12,"שלום דורני 2, פתח תקווה",שלום דורני 2,6355-799-63,דירה בבית קומות,5.0,שישית,120.58,1720000,,,2009.0,,9.0,3287267798,1,6355799,False,44% ב 4.8 שנים,פתח תקווה,דורני שלום,9.17,6355-799-63,6355/799,14264.388787526954,32.0988137368,34.8892206376,2013
2013-12-12,2013-12-12,"שרגא רפאלי 11, פתח תקווה",שרגא רפאלי 11,7209-41-72,דירה בבית קומות,5.0,שבע עשרה,137.63,1796000,,,2013.0,,22.0,3287370690,1,720941,False,,פתח תקווה,רפאלי שרגא,,7209-41-72,7209/41,13049.480491171984,32.1070171625,34.8794192383,2013
2013-12-12,2013-12-12,"דגל ראובן 5, פתח תקווה",דגל ראובן 5,6713-79-9,דירה בבית קומות,3.0,שלישית,77.7,1060000,,,1980.0,,4.0,3306115449,1,671379,False,0% ב 1.5 שנים,פתח תקווה,דגל ראובן,0.0,6713-79-9,6713/79,13642.21364221364,32.0815264972,34.877608143,2013
2013-12-12,2013-12-12,"אורלנסקי 7, פתח תקווה",אורלנסקי 7,6385-174-14,דירה בבית קומות,5.0,רביעית + גג,103.1,1777000,,,1987.0,,6.0,3287222616,1,6385174,False,,פתח תקווה,אורלנסקי,,6385-174-14,6385/174,17235.693501454898,32.0836937022,34.8907784162,2013
2013-12-12,2013-12-12,"גרינשפן 27, פתח תקווה",גרינשפן 27,6362-257-192,דירה בבית קומות,6.0,שש עשרה,140.0,1919000,,,2013.0,,21.0,3306707861,1,6362257,False,,פתח תקווה,גרינשפן,,6362-257-192,6362/257,13707.142857142857,32.0963582794,34.874025839,2013
2013-12-12,2013-12-12,"האחים שטרייט 12, פתח תקווה",האחים שטרייט 12,6361-57-6,דירה בבית קומות,4.0,שלישית,67.6,1190000,,,1999.0,,5.0,3287390091,1,636157,False,78% ב 4.6 שנים,פתח תקווה,האחים שטרייט,16.96,6361-57-6,6361/57,17603.55029585799,32.0939253128,34.8843735346,2013
2013-12-11,2013-11-12,"הזוהר 3, פתח תקווה",הזוהר 3,6389-84-5,דירה בבית קומות,5.0,ראשונה,121.0,1246000,,,2010.0,,5.0,3287454935,1,638984,False,,פתח תקווה,הזוהר,,6389-84-5,6389/84,10297.520661157025,32.0793443048,34.8947007585,2013
2013-12-11,2013-11-12,"דוד וולפסון 24, פתח תקווה",דוד וולפסון 24,6383-36-17,דירת גג,4.0,ד,79.04,1485000,,,1969.0,,4.0,3286767780,1,638336,False,,פתח תקווה,וולפסון דוד,,6383-36-17,6383/36,18787.95546558704,32.0864574415,34.8899296379,2013
2013-12-11,2013-11-12,"זיכרון יעקב 24, פתח תקווה",זיכרון יעקב 24,7194-63-14,דירה בבית קומות,4.5,רביעית,116.76,1620000,,,1997.0,,5.0,3286448635,1,719463,False,15% ב 3 שנים,פתח תקווה,זכרון יעקב,5.0,7194-63-14,7194/63,13874.614594039054,32.1046859282,34.8744097907,2013
2013-12-11,2013-11-12,"חדרה 25, פתח תקווה",חדרה 25,7195-70-18,דירה בבית קומות,3.5,חמישית,73.9,1410000,,,2000.0,,7.0,3286831174,1,719570,False,102% ב 13.5 שנים,פתח תקווה,חדרה,7.56,7195-70-18,7195/70,19079.83761840325,32.1025871754,34.8714085912,2013
2013-12-11,2013-11-12,"העצמאות 91, פתח תקווה",העצמאות 91,6371-637-57,דירה בבית קומות,4.0,שלישית,90.6,1400000,,,2007.0,,6.0,3286623766,1,6371637,False,45% ב 7.3 שנים,פתח תקווה,העצמאות,6.16,6371-637-57,6371/637,15452.53863134658,32.0730520957,34.8626515229,2013
2013-12-11,2013-11-12,"קרן קיימת לישראל 29, פתח תקווה",קרן קיימת לישראל 29,6387-46-4,דירה בבית קומות,3.0,קרקע,65.92,960000,,,1960.0,,2.0,3287435070,1,638746,False,,פתח תקווה,קרן קימת לישראל,,6387-46-4,6387/46,14563.106796116504,32.0801469495,34.8859385362,2013
2013-12-11,2013-11-12,"חפץ חיים 73, פתח תקווה",חפץ חיים 73,6397-131-12,דירה בבית קומות,2.5,ג,48.6,850000,,,1960.0,,3.0,3286701312,1,6397131,False,8% ב 1.9 שנים,פתח תקווה,חפץ חיים,4.21,6397-131-12,6397/131,17489.711934156378,32.0789129548,34.889106419,2013
2013-12-11,2013-11-12,"הענבל 18, פתח תקווה",הענבל 18,5510-4-13,דירה בבית קומות,4.0,שניה,78.8,1196000,,,1991.0,,4.0,3286276607,1,55104,False,73% ב 5.5 שנים,פתח תקווה,העינבל,13.27,5510-4-13,5510/4,15177.66497461929,32.0768395835,34.9080773632,2013
2013-12-11,2013-11-12,"רמב""ם 32, פתח תקווה","רמב""ם 32",6379-77-16,דירה בבית קומות,3.0,רביעית,62.88,950000,,,1970.0,,4.0,3286323993,1,637977,False,,פתח תקווה,"רמב""ם",,6379-77-16,6379/77,15108.142493638676,32.0888493161,34.8903260285,2013
2013-12-10,2013-10-12,"מבצע דקל 15, פתח תקווה",מבצע דקל 15,6366-169-82,דירה,5.0,שביעית,123.0,1813526,1.0,פתח תקווה,,,26.0,11181272283,1,6366169,False,,פתח תקווה,מבצע דקל,,6366-169-82,6366/169,14744.113821138211,32.095390812,34.8706173766,2013
2013-12-09,2013-09-12,"תור הזהב 24, פתח תקווה",תור הזהב 24,6372-262-1,קוטג' דו משפחתי,6.0,,234.0,3225000,,,2000.0,,3.0,3285239973,1,6372262,False,,פתח תקווה,תור הזהב,,6372-262-1,6372/262,13782.05128205128,32.0850548752,34.863727541,2013
2013-12-09,2013-09-12,"מאיר שפיה 2, פתח תקווה",מאיר שפיה 2,7195-13-1,דירת גן,5.0,קרקע + ראשונה,147.0,2200000,,,2000.0,,7.0,3285396428,1,719513,False,63% ב 5.5 שנים,פתח תקווה,מאיר שפיה,11.45,7195-13-1,7195/13,14965.986394557824,32.1024170968,34.8744484819,2013
2013-12-09,2013-09-12,"מבצע יפתח 2, פתח תקווה",מבצע יפתח 2,6361-529-123,דירה בבית קומות,5.0,עשירית,121.8,1640000,,,2010.0,,24.0,3285617263,1,6361529,False,16% ב 3.1 שנים,פתח תקווה,מבצע יפתח,5.16,6361-529-123,6361/529,13464.696223316912,32.0990513761,34.8824682888,2013
2013-12-09,2013-09-12,"מרדכי אלקחי 4, פתח תקווה",מרדכי אלקחי 4,6378-103-11,דירה בבית קומות,1.0,ד,22.88,525000,,,1960.0,,6.0,3285828238,1,6378103,False,11% ב 1.1 שנים,פתח תקווה,אלקחי מרדכי,10.0,6378-103-11,6378/103,22945.8041958042,32.0905718838,34.8907917132,2013
2013-12-09,2013-09-12,"גוטמן 32, פתח תקווה",גוטמן 32,6375-292-12,דירה בבית קומות,3.5,ד,52.23,780000,,,1960.0,,4.0,3285439957,1,6375292,False,,פתח תקווה,גוטמן,,6375-292-12,6375/292,14933.946008041356,32.0918066041,34.8813455892,2013
2013-12-09,2013-09-12,"האחים בכר 4, פתח תקווה",האחים בכר 4,6376-43-16,דירה בבית קומות,4.0,שישית,86.45,1550000,,,2013.0,,6.0,3285693098,1,637643,False,,פתח תקווה,האחים בכר,,6376-43-16,6376/43,17929.438982070562,32.0963389111,34.8808053307,2013
2013-12-09,2013-09-12,"גולדנהירש 2, פתח תקווה",גולדנהירש 2,6377-49-19,תעשיה,,ג,155.0,720000,,,1950.0,,3.0,3285700696,1,637749,False,,פתח תקווה,גולדנהירש,,6377-49-19,6377/49,4645.1612903225805,32.0908362229,34.8859419718,2013
2013-12-08,2013-08-12,"אחד העם 13, פתח תקווה",אחד העם 13,6382-152-7,דירה בבית קומות,4.0,ד,90.71,1450000,,,1960.0,,4.0,3284011388,1,6382152,False,,פתח תקווה,אחד העם,,6382-152-7,6382/152,15985.007165692869,32.0837353874,34.8845820775,2013
2013-12-08,2013-08-12,"הרב ישעיהו משורר 12, פתח תקווה",הרב ישעיהו משורר 12,6811-55-51,דירה בבית קומות,5.0,שלוש עשרה,131.6,1648000,,,2013.0,,20.0,9512229888,1,681155,False,,פתח תקווה,הרב משורר ישעיהו,,6811-55-51,6811/55,12522.796352583588,32.0687920446,34.9076335474,2013
2013-12-08,2013-08-12,"רוטשילד 65, פתח תקווה",רוטשילד 65,6374-59-1,דירה בבית קומות,4.0,ראשונה,95.25,1000000,,,1980.0,,4.0,3284010199,1,637459,False,78% ב 14.5 שנים,פתח תקווה,רוטשילד,5.38,6374-59-1,6374/59,10498.687664041994,32.0883823622,34.8814117923,2013
2013-12-08,2013-08-12,"רחובות 4, פתח תקווה",רחובות 4,7194-61-6,דירה בבית קומות,3.0,שלישית+קרקע,109.31,1320000,,,1996.0,,5.0,3284061413,1,719461,False,,פתח תקווה,רחובות,,7194-61-6,7194/61,12075.74787302168,32.1041448484,34.8749660832,2013
2013-12-08,2013-08-12,"שלמה זלוטניק 1, פתח תקווה",שלמה זלוטניק 1,6393-331-38,דירה בבית קומות,6.0,קומה ‎10‏,147.0,1880000,,,2013.0,,15.0,3284167843,1,6393331,False,,פתח תקווה,זלוטניק שלמה,,6393-331-38,6393/331,12789.115646258504,32.0826297067,34.8575699804,2013
2013-12-08,2013-08-12,"זאב ברנדה 32, פתח תקווה",זאב ברנדה 32,6387-229-24,דירה בבית קומות,6.0,"שביעית, שמינית",165.0,2294000,,,2013.0,,7.0,3284439167,1,6387229,False,,פתח תקווה,ברנדה זאב,,6387-229-24,6387/229,13903.030303030304,32.0802352124,34.8851270395,2013
2013-12-08,2013-08-12,"הרב ישעיהו משורר 12, פתח תקווה",הרב ישעיהו משורר 12,6811-55-58,דירה בבית קומות,5.0,חמש עשרה,128.65,1669000,,,2013.0,,20.0,9512731620,1,681155,False,,פתח תקווה,הרב משורר ישעיהו,,6811-55-58,6811/55,12973.183054799843,32.0687920446,34.9076335474,2013
2013-12-08,2013-08-12,"ראב אחים 4, פתח תקווה",ראב אחים 4,6381-231-2,דירה בבית קומות,4.0,ראשונה,83.04,1370000,,,1960.0,,5.0,3284010924,1,6381231,False,52% ב 4.9 שנים,פתח תקווה,ראב אחים,10.61,6381-231-2,6381/231,16498.073217726396,32.082848654,34.8809522891,2013
2013-12-08,2013-08-12,"הרצל 16, פתח תקווה",הרצל 16,6382-191-6,דירה בבית קומות,3.0,ב,69.5,1101000,,,1960.0,,3.0,3284377455,1,6382191,False,,פתח תקווה,הרצל,,6382-191-6,6382/191,15841.726618705035,32.0848515093,34.8846315346,2013
2013-12-08,2013-08-12,"הרב ישעיהו משורר 12, פתח תקווה",הרב ישעיהו משורר 12,6811-55-54,דירה בבית קומות,5.0,ארבע עשרה,132.95,1659000,,,2013.0,,20.0,9512815452,1,681155,False,,פתח תקווה,הרב משורר ישעיהו,,6811-55-54,6811/55,12478.37532907108,32.0687920446,34.9076335474,2013
2013-12-07,2013-07-12,"אליעזר קפלן 1, פתח תקווה",אליעזר קפלן 1,6373-886-6,דירה בבית קומות,3.5,שניה,71.0,1040000,,,1970.0,,4.0,3283618525,1,6373886,False,,פתח תקווה,קפלן אליעזר,,6373-886-6,6373/886,14647.887323943662,32.0907858093,34.8695698379,2013
2013-12-06,2013-06-12,"אריה בן-אליעזר 24, פתח תקווה",אריה בן-אליעזר 24,6811-57-4,דירה בבית קומות,6.0,קומה ‎1‏,142.15,1614000,,,2013.0,,18.0,3282350297,1,681157,False,,פתח תקווה,אריה בן אליעזר,,6811-57-4,6811/57,11354.203306366511,32.0692122903,34.9107702404,2013
2013-12-06,2013-06-12,"הלוי 13, פתח תקווה",הלוי 13,6714-501-9,דירה בבית קומות,4.0,חמישית,95.2,1465000,,,2005.0,,6.0,3282874704,1,6714501,False,,פתח תקווה,הלוי,,6714-501-9,6714/501,15388.655462184874,32.0748868588,34.881768516,2013
2013-12-06,2013-06-12,"רמב""ם 37, פתח תקווה","רמב""ם 37",6379-236-22,דירה בבית קומות,2.5,שניה,52.1,840000,,,1970.0,,4.0,3282924961,1,6379236,False,,פתח תקווה,"רמב""ם",,6379-236-22,6379/236,16122.840690978886,32.0889450917,34.8909595011,2013
2013-12-06,2013-06-12,"נחלת צבי 16, פתח תקווה",נחלת צבי 16,6378-195-1,דירה בבית קומות,4.0,ראשונה,103.35,1290000,,,1980.0,2008.0,6.0,3282445765,1,6378195,False,84% ב 5 שנים,פתח תקווה,נחלת צבי,16.8,6378-195-1,6378/195,12481.857764876631,32.0910655594,34.8893205276,2013
2013-12-06,2013-06-12,"הענבל 4, פתח תקווה",הענבל 4,5510-3-23,דירה בבית קומות,4.0,שלישית,78.8,1149000,,,1991.0,,4.0,3282254104,1,55103,False,83% ב 6.4 שנים,פתח תקווה,העינבל,12.97,5510-3-23,5510/3,14581.218274111676,32.0774200157,34.9066921092,2013
2013-12-06,2013-06-12,"מקס נורדאו 3, פתח תקווה",מקס נורדאו 3,6374-82-4,דירה בבית קומות,3.5,ב,61.65,875000,,,1960.0,,3.0,3283131905,1,637482,False,,פתח תקווה,נורדאו מכס,,6374-82-4,6374/82,14193.025141930251,32.0862578019,34.8824631449,2013
2013-12-06,2013-06-12,"רבקה גובר 7, פתח תקווה",רבקה גובר 7,7209-22-226,דירה בבית קומות,4.0,חמישית,100.48,1645000,,,2012.0,,22.0,3282926614,1,720922,False,,פתח תקווה,גובר רבקה,,7209-22-226,7209/22,16371.417197452229,32.1077282831,34.8778228235,2013
2013-12-06,2013-06-12,"העליה השניה 2, פתח תקווה",העליה השניה 2,6379-1-29,דירה בבית קומות,2.0,ה,31.9,760000,,,1960.0,,8.0,3282231368,1,63791,False,38% ב 0.5 שנים,פתח תקווה,העליה השניה,76.0,6379-1-29,6379/1,23824.45141065831,32.0866868679,34.8876439429,2013
2013-12-06,2013-06-12,"אלכסנדר גרוטו 6, פתח תקווה",אלכסנדר גרוטו 6,6362-172-86,דירה,5.0,שמינית,158.0,1613675,1.0,הדר במושבה שלב ב',,,9.0,11181272071,1,6362172,False,,פתח תקווה,גרוטו אלכסנדר,,6362-172-86,6362/172,10213.132911392406,32.0931377202,34.8758107566,2013
2013-12-06,2013-06-12,"פיק""א 15, פתח תקווה","פיק""א 15",6394-238-7,דירה בבית קומות,5.0,רביעית,123.6,1435000,,,1970.0,,8.0,3282333825,1,6394238,False,,פתח תקווה,"פיק""א",,6394-238-7,6394/238,11610.032362459548,32.0860108156,34.8798538163,2013
2013-12-06,2013-06-12,"בר כוכבא 29, פתח תקווה",בר כוכבא 29,6377-94-24,דירה בבית קומות,3.0,ב,56.16,890000,,,1960.0,,3.0,3282415402,1,637794,False,,פתח תקווה,בר כוכבא,,6377-94-24,6377/94,15847.578347578348,32.0931704224,34.8853370187,2013
2013-12-06,2013-06-12,"פינסקר 75, פתח תקווה",פינסקר 75,6376-165-15,דירה בבית קומות,2.0,א,48.4,815000,,,1960.0,,3.0,3282133986,1,6376165,False,,פתח תקווה,פינסקר,,6376-165-15,6376/165,16838.84297520661,32.0945598824,34.8820696978,2013
2013-12-05,2013-05-12,"נתן צבי פינקל 13, פתח תקווה",נתן צבי פינקל 13,5481-37-17,דירה,6.0,,145.0,1635000,1.0,פתח תקווה,1996.0,,,11181252216,1,548137,False,,פתח תקווה,פינקל נתן צבי,,5481-37-17,5481/37,11275.862068965518,32.0682864438,34.9151706227,2013
2013-12-05,2013-05-12,"שפרינצק 47, פתח תקווה",שפרינצק 47,6390-222-30,דירה בבית קומות,3.0,א,45.0,1060000,,,1967.0,,2.0,3281241105,1,6390222,False,,פתח תקווה,שפרינצק,,6390-222-30,6390/222,23555.555555555555,32.0713776709,34.8925541303,2013
2013-12-05,2013-05-12,"חדרה 4, פתח תקווה",חדרה 4,7194-72-10,דירה בבית קומות,3.5,שלישית,90.41,1400000,,,1998.0,,3.0,3281899086,1,719472,False,,פתח תקווה,חדרה,,7194-72-10,7194/72,15485.012719831877,32.1061777523,34.8742216257,2013
2013-12-05,2013-05-12,"מבצע חורב 11, פתח תקווה",מבצע חורב 11,6361-532-34,דירה בבית קומות,5.0,תשיעית,112.73,1600000,,,2010.0,,13.0,3282437384,1,6361532,False,,פתח תקווה,מבצע חורב,,6361-532-34,6361/532,14193.205003104764,32.1003074028,34.8838856563,2013
2013-12-05,2013-05-12,"מיכל לייב כץ 30, פתח תקווה",מיכל לייב כץ 30,6714-562-32,דירה בבית קומות,4.0,רביעית,97.36,1555000,,,2013.0,,6.0,3281261927,1,6714562,False,,פתח תקווה,כץ מיכל לייב,,6714-562-32,6714/562,15971.65160230074,32.0786604571,34.8809033581,2013
2013-12-05,2013-05-12,"נתן צבי פינקל 13, פתח תקווה",נתן צבי פינקל 13,5481-37-16,דירה,6.0,,145.0,1630000,1.0,פתח תקווה,1996.0,,,11181252215,1,548137,False,,פתח תקווה,פינקל נתן צבי,,5481-37-16,5481/37,11241.379310344828,32.0682864438,34.9151706227,2013
2013-12-05,2013-05-12,"זיכרון יעקב 28, פתח תקווה",זיכרון יעקב 28,7194-66-21,דירה בבית קומות,3.5,קרקע + חמישית,102.84,1420000,,,1998.0,,6.0,3281246151,1,719466,False,,פתח תקווה,זכרון יעקב,,7194-66-21,7194/66,13807.85686503306,32.1049814857,34.8735462832,2013
2013-12-05,2013-05-12,"נתן צבי פינקל 13, פתח תקווה",נתן צבי פינקל 13,5481-37-11,דירה,5.0,,123.0,1415000,1.0,פתח תקווה,1996.0,,,11181252210,1,548137,False,,פתח תקווה,פינקל נתן צבי,,5481-37-11,5481/37,11504.065040650406,32.0682864438,34.9151706227,2013
2013-12-05,2013-05-12,"נתן צבי פינקל 13, פתח תקווה",נתן צבי פינקל 13,5481-37-15,דירה,6.0,,145.0,1600000,1.0,פתח תקווה,1996.0,,,11181252214,1,548137,False,,פתח תקווה,פינקל נתן צבי,,5481-37-15,5481/37,11034.48275862069,32.0682864438,34.9151706227,2013
2013-12-05,2013-05-12,"נתן צבי פינקל 13, פתח תקווה",נתן צבי פינקל 13,5481-37-18,דירה,6.0,,145.0,1641000,1.0,פתח תקווה,1996.0,,,11181252217,1,548137,False,,פתח תקווה,פינקל נתן צבי,,5481-37-18,5481/37,11317.241379310344,32.0682864438,34.9151706227,2013
2013-12-05,2013-05-12,"לאה גולדברג 1, פתח תקווה",לאה גולדברג 1,6401-27-3,דירה בבית קומות,3.0,ראשונה,62.9,850000,,,1970.0,,4.0,3281207320,1,640127,False,103% ב 11.4 שנים,פתח תקווה,גולדברג לאה,9.04,6401-27-3,6401/27,13513.513513513511,32.083945501,34.9009544759,2013
2013-12-05,2013-05-12,"מונטיפיורי 13, פתח תקווה",מונטיפיורי 13,6395-2-41,דירה בבית קומות,2.0,ג,37.7,830000,,,1960.0,,6.0,3281943804,1,63952,False,13% ב 0.5 שנים,פתח תקווה,מונטיפיורי,26.0,6395-2-41,6395/2,22015.915119363395,32.0880481781,34.8825050127,2013
2013-12-05,2013-05-12,"ארלוזורוב 22, פתח תקווה",ארלוזורוב 22,6373-45-19,דירה בבית קומות,6.0,ראשונה,148.0,2471000,,,1960.0,2013.0,5.0,3281439900,1,637345,False,,פתח תקווה,ארלוזורוב,,6373-45-19,6373/45,16695.945945945947,32.0853076173,34.8755593223,2013
2013-12-05,2013-05-12,"שלמה זלוטניק 1, פתח תקווה",שלמה זלוטניק 1,6393-331-53,דירה בבית קומות,6.0,קומה ‎14‏,147.0,2885000,,,2013.0,,15.0,3281238669,1,6393331,False,,פתח תקווה,זלוטניק שלמה,,6393-331-53,6393/331,19625.85034013605,32.0826297067,34.8575699804,2013
2013-12-05,2013-05-12,"שלמה זלוטניק 1, פתח תקווה",שלמה זלוטניק 1,6393-331-41,דירה בבית קומות,5.0,קומה ‎11‏,135.0,1738000,,,2013.0,,15.0,3281238437,1,6393331,False,,פתח תקווה,זלוטניק שלמה,,6393-331-41,6393/331,12874.074074074077,32.0826297067,34.8575699804,2013
2013-12-05,2013-05-12,"נתן צבי פינקל 13, פתח תקווה",נתן צבי פינקל 13,5481-37-10,דירה,5.0,,123.0,1390000,1.0,פתח תקווה,1996.0,,,11181252209,1,548137,False,,פתח תקווה,פינקל נתן צבי,,5481-37-10,5481/37,11300.81300813008,32.0682864438,34.9151706227,2013
2013-12-05,2013-05-12,"אורלנסקי 28, פתח תקווה",אורלנסקי 28,6397-59-11,דירה בבית קומות,3.0,רביעית,71.74,1150000,,,2001.0,,5.0,3281241540,1,639759,False,41% ב 4.4 שנים,פתח תקווה,אורלנסקי,9.32,6397-59-11,6397/59,16030.10872595484,32.0812431498,34.8910091205,2013
2013-12-05,2013-05-12,"שלומציון המלכה 10, פתח תקווה",שלומציון המלכה 10,6399-290-54,דירה בבית קומות,4.5,חמישית,98.0,1410000,,,2000.0,,8.0,3281196155,1,6399290,False,86% ב 5.5 שנים,פתח תקווה,שלומציון המלכה,15.64,6399-290-54,6399/290,14387.755102040815,32.1020260128,34.9002965961,2013
2013-12-05,2013-05-12,"נתן צבי פינקל 13, פתח תקווה",נתן צבי פינקל 13,5481-37-14,דירה,6.0,,145.0,1590000,1.0,פתח תקווה,1996.0,,,11181252213,1,548137,False,,פתח תקווה,פינקל נתן צבי,,5481-37-14,5481/37,10965.51724137931,32.0682864438,34.9151706227,2013
2013-12-05,2013-05-12,"נתן צבי פינקל 13, פתח תקווה",נתן צבי פינקל 13,5481-37-12,דירה,5.0,,123.0,1455000,1.0,פתח תקווה,1996.0,,,11181252211,1,548137,False,,פתח תקווה,פינקל נתן צבי,,5481-37-12,5481/37,11829.268292682927,32.0682864438,34.9151706227,2013
2013-12-05,2013-05-12,"משה שמיר 3, פתח תקווה",משה שמיר 3,6362-254-29,דירה בבית קומות,6.0,שמינית,138.8,1735000,,,2013.0,,23.0,3281236030,1,6362254,False,,פתח תקווה,משה שמיר,,6362-254-29,6362/254,12499.999999999998,32.0974720762,34.873735414,2013
2013-12-05,2013-05-12,"רבקה גובר 7, פתח תקווה",רבקה גובר 7,7209-22-105,דירה בבית קומות,4.0,ראשונה,109.35,1560000,,,2012.0,,22.0,3281280603,1,720922,False,84% ב 10.6 שנים,פתח תקווה,גובר רבקה,7.92,7209-22-105,7209/22,14266.117969821677,32.1077282831,34.8778228235,2013
2013-12-05,2013-05-12,"נתן צבי פינקל 13, פתח תקווה",נתן צבי פינקל 13,5481-37-13,דירה,6.0,,145.0,1580000,1.0,פתח תקווה,1996.0,,,11181252212,1,548137,False,,פתח תקווה,פינקל נתן צבי,,5481-37-13,5481/37,10896.551724137931,32.0682864438,34.9151706227,2013
2013-12-04,2013-04-12,"שפרינצק 37, פתח תקווה",שפרינצק 37,6388-629-104,דירה בבית קומות,4.0,חמישית,90.45,1155000,,,2002.0,,11.0,3280303506,1,6388629,False,77% ב 6 שנים,פתח תקווה,שפרינצק,12.83,6388-629-104,6388/629,12769.485903814262,32.0731628196,34.8924344472,2013
2013-12-04,2013-04-12,"ההגנה 10, פתח תקווה",ההגנה 10,6380-226-41,דירה בבית קומות,3.0,ג,68.0,889000,,,1960.0,,5.0,3280602322,1,6380226,False,,פתח תקווה,ההגנה,,6380-226-41,6380/226,13073.529411764706,32.087728622,34.885296034,2013
2013-12-03,2013-03-12,"גדרה 8, פתח תקווה",גדרה 8,7194-21-63,דירה בבית קומות,4.0,רביעית,88.2,1410000,,,1998.0,,5.0,3279646250,1,719421,False,50% ב 7 שנים,פתח תקווה,גדרה,7.14,7194-21-63,7194/21,15986.394557823129,32.1059155743,34.8753591811,2013
2013-12-03,2013-03-12,"משה שמיר 3, פתח תקווה",משה שמיר 3,6362-254-13,דירה בבית קומות,6.0,רביעית,138.8,1724000,,,2013.0,,23.0,3279472105,1,6362254,False,,פתח תקווה,משה שמיר,,6362-254-13,6362/254,12420.749279538904,32.0974720762,34.873735414,2013
2013-12-03,2013-03-12,"ויצמן 32, פתח תקווה",ויצמן 32,6712-587-27,דירת גג,6.0,שביעית,160.15,3647000,,,2012.0,,7.0,3279745372,1,6712587,False,,פתח תקווה,ויצמן,,6712-587-27,6712/587,22772.400874180454,32.078456919,34.8727015009,2013
2013-12-03,2013-03-12,"יהושע שטמפפר 18, פתח תקווה",יהושע שטמפפר 18,6378-137-13,דירה בבית קומות,3.0,שניה,67.5,800000,,,1970.0,,3.0,3279552261,1,6378137,True,-5% ב 1.9 שנים,פתח תקווה,שטמפפר יהושע,-2.63,6378-137-13,6378/137,11851.851851851852,32.0904264479,34.8867633548,2013
2013-12-03,2013-03-12,"יטקובסקי אחים 3, פתח תקווה",יטקובסקי אחים 3,6714-458-3,דירה בבית קומות,4.0,שניה,94.25,1335000,,,1980.0,,5.0,3279552957,1,6714458,False,,פתח תקווה,יטקובסקי אחים,,6714-458-3,6714/458,14164.45623342175,32.0775169821,34.8801287043,2013
2013-12-03,2013-03-12,"גרינשפן 27, פתח תקווה",גרינשפן 27,6362-257-251,דירה בבית קומות,5.0,עשרים ואחת,125.0,2147000,,,2013.0,,21.0,3279658024,1,6362257,False,,פתח תקווה,גרינשפן,,6362-257-251,6362/257,17176.0,32.0963582794,34.874025839,2013
2013-12-02,2013-02-12,"רבי יהודה הנשיא 14, פתח תקווה",רבי יהודה הנשיא 14,5482-25-1,דירה בבית קומות,3.0,שלישית,66.0,910000,,,1985.0,,4.0,3278580442,1,548225,False,,פתח תקווה,רבי יהודה הנשיא,,5482-25-1,5482/25,13787.878787878788,32.0718307301,34.9054018208,2013
2013-12-02,2013-02-12,"ישראל ישעיהו 8, פתח תקווה",ישראל ישעיהו 8,6401-73-33,דירה בבית קומות,7.0,תשיעית + עשירית,164.64,2350000,,,2002.0,,9.0,3279081649,1,640173,False,,פתח תקווה,ישעיהו ישראל,,6401-73-33,6401/73,14273.566569484938,32.0788593598,34.9000212961,2013
2013-12-02,2013-02-12,"בן-חור 3, פתח תקווה",בן-חור 3,6360-189-12,דירה בבית קומות,6.0,שישית,146.1,1773000,,,2013.0,,8.0,3279326902,1,6360189,False,,פתח תקווה,בן חור,,6360-189-12,6360/189,12135.52361396304,32.1038930726,34.8796277647,2013
2013-12-02,2013-02-12,"הרב קלישר 55, פתח תקווה",הרב קלישר 55,6389-19-3,דירה בבית קומות,5.0,שניה,119.69,1415000,,,2012.0,,6.0,3278751252,1,638919,False,,פתח תקווה,הרב קלישר,,6389-19-3,6389/19,11822.207369036678,32.0777942492,34.8952623217,2013
2013-12-02,2013-02-12,"לוחמי הגטו 18, פתח תקווה",לוחמי הגטו 18,6713-217-5,דירה בבית קומות,4.0,שניה,81.5,1270000,,,1970.0,,5.0,3278633019,1,6713217,False,48% ב 5.5 שנים,פתח תקווה,לוחמי הגיטו,8.73,6713-217-5,6713/217,15582.822085889571,32.0812083731,34.8754693834,2013
2013-12-02,2013-02-12,"מאיר שפיה 12, פתח תקווה",מאיר שפיה 12,7195-14-59,דירה בבית קומות,4.0,שלישית,97.1,1500000,,,2002.0,,7.0,3279502004,1,719514,False,51% ב 10 שנים,פתח תקווה,מאיר שפיה,5.1,7195-14-59,7195/14,15447.991761071062,32.1021214793,34.8730681035,2013
2013-11-29,2013-11-29,"מבצע יפתח 8, פתח תקווה",מבצע יפתח 8,6361-533-71,דירה בבית קומות,4.5,שמונה עשרה,111.6,1745000,,,2010.0,,23.0,3287515690,1,6361533,False,25% ב 3.3 שנים,פתח תקווה,מבצע יפתח,7.58,6361-533-71,6361/533,15636.20071684588,32.1004815507,34.8831258729,2013
2013-11-29,2013-11-29,"בעל שם-טוב 17, פתח תקווה",בעל שם-טוב 17,6384-30-14,דירה בבית קומות,4.0,"חמישית, שישית",102.68,2000000,,,2013.0,,5.0,3286805567,1,638430,False,,פתח תקווה,בעל שם טוב,,6384-30-14,6384/30,19477.989871445265,32.0817397055,34.8938960708,2013
2013-11-28,2013-11-28,"יעל רום 15, פתח תקווה",יעל רום 15,6360-178-49,דירה בבית קומות,4.0,שתים עשרה,91.9,1590000,,,2006.0,,20.0,3286876878,1,6360178,False,68% ב 6.7 שנים,פתח תקווה,רום יעל,10.15,6360-178-49,6360/178,17301.414581066376,32.101585597,34.8816585504,2013
2013-11-28,2013-11-28,"זיכרון יעקב 20, פתח תקווה",זיכרון יעקב 20,7194-61-30,דירה בבית קומות,4.5,שלישית,116.76,1560000,,,1996.0,,5.0,3286770187,1,719461,False,,פתח תקווה,זכרון יעקב,,7194-61-30,7194/61,13360.739979445016,32.1041448484,34.8749660832,2013
2013-11-28,2013-11-28,"אסירי ציון 17, פתח תקווה",אסירי ציון 17,6362-227-204,דירה בבית קומות,5.0,שתים עשרה,137.8,1940000,,,2010.0,,20.0,3287179029,1,6362227,False,20% ב 3.5 שנים,פתח תקווה,אסירי ציון,5.71,6362-227-204,6362/227,14078.374455732945,32.0950109692,34.8736998006,2013
2013-11-28,2013-11-28,"אהרון כצנלסון 26, פתח תקווה",אהרון כצנלסון 26,6362-271-16,דירה בבית קומות,5.0,קומה ‎4‏,126.25,1686000,,,2012.0,,17.0,3287043860,1,6362271,False,,פתח תקווה,כצנלסון אהרון,,6362-271-16,6362/271,13354.455445544554,32.0957380563,34.8760847077,2013
2013-11-28,2013-11-28,"זמנהוף 13, פתח תקווה",זמנהוף 13,6388-84-10,דירה בבית קומות,3.0,שלישית,60.87,870000,,,1960.0,,3.0,3287135500,1,638884,False,,פתח תקווה,זמנהוף,,6388-84-10,6388/84,14292.755051749631,32.0751921235,34.8928310051,2013
2013-11-28,2013-11-28,"בעל שם-טוב 17, פתח תקווה",בעל שם-טוב 17,6384-30-2,דירה בבית קומות,4.0,ראשונה,82.54,1387000,,,2013.0,,5.0,3286805799,1,638430,False,,פתח תקווה,בעל שם טוב,,6384-30-2,6384/30,16803.97383086988,32.0817397055,34.8938960708,2013
2013-11-28,2013-11-28,"ההסתדרות 30, פתח תקווה",ההסתדרות 30,6383-7-6,דירה בבית קומות,3.0,קרקע,55.2,910000,,,1960.0,,3.0,3286841208,1,63837,False,,פתח תקווה,ההסתדרות,,6383-7-6,6383/7,16485.507246376812,32.0857671951,34.8872610788,2013
2013-11-28,2013-11-28,"הוברמן 2, פתח תקווה",הוברמן 2,6388-597-50,דירה בבית קומות,5.0,חמישית,103.4,1520000,,,1995.0,,9.0,3286834509,1,6388597,False,,פתח תקווה,הוברמן,,6388-597-50,6388/597,14700.19342359768,32.0759718068,34.8870760484,2013
2013-11-28,2013-11-28,"שחם 32, פתח תקווה",שחם 32,6393-242-54,משרד,,שלישית,205.6,2100000,,,1997.0,,4.0,3306283388,1,6393242,False,,פתח תקווה,שחם,,6393-242-54,6393/242,10214.007782101167,32.0864811182,34.8583440223,2013
2013-11-28,2013-11-28,"שחם 32, פתח תקווה",שחם 32,6393-242-53,משרד,,שלישית,34.0,315000,,,1997.0,,4.0,3306287013,1,6393242,False,,פתח תקווה,שחם,,6393-242-53,6393/242,9264.70588235294,32.0864811182,34.8583440223,2013
2013-11-28,2013-11-28,"אהרון כצנלסון 26, פתח תקווה",אהרון כצנלסון 26,6362-271-20,דירה בבית קומות,5.0,קומה ‎5‏,126.25,1674000,,,2012.0,,17.0,3287044353,1,6362271,False,,פתח תקווה,כצנלסון אהרון,,6362-271-20,6362/271,13259.40594059406,32.0957380563,34.8760847077,2013
2013-11-28,2013-11-28,"נקאש 9, פתח תקווה",נקאש 9,6371-953-76,דירה בבית קומות,6.0,ראשונה,151.15,2085000,,,2013.0,,10.0,3287226908,1,6371953,False,,פתח תקווה,נקאש,,6371-953-76,6371/953,13794.24412834932,32.0707787473,34.8613215228,2013
2013-11-28,2013-11-28,"גדרה 6, פתח תקווה",גדרה 6,7194-21-24,דירה בבית קומות,4.0,מרתף+קרקע,102.0,1750000,,,1998.0,,5.0,3286832595,1,719421,False,107% ב 10 שנים,פתח תקווה,גדרה,10.7,7194-21-24,7194/21,17156.86274509804,32.1059155743,34.8753591811,2013
2013-11-28,2013-11-28,"נקאש 6, פתח תקווה",נקאש 6,6371-942-40,בניני ציבור,,,50.0,136000,,,2012.0,,11.0,3287243177,1,6371942,False,,פתח תקווה,נקאש,,6371-942-40,6371/942,2720.0,32.0724220638,34.8607690358,2013
2013-11-27,2013-11-27,"הרב פינצ'י 1, פתח תקווה",הרב פינצ'י 1,4043-74-349,דירה בבית קומות,6.0,אחת עשרה,137.0,1795000,,,2016.0,,17.0,3287116157,1,404374,False,,פתח תקווה,הרב פינצ'י,,4043-74-349,4043/74,13102.189781021898,32.0754082874,34.9057539861,2013
2013-11-27,2013-11-27,"דב הוז 6, פתח תקווה",דב הוז 6,6373-63-2,דירה בבית קומות,3.0,א,64.61,1185000,,,1970.0,,5.0,3287063261,1,637363,False,99% ב 12.7 שנים,פתח תקווה,הוז דב,7.8,6373-63-2,6373/63,18340.814115462003,32.0843570485,34.8757329639,2013
2013-11-27,2013-11-27,"חפץ חיים 47, פתח תקווה",חפץ חיים 47,6397-144-7,דירה בבית קומות,3.0,ב,62.06,1060000,,,1970.0,,3.0,3286791502,1,6397144,False,76% ב 8.1 שנים,פתח תקווה,חפץ חיים,9.38,6397-144-7,6397/144,17080.244924266837,32.0809426897,34.8884658414,2013
2013-11-27,2013-11-27,"הרב קדר 8, פתח תקווה",הרב קדר 8,6715-490-3,דירה בבית קומות,6.0,ראשונה,142.3,2600000,,,2009.0,,2.0,3287347026,1,6715490,False,57% ב 4.5 שנים,פתח תקווה,הרב קדר,12.67,6715-490-3,6715/490,18271.257905832743,32.0725341419,34.8778222777,2013
2013-11-27,2013-11-27,"משה שמיר 5, פתח תקווה",משה שמיר 5,6362-254-160,דירה בבית קומות,5.0,שבע עשרה,125.1,1740000,,,2012.0,,24.0,3287061144,1,6362254,False,,פתח תקווה,משה שמיר,,6362-254-160,6362/254,13908.872901678658,32.0974720762,34.873735414,2013
2013-11-27,2013-11-27,"פפר יוסף 12, פתח תקווה",פפר יוסף 12,6324-146-2,דירה בבית קומות,3.0,ראשונה,62.5,1011000,,,1970.0,,4.0,3286743130,1,6324146,False,108% ב 8.3 שנים,פתח תקווה,פפר יוסף,13.01,6324-146-2,6324/146,16176.0,32.0909228787,34.8964717703,2013
2013-11-27,2013-11-27,"משה פלד 3, פתח תקווה",משה פלד 3,6360-227-27,דירה בבית קומות,5.0,שביעית,110.2,1730000,,,2015.0,,8.0,3287041714,1,6360227,False,,פתח תקווה,פלד משה,,6360-227-27,6360/227,15698.729582577133,32.1005350269,34.8782309306,2013
2013-11-27,2013-11-27,"יעל רום 5, פתח תקווה",יעל רום 5,6360-305-80,דירה בבית קומות,6.0,עשרים ושתים,170.8,2913000,,,2011.0,,22.0,3287214467,1,6360305,False,,פתח תקווה,רום יעל,,6360-305-80,6360/305,17055.03512880562,32.0996732412,34.8808075308,2013
2013-11-27,2013-11-27,"גד מכנס 7, פתח תקווה",גד מכנס 7,6387-106-8,דירה בבית קומות,3.0,ג,64.28,930000,,,1970.0,,3.0,3286939373,1,6387106,False,,פתח תקווה,מכנס גד,,6387-106-8,6387/106,14467.95270690728,32.0769589649,34.8861070882,2013
2013-11-27,2013-11-27,"גרינשפן 27, פתח תקווה",גרינשפן 27,6362-257-197,דירה בבית קומות,6.0,עשרים ושלוש,140.0,1867000,,,2013.0,,21.0,3287324754,1,6362257,False,,פתח תקווה,גרינשפן,,6362-257-197,6362/257,13335.714285714286,32.0963582794,34.874025839,2013
2013-11-27,2013-11-27,"המכבים 3, פתח תקווה",המכבים 3,6361-444-25,דירה בבית קומות,4.0,שניה,112.2,1155000,,,1998.0,,17.0,3286879285,1,6361444,False,,פתח תקווה,המכבים,,6361-444-25,6361/444,10294.117647058823,32.0939870138,34.889769975,2013
2013-11-26,2013-11-26,"הרב פינצ'י 1, פתח תקווה",הרב פינצ'י 1,4043-74-9,דירה,6.0,אחת עשרה,137.0,1795000,1.0,משכנות הדר גנים,2016.0,,17.0,11181244335,1,404374,False,,פתח תקווה,הרב פינצ'י,,4043-74-9,4043/74,13102.189781021898,32.0754082874,34.9057539861,2013
2013-11-26,2013-11-26,"חפץ חיים 70, פתח תקווה",חפץ חיים 70,6396-143-8,דירה בבית קומות,3.5,שלישית,79.5,1380000,,,2000.0,,6.0,3286783121,1,6396143,False,76% ב 12.5 שנים,פתח תקווה,חפץ חיים,6.08,6396-143-8,6396/143,17358.490566037737,32.079035227,34.8884804837,2013
2013-11-26,2013-11-26,"משה שמיר 3, פתח תקווה",משה שמיר 3,6362-254-45,דירה בבית קומות,6.0,שתים עשרה,138.8,1805000,,,2013.0,,23.0,3286727818,1,6362254,False,,פתח תקווה,משה שמיר,,6362-254-45,6362/254,13004.322766570604,32.0974720762,34.873735414,2013
2013-11-26,2013-11-26,"מנחם רצון 16, פתח תקווה",מנחם רצון 16,6402-29-10,דירה בבית קומות,3.0,שלישית,67.65,1180000,,,2015.0,,6.0,3286806321,1,640229,False,,פתח תקווה,רצון מנחם,,6402-29-10,6402/29,17442.71988174427,32.0817983261,34.8955068702,2013
2013-11-26,2013-11-26,"אלכסנדר גרוטו 6, פתח תקווה",אלכסנדר גרוטו 6,6362-172-132,דירה בבית קומות,6.0,שמינית,140.0,2513000,,,2014.0,,9.0,3287059694,1,6362172,False,,פתח תקווה,גרוטו אלכסנדר,,6362-172-132,6362/172,17950.0,32.0931377202,34.8758107566,2013
2013-11-26,2013-11-26,"הרצל 91, פתח תקווה",הרצל 91,6383-222-8,דירה בבית קומות,4.0,ג,86.03,1175000,,,1970.0,,5.0,3286980466,1,6383222,False,82% ב 14 שנים,פתח תקווה,הרצל,5.86,6383-222-8,6383/222,13658.026269905846,32.0863208487,34.8929352914,2013
2013-11-26,2013-11-26,"גרינשפן 27, פתח תקווה",גרינשפן 27,6362-257-198,דירה בבית קומות,5.0,שמונה עשרה,125.0,1755000,,,2013.0,,21.0,3286892451,1,6362257,False,,פתח תקווה,גרינשפן,,6362-257-198,6362/257,14040.0,32.0963582794,34.874025839,2013
2013-11-26,2013-11-26,"הרב קטרוני 12, פתח תקווה",הרב קטרוני 12,6385-28-19,דירה בבית קומות,4.0,שלישית,67.0,1000000,,,2000.0,,1.0,3286700326,1,638528,False,,פתח תקווה,הרב קטרוני,,6385-28-19,6385/28,14925.373134328358,32.0835179431,34.8890911456,2013
2013-11-26,2013-11-26,"אליעזר קפלן 9, פתח תקווה",אליעזר קפלן 9,6373-911-76,דירה בבית קומות,4.0,שניה,92.7,1125000,,,1984.0,,10.0,3286841962,1,6373911,False,64% ב 10.5 שנים,פתח תקווה,קפלן אליעזר,6.1,6373-911-76,6373/911,12135.922330097086,32.0886919675,34.8692824846,2013
2013-11-26,2013-11-26,"הרב פינצ'י 1, פתח תקווה",הרב פינצ'י 1,4043-74-350,דירה בבית קומות,5.0,שלוש עשרה,118.0,1552000,,,2016.0,,17.0,3287114939,1,404374,False,,פתח תקווה,הרב פינצ'י,,4043-74-350,4043/74,13152.542372881357,32.0754082874,34.9057539861,2013
2013-11-26,2013-11-26,"חדרה 19, פתח תקווה",חדרה 19,7194-15-26,דירה בבית קומות,3.0,שלישית,77.0,1435000,,,1998.0,,4.0,3286992704,1,719415,False,96% ב 12.4 שנים,פתח תקווה,חדרה,7.74,7194-15-26,7194/15,18636.36363636364,32.1036267239,34.8714205595,2013
2013-11-26,2013-11-26,"שמואל וינברגר 5, פתח תקווה",שמואל וינברגר 5,5482-15-7,דירה בבית קומות,4.0,שניה,83.2,1000000,,,1996.0,,9.0,3287645088,1,548215,False,,פתח תקווה,וינברגר שמואל,,5482-15-7,5482/15,12019.23076923077,32.0737698353,34.9051486937,2013
2013-11-26,2013-11-26,"תור הזהב 4, פתח תקווה",תור הזהב 4,6372-269-1,קוטג' דו משפחתי,7.0,ראשונה,283.0,7260000,,,2013.0,,1.0,3287432924,1,6372269,False,,פתח תקווה,תור הזהב,,6372-269-1,6372/269,25653.710247349823,32.0858726266,34.864132252,2013
2013-11-26,2013-11-26,"זיכרון יעקב 3, פתח תקווה",זיכרון יעקב 3,7195-20-12,דירה בבית קומות,4.0,קרקע,94.2,2050000,,,2000.0,,5.0,3286758471,1,719520,False,,פתח תקווה,זכרון יעקב,,7195-20-12,7195/20,21762.20806794055,32.1018354908,34.8750580342,2013
2013-11-26,2013-11-26,"עמנואל זמיר 12, פתח תקווה",עמנואל זמיר 12,6371-639-42,דירה בבית קומות,5.0,ראשונה+קרקע,114.34,1840000,,,2006.0,,4.0,3287007726,1,6371639,False,,פתח תקווה,זמיר עמנואל,,6371-639-42,6371/639,16092.356130837852,32.0725544677,34.8625990354,2013
2013-11-25,2013-11-25,"הרב פינצ'י 1, פתח תקווה",הרב פינצ'י 1,4043-74-7,דירה,5.0,שתים עשרה,118.0,1552000,1.0,משכנות הדר גנים,2016.0,,17.0,11181244314,1,404374,False,,פתח תקווה,הרב פינצ'י,,4043-74-7,4043/74,13152.542372881357,32.0754082874,34.9057539861,2013
2013-11-25,2013-11-25,"מיכל לייב כץ 30, פתח תקווה",מיכל לייב כץ 30,6714-562-8,דירה בבית קומות,4.0,שניה,98.43,1500000,,,2013.0,,6.0,3287622874,1,6714562,False,,פתח תקווה,כץ מיכל לייב,,6714-562-8,6714/562,15239.256324291371,32.0786604571,34.8809033581,2013
2013-11-25,2013-11-25,"הרב פינצ'י 3, פתח תקווה",הרב פינצ'י 3,4043-72-54,דירה בבית קומות,5.0,אחת עשרה,120.06,1724000,,,2013.0,,12.0,3286975710,1,404372,False,,פתח תקווה,הרב פינצ'י,,4043-72-54,4043/72,14359.486923205064,32.074883226,34.9064943743,2013
2013-11-25,2013-11-25,"בת-שלמה 4, פתח תקווה",בת-שלמה 4,7194-26-244,דירה בבית קומות,4.0,רביעית,101.9,1510000,,,1998.0,,11.0,3286714217,1,719426,False,10% ב 1.8 שנים,פתח תקווה,בת שלמה,5.56,7194-26-244,7194/26,14818.449460255151,32.1039729361,34.8741020559,2013
2013-11-25,2013-11-25,"הרב פינצ'י 1, פתח תקווה",הרב פינצ'י 1,4043-74-8,דירה,5.0,ארבע עשרה,118.0,1580000,1.0,משכנות הדר גנים,2016.0,,17.0,11181244325,1,404374,False,,פתח תקווה,הרב פינצ'י,,4043-74-8,4043/74,13389.830508474575,32.0754082874,34.9057539861,2013
2013-11-25,2013-11-25,"אלכסנדר גרוטו 6, פתח תקווה",אלכסנדר גרוטו 6,6362-172-98,דירה,6.0,שביעית,96.0,2470000,1.0,הדר במושבה שלב ב',,,9.0,11181272084,1,6362172,False,,פתח תקווה,גרוטו אלכסנדר,,6362-172-98,6362/172,25729.166666666668,32.0931377202,34.8758107566,2013
2013-11-25,2013-11-25,"תרזה קוגלמן 1, פתח תקווה",תרזה קוגלמן 1,6362-119-7,דירה בבית קומות,4.5,שניה,108.28,1300000,,,1985.0,,7.0,3286711810,1,6362119,False,,פתח תקווה,קוגלמן תרזה,,6362-119-7,6362/119,12005.910602142592,32.0927192739,34.8738152983,2013
2013-11-25,2013-11-25,"זאב אורלוב 80, פתח תקווה",זאב אורלוב 80,6361-254-10,דירה בבית קומות,3.0,א,68.95,850000,,,1960.0,,7.0,3287188860,1,6361254,False,,פתח תקווה,אורלוב זאב,,6361-254-10,6361/254,12327.773749093543,32.0944453026,34.8867767197,2013
2013-11-25,2013-11-25,"אלתר וינקלר 6, פתח תקווה",אלתר וינקלר 6,6362-114-8,דירה בבית קומות,4.5,שניה,131.36,1700000,,,1996.0,,8.0,3286711578,1,6362114,False,,פתח תקווה,וינקלר אלתר,,6362-114-8,6362/114,12941.534713763702,32.0916480791,34.8727301284,2013
2013-11-24,2013-11-24,"העצמאות 47, פתח תקווה",העצמאות 47,6715-464-32,דירה בבית קומות,5.0,"שמינית, תשיעית",133.1,2825000,,,2006.0,,8.0,3286578758,1,6715464,False,65% ב 7.2 שנים,פתח תקווה,העצמאות,9.03,6715-464-32,6715/464,21224.64312546957,32.0742681658,34.8764233479,2013
2013-11-24,2013-11-24,"אברבנאל 27, פתח תקווה",אברבנאל 27,6403-169-61,דירה בבית קומות,4.0,שביעית,88.5,1478000,,,2008.0,,18.0,3286697687,1,6403169,False,55% ב 5.8 שנים,פתח תקווה,אברבנאל,9.48,6403-169-61,6403/169,16700.564971751413,32.0924305573,34.8941784462,2013
2013-11-24,2013-11-24,"בעל שם-טוב 23, פתח תקווה",בעל שם-טוב 23,6389-342-4,דירה בבית קומות,5.0,שניה,103.79,1440000,,,1980.0,,3.0,3286654158,1,6389342,False,,פתח תקווה,בעל שם טוב,,6389-342-4,6389/342,13874.168995086233,32.0810008501,34.8943638019,2013
2013-11-24,2013-11-24,"הרב אילויצקי 2, פתח תקווה",הרב אילויצקי 2,6374-228-2,חנות,,שניה,,1333000,,,1926.0,,2.0,3306212831,1,6374228,False,,פתח תקווה,הרב אילויצקי,,6374-228-2,6374/228,,32.0887913498,34.8807472227,2013
2013-11-24,2013-11-24,"דוד טבצ'ניק 8, פתח תקווה",דוד טבצ'ניק 8,6362-214-14,דירה בבית קומות,3.0,שלישית,66.3,1220000,,,2000.0,,6.0,3286578062,1,6362214,False,2% ב 2.7 שנים,פתח תקווה,טבצ'ניק דוד,0.74,6362-214-14,6362/214,18401.20663650076,32.0941826596,34.875894898,2013
2013-11-24,2013-11-24,"נחמן מברצלב 12, פתח תקווה",נחמן מברצלב 12,6389-312-22,דירה בבית קומות,3.0,שניה,62.0,850000,,,1970.0,,4.0,3286700558,1,6389312,False,3% ב 3.5 שנים,פתח תקווה,נחמן מברסלב,0.86,6389-312-22,6389/312,13709.67741935484,32.0784815379,34.8971898376,2013
2013-11-24,2013-11-24,"רוטשילד 31, פתח תקווה",רוטשילד 31,6375-207-21,דירה בבית קומות,3.5,ד,58.39,840000,,,1970.0,,4.0,3286700094,1,6375207,False,,פתח תקווה,רוטשילד,,6375-207-21,6375/207,14386.025004281557,32.0923335044,34.881011731,2013
2013-11-24,2013-11-24,"חן 7, פתח תקווה",חן 7,6373-778-20,דירה בבית קומות,2.0,שלישית,42.4,850000,,,1970.0,,5.0,3287574328,1,6373778,False,,פתח תקווה,"ח""ן",,6373-778-20,6373/778,20047.16981132076,32.0900648116,34.8728470428,2013
2013-11-24,2013-11-24,"ברנדייס 45, פתח תקווה",ברנדייס 45,6355-339-6,דירה בבית קומות,5.0,קרקע+שלישית+גג,113.32,1510000,,,1995.0,,,3287103919,1,6355339,False,,פתח תקווה,ברנדייס,,6355-339-6,6355/339,13325.09707024356,32.0987221493,34.8924433252,2013
2013-11-24,2013-11-24,"הרב טולידנו 8, פתח תקווה",הרב טולידנו 8,6404-178-17,דירה בבית קומות,4.0,רביעית,93.0,1160000,1.0,,2013.0,,2.0,3286983337,1,6404178,False,,פתח תקווה,הרב טולידנו,,6404-178-17,6404/178,12473.118279569891,32.0895891495,34.8913663255,2013
2013-11-24,2013-11-24,"שלום דורני 4, פתח תקווה",שלום דורני 4,6355-799-164,דירה בבית קומות,5.0,שניה,119.93,1645000,,,2009.0,,9.0,3286838134,1,6355799,False,39% ב 4.7 שנים,פתח תקווה,דורני שלום,8.3,6355-799-164,6355/799,13716.334528474945,32.0988137368,34.8892206376,2013
2013-11-24,2013-11-24,"רוטשילד 77, פתח תקווה",רוטשילד 77,6374-282-28,דירה בבית קומות,4.0,ששית,86.0,1190000,,,1980.0,,8.0,3286699862,1,6374282,False,65% ב 11.3 שנים,פתח תקווה,רוטשילד,5.75,6374-282-28,6374/282,13837.209302325582,32.0868922631,34.8820977991,2013
2013-11-24,2013-11-24,"שפרינצק 36, פתח תקווה",שפרינצק 36,6388-529-24,דירה בבית קומות,3.0,שניה,48.5,850000,,,1960.0,,4.0,3286653462,1,6388529,False,,פתח תקווה,שפרינצק,,6388-529-24,6388/529,17525.77319587629,32.0728389053,34.891746657,2013
2013-11-22,2013-11-22,"הענבל 26, פתח תקווה",הענבל 26,5510-6-17,דירה בבית קומות,4.0,ראשונה,81.0,1050000,,,1995.0,,3.0,3286694584,1,55106,False,,פתח תקווה,העינבל,,5510-6-17,5510/6,12962.962962962964,32.0763295923,34.9092046855,2013
2013-11-22,2013-11-22,"מבצע יפתח 6, פתח תקווה",מבצע יפתח 6,6361-529-1,דירה בבית קומות,5.0,ראשונה,121.7,1642000,,,2010.0,,24.0,3287369240,1,6361529,False,,פתח תקווה,מבצע חורב,,6361-529-1,6361/529,13492.193919474115,32.0990513761,34.8824682888,2013
2013-11-21,2013-11-21,"גרינבוים 4, פתח תקווה",גרינבוים 4,6401-43-44,דירה בבית קומות,3.0,שלישית,61.2,840000,,,1970.0,,4.0,3286556776,1,640143,False,,פתח תקווה,גרינבוים,,6401-43-44,6401/43,13725.49019607843,32.0837770137,34.9025020684,2013
2013-11-21,2013-11-21,"ברנדייס 47, פתח תקווה",ברנדייס 47,6355-341-3,דירה בבית קומות,4.0,שניה,75.5,900000,,,1970.0,,3.0,3286559850,1,6355341,False,,פתח תקווה,ברנדייס,,6355-341-3,6355/341,11920.529801324505,32.098736568,34.8926918313,2013
2013-11-21,2013-11-21,"מבצע חורב 3, פתח תקווה",מבצע חורב 3,6361-528-34,דירה בבית קומות,5.0,תשיעית,113.0,1640000,,,2010.0,,13.0,3286577105,1,6361528,False,,פתח תקווה,מבצע חורב,,6361-528-34,6361/528,14513.274336283186,32.0992058537,34.8834327849,2013
2013-11-21,2013-11-21,"מבצע דקל 15, פתח תקווה",מבצע דקל 15,6366-169-101,דירה בבית קומות,5.0,עשרים ושלוש,132.0,2000000,,,2013.0,,26.0,3287344387,1,6366169,False,,פתח תקווה,מבצע דקל,,6366-169-101,6366/169,15151.515151515152,32.095390812,34.8706173766,2013
2013-11-21,2013-11-21,"סביון 9, פתח תקווה",סביון 9,6383-42-4,דירה בבית קומות,2.0,קרקע,53.9,1000000,,,1960.0,,3.0,3286757717,1,638342,False,72% ב 5.5 שנים,פתח תקווה,סביון,13.09,6383-42-4,6383/42,18552.87569573284,32.0865841346,34.8905612365,2013
2013-11-21,2013-11-21,"יעל רום 5, פתח תקווה",יעל רום 5,6360-305-32,דירה בבית קומות,5.0,עשירית,120.1,1796000,,,2011.0,,22.0,3286994386,1,6360305,False,,פתח תקווה,רום יעל,,6360-305-32,6360/305,14954.20482930891,32.0996732412,34.8808075308,2013
2013-11-21,2013-11-21,"מיכל לייב כץ 82, פתח תקווה",מיכל לייב כץ 82,6715-258-2,דירה בבית קומות,4.0,ראשונה,91.5,1420000,,,1984.0,,3.0,3286753425,1,6715258,False,30% ב 3.7 שנים,פתח תקווה,כץ מיכל לייב,8.11,6715-258-2,6715/258,15519.125683060109,32.0736526285,34.8866613868,2013
2013-11-21,2013-11-21,"מאיר שפיה 8, פתח תקווה",מאיר שפיה 8,7195-14-3,דירה בבית קומות,3.5,ראשונה,84.2,1450000,,,2002.0,,7.0,3286679533,1,719514,False,99% ב 12 שנים,פתח תקווה,מאיר שפיה,8.25,7195-14-3,7195/14,17220.9026128266,32.1021214793,34.8730681035,2013
2013-11-21,2013-11-21,"יצחק איכילוב 8, פתח תקווה",יצחק איכילוב 8,6380-195-17,דירה בבית קומות,2.0,יציע,59.57,890000,,,1950.0,,3.0,3286783556,1,6380195,False,,פתח תקווה,איכילוב יצחק,,6380-195-17,6380/195,14940.406244754073,32.0875175891,34.8836189611,2013
2013-11-21,2013-11-21,"שדה יצחק 15, פתח תקווה",שדה יצחק 15,6373-619-13,דירה בבית קומות,2.0,ב,37.0,820000,,,1960.0,,3.0,3287056591,1,6373619,False,94% ב 5.1 שנים,פתח תקווה,שדה יצחק,18.43,6373-619-13,6373/619,22162.162162162163,32.0883687989,34.8779425778,2013
