DEALDATE,DEALDATETIME,FULLADRESS,DISPLAYADRESS,GUSH,DEALNATUREDESCRIPTION,ASSETROOMNUM,FLOORNO,DEALNATURE,DEALAMOUNT,NEWPROJECTTEXT,PROJECTNAME,BUILDINGYEAR,YEARBUILT,BUILDINGFLOORS,KEYVALUE,TYPE,POLYGON_ID,TREND_IS_NEGATIVE,TREND_FORMAT,city_name,street,presentage per year,GUSH - Copy,Gush_Helka,Price per sqm,lat,lon,Year
2019-12-31,2019-12-31,"ח""ן 12, באר שבע","ח""ן 12",38353-9-16,דירה בבית קומות,4.0,רביעית,89.7,900000,,,1998.0,,7.0,10800051750,1,383539,False,106% ב 21.6 שנים,באר שבע,"ח""ן",4.91,38353-9-16,38353/9,10033.444816053512,31.2659401879,34.7777809288,2019
2019-12-31,2019-12-31,"קפריסין 26, באר שבע",קפריסין 26,38069-136-9,דירה בבית קומות,3.0,ראשונה,56.8,645000,,,1970.0,,4.0,10801510830,1,38069136,False,20% ב 3.9 שנים,באר שבע,קפריסין,5.13,38069-136-9,38069/136,11355.6338028169,31.2533277548,34.7784733198,2019
2019-12-31,2019-12-31,"מבצע קלשון 7, באר שבע",מבצע קלשון 7,38108-115-8,דירה בבית קומות,4.0,רביעית,80.5,635000,,,1970.0,,4.0,10800772740,1,38108115,False,,באר שבע,מבצע קילשון,,38108-115-8,38108/115,7888.198757763975,31.264394202,34.7800661846,2019
2019-12-31,2019-12-31,"ישראל רוקח 15, באר שבע",ישראל רוקח 15,38130-54-10,דירה בבית קומות,4.0,שניה,79.0,139000,,,1994.0,,5.0,10800102240,1,3813054,False,,באר שבע,רוקח ישראל,,38130-54-10,38130/54,1759.493670886076,31.2626378585,34.7672185611,2019
2019-12-31,2019-12-31,"דובדבן 29, באר שבע",דובדבן 29,38363-19-5,קוטג' חד משפחתי,6.0,"קומה ‎0‏, קומה ‎1‏",156.6,2195000,1.0,רויאל קינג קונספט,2018.0,,1.0,10800837270,1,3836319,False,,באר שבע,דובדבן,,38363-19-5,38363/19,14016.60280970626,31.2870644032,34.8006349979,2019
2019-12-30,2019-12-30,"מבצע יואב 13, באר שבע",מבצע יואב 13,38094-47-42,דירה בבית קומות,2.0,קרקע,34.0,529000,,,1970.0,,3.0,10800055530,1,3809447,False,15% ב 3.6 שנים,באר שבע,מבצע יואב,4.17,38094-47-42,38094/47,15558.823529411764,31.2591616388,34.78039287,2019
2019-12-30,2019-12-30,"החיד""א 109, באר שבע","החיד""א 109",38118-28-53,דירה בבית קומות,3.0,שלישית,62.2,630000,,,1980.0,,4.0,10802104110,1,3811828,False,46% ב 6 שנים,באר שבע,"החיד""א",7.67,38118-28-53,38118/28,10128.61736334405,31.2545053008,34.7670936619,2019
2019-12-30,2019-12-30,"הרב שלמה טנא 2, באר שבע",הרב שלמה טנא 2,38389-16-11,דירה בבית קומות,4.0,,110.0,1150000,,,2002.0,,7.0,10801075050,1,3838916,False,,באר שבע,הרב טנא שלמה,,38389-16-11,38389/16,10454.545454545454,31.2344433928,34.7820411878,2019
2019-12-30,2019-12-30,"רחה פריאר 9, באר שבע",רחה פריאר 9,38018-52-183,משרד,,עשרים ואחת,134.0,1891000,,,2019.0,,8.0,10801642230,1,3801852,False,,באר שבע,פריאר רחה,,38018-52-183,38018/52,14111.940298507465,31.2451209471,34.8024816208,2019
2019-12-30,2019-12-30,"בן-אשר 1, באר שבע",בן-אשר 1,38353-19-6,דירה בבית קומות,3.5,שניה,73.0,919000,,,1995.0,,4.0,10800057690,1,3835319,False,58% ב 7.5 שנים,באר שבע,בן אשר,7.73,38353-19-6,38353/19,12589.04109589041,31.2673778098,34.7761365124,2019
2019-12-30,2019-12-30,"מוצא 7, באר שבע",מוצא 7,38111-109-48,דירה בבית קומות,5.0,שמינית,98.0,1250000,,,2001.0,,11.0,10802106270,1,38111109,False,,באר שבע,מוצא,,38111-109-48,38111/109,12755.102040816326,31.245074087,34.7693075804,2019
2019-12-29,2019-12-29,"מבצע יקב 8, באר שבע",מבצע יקב 8,38108-12-8,דירה בבית קומות,3.0,רביעית,62.9,600000,,,1980.0,,4.0,10735366950,1,3810812,False,3% ב 2 שנים,באר שבע,מבצע יקב,1.5,38108-12-8,38108/12,9538.950715421304,31.2651563951,34.7796780981,2019
2019-12-29,2019-12-29,"מצדה 166, באר שבע",מצדה 166,38128-8-3,חנות,,קרקע,34.0,450000,,,1970.0,,4.0,10801249470,1,381288,False,125% ב 5.8 שנים,באר שבע,מצדה,21.55,38128-8-3,38128/8,13235.29411764706,31.2587147461,34.7821363241,2019
2019-12-29,2019-12-29,"רבי עקיבא 11, באר שבע",רבי עקיבא 11,38075-1-26,דירה בבית קומות,2.0,ראשונה,36.5,617000,,,1960.0,,3.0,10800449910,1,380751,False,3% ב 3 שנים,באר שבע,רבי עקיבא,1.0,38075-1-26,38075/1,16904.109589041094,31.2590011269,34.7919034854,2019
2019-12-29,2019-12-29,"אשכולית 10, באר שבע",אשכולית 10,38364-2-31,דירה בבית קומות,5.0,שלישית,139.0,1400000,,,2020.0,,3.0,10800841050,1,383642,False,,באר שבע,אשכולית,,38364-2-31,38364/2,10071.942446043166,31.2881243399,34.8019151403,2019
2019-12-29,2019-12-29,"בר-ניסן 23, באר שבע",בר-ניסן 23,38187-43-12,דירה בבית קומות,4.0,שלישית,88.0,1200000,,,2002.0,,8.0,10800200970,1,3818743,False,73% ב 9.8 שנים,באר שבע,בר ניסן,7.45,38187-43-12,38187/43,13636.363636363636,31.2405558011,34.7641732451,2019
2019-12-29,2019-12-29,"רחה פריאר 9, באר שבע",רחה פריאר 9,38018-52-111,משרד,1.0,,172.0,1891656,1.0,M TOWER,2019.0,,8.0,11181229146,1,3801852,False,,באר שבע,פריאר רחה,,38018-52-111,38018/52,10998.0,31.2451209471,34.8024816208,2019
2019-12-27,2019-12-27,"ח""ן 19, באר שבע","ח""ן 19",38352-14-6,דירה בבית קומות,3.0,שניה,66.0,700000,,,1997.0,,3.0,10735096590,1,3835214,False,13% ב 6.2 שנים,באר שבע,"ח""ן",2.1,38352-14-6,38352/14,10606.060606060606,31.2656602575,34.7759730039,2019
2019-12-26,2019-12-26,"מבצע נחשון 60, באר שבע",מבצע נחשון 60,38085-59-5,חנות,,קרקע,42.19,560000,,,1996.0,,1.0,10803492630,1,3808559,False,40% ב 9.5 שנים,באר שבע,מבצע נחשון,4.21,38085-59-5,38085/59,13273.287508888365,31.260588625,34.7874206047,2019
2019-12-26,2019-12-26,"ישראל שוחט 23, באר שבע",ישראל שוחט 23,38194-4-4,דירה בבית קומות,5.0,שניה,149.3,1600000,,,2015.0,,3.0,10800045000,1,381944,False,10% ב 4.5 שנים,באר שבע,שוחט ישראל,2.22,38194-4-4,38194/4,10716.67782987274,31.2335734491,34.7664556281,2019
2019-12-26,2019-12-26,"רחה פריאר 9, באר שבע",רחה פריאר 9,38018-52-184,משרד,,שבע עשרה,67.0,940000,,,2019.0,,8.0,10802046240,1,3801852,False,,באר שבע,פריאר רחה,,38018-52-184,38018/52,14029.850746268658,31.2451209471,34.8024816208,2019
2019-12-26,2019-12-26,"יעקב פיכמן 8, באר שבע",יעקב פיכמן 8,38139-4-57,דירה בבית קומות,3.0,ראשונה,79.0,1020000,,,2000.0,,3.0,10800360630,1,381394,False,20% ב 6 שנים,באר שבע,פיכמן יעקב,3.33,38139-4-57,38139/4,12911.39240506329,31.2375400579,34.7754716136,2019
2019-12-26,2019-12-26,"דוד טוביהו 121, באר שבע",דוד טוביהו 121,38110-5-392,דירה בבית קומות,4.0,עשרים,123.0,1585000,,,2019.0,,30.0,10800852210,1,381105,False,,באר שבע,טוביהו דוד,,38110-5-392,38110/5,12886.178861788618,31.2499573475,34.773857833,2019
2019-12-26,2019-12-26,"יעקב כהן 12, באר שבע",יעקב כהן 12,38074-157-14,דירה בבית קומות,5.0,אחת עשרה,160.0,1700000,,,2012.0,,11.0,10801964610,1,38074157,False,,באר שבע,כהן יעקב,,38074-157-14,38074/157,10625.0,31.2548138223,34.7975201187,2019
2019-12-26,2019-12-26,"תל חי 12, באר שבע",תל חי 12,38263-6-2,דירה בבית קומות,2.0,ראשונה,70.0,960000,,,1983.0,,1.0,10802372760,1,382636,False,,באר שבע,תל חי,,38263-6-2,38263/6,13714.285714285714,31.2516529741,34.7895650971,2019
2019-12-26,2019-12-26,"מוריה 16, באר שבע",מוריה 16,38116-14-22,דירה בבית קומות,4.0,שניה,86.0,309000,,,1970.0,,3.0,10800417870,1,3811614,False,,באר שבע,מוריה,,38116-14-22,38116/14,3593.0232558139537,31.2465739446,34.7840154123,2019
2019-12-26,2019-12-26,"זיסו 5, באר שבע",זיסו 5,38028-85-1,דירה בבית קומות,3.0,קרקע,75.6,800000,,,1960.0,,2.0,10801686780,1,3802885,True,-2% ב 2 שנים,באר שבע,זיסו,-1.0,38028-85-1,38028/85,10582.010582010584,31.2557460031,34.8090549056,2019
2019-12-25,2019-12-25,"ציזלינג 3, באר שבע",ציזלינג 3,38131-12-11,דירה בבית קומות,4.0,שלישית,71.8,715000,,,1990.0,,3.0,10735383240,1,3813112,False,11% ב 4.3 שנים,באר שבע,ציזלינג,2.56,38131-12-11,38131/12,9958.217270194986,31.2587297717,34.7636843914,2019
2019-12-25,2019-12-25,"דב סרן 7, באר שבע",דב סרן 7,38137-23-42,דירה בבית קומות,4.5,תשיעית,94.4,1000000,,,1998.0,,16.0,10802445480,1,3813723,False,11% ב 4.2 שנים,באר שבע,סרן דב,2.62,38137-23-42,38137/23,10593.22033898305,31.2355831725,34.77966067,2019
2019-12-25,2019-12-25,"רחה פריאר 9, באר שבע",רחה פריאר 9,38018-52-110,דירה,1.0,,67.0,940680,1.0,M TOWER,2019.0,,8.0,11181229145,1,3801852,False,,באר שבע,פריאר רחה,,38018-52-110,38018/52,14040.0,31.2451209471,34.8024816208,2019
2019-12-25,2019-12-25,"צבייה ויצחק 7, באר שבע",צבייה ויצחק 7,38313-15-1,קוטג' דו משפחתי,3.0,,60.0,900000,,,1994.0,,,10735370010,1,3831315,False,,באר שבע,צביה ויצחק,,38313-15-1,38313/15,15000.0,31.2246385397,34.7786366367,2019
2019-12-25,2019-12-25,"מקלף מרדכי 38, באר שבע",מקלף מרדכי 38,38132-12-8,דירת גן,5.0,קרקע,98.0,1050000,,,1993.0,,2.0,10735173090,1,3813212,False,,באר שבע,מקלף מרדכי,,38132-12-8,38132/12,10714.285714285714,31.2696684267,34.7783449346,2019
2019-12-25,2019-12-25,"צפת 2, באר שבע",צפת 2,38112-2-132,דירה בבית קומות,3.0,חמישית,64.8,850000,,,1980.0,,,10734994890,1,381122,False,102% ב 9.7 שנים,באר שבע,צפת,10.52,38112-2-132,38112/2,13117.283950617284,31.247778882,34.7747414507,2019
2019-12-25,2019-12-25,"זאב ז'בוטינסקי 20, באר שבע",זאב ז'בוטינסקי 20,38031-40-2,דירה בבית קומות,4.5,ראשונה,56.38,1020000,,,1960.0,,2.0,10734968880,1,3803140,False,,באר שבע,ז'בוטינסקי זאב,,38031-40-2,38031/40,18091.521816246892,31.2485759782,34.8089750075,2019
2019-12-24,2019-12-24,"ברנע דב 33, באר שבע",ברנע דב 33,38367-9-30,דירה בבית קומות,5.0,ראשונה,112.0,1340000,,,2005.0,,2.0,10735006140,1,383679,False,44% ב 9.8 שנים,באר שבע,ברנע דב,4.49,38367-9-30,38367/9,11964.285714285714,31.2850705815,34.8026559212,2019
2019-12-24,2019-12-24,"משה דיין 8, באר שבע",משה דיין 8,38352-5-25,דירה בבית קומות,3.5,שלישית,69.3,750000,,,1996.0,,5.0,10800625680,1,383525,False,28% ב 6.9 שנים,באר שבע,דיין משה,4.06,38352-5-25,38352/5,10822.510822510823,31.2644633437,34.7727045,2019
2019-12-24,2019-12-24,"ישראל גלילי 5, באר שבע",ישראל גלילי 5,38368-9-16,דירה בבית קומות,4.0,רביעית,84.0,1170000,,,2003.0,,4.0,10735069230,1,383689,False,31% ב 6.1 שנים,באר שבע,גלילי ישראל,5.08,38368-9-16,38368/9,13928.57142857143,31.2828775497,34.8033934625,2019
2019-12-24,2019-12-24,"נחום שריג 2, באר שבע",נחום שריג 2,38373-12-1,דירת גן,4.0,קרקע,83.6,1160000,,,2006.0,,5.0,10735257060,1,3837312,False,100% ב 11.3 שנים,באר שבע,שריג נחום,8.85,38373-12-1,38373/12,13875.598086124402,31.2807282031,34.8051204818,2019
2019-12-24,2019-12-24,"גדעון האוזנר 42, באר שבע",גדעון האוזנר 42,38365-16-78,דירה בבית קומות,3.0,רביעית,95.0,950000,,,2017.0,,6.0,10734865650,1,3836516,False,,באר שבע,האוזנר גדעון,,38365-16-78,38365/16,10000.0,31.2871255002,34.8071219205,2019
2019-12-24,2019-12-24,"השלום 131, באר שבע",השלום 131,38027-27-11,דירה בבית קומות,3.0,שניה,60.0,740000,,,1960.0,,2.0,10800345150,1,3802727,False,64% ב 6 שנים,באר שבע,השלום,10.67,38027-27-11,38027/27,12333.333333333334,31.2574597592,34.8112029738,2019
2019-12-24,2019-12-24,"ביאליק 59, באר שבע",ביאליק 59,38074-52-19,דירה בבית קומות,3.0,שניה,54.8,690000,,,1970.0,,4.0,10800001890,1,3807452,False,,באר שבע,ביאליק,,38074-52-19,38074/52,12591.24087591241,31.2530710107,34.7918920646,2019
2019-12-24,2019-12-24,"מינץ 18, באר שבע",מינץ 18,38101-12-8,דירה בבית קומות,2.0,שניה,32.9,450000,,,1970.0,,3.0,10735278570,1,3810112,False,57% ב 7 שנים,באר שבע,מינץ,8.14,38101-12-8,38101/12,13677.811550151975,31.2582792924,34.7772903083,2019
2019-12-23,2019-12-23,"מוריה 3, באר שבע",מוריה 3,38116-6-21,דירה בבית קומות,4.0,שלישית,81.5,810000,,,1970.0,,4.0,10735448580,1,381166,False,140% ב 19.5 שנים,באר שבע,מוריה,7.18,38116-6-21,38116/6,9938.650306748466,31.2479078766,34.7842315356,2019
2019-12-23,2019-12-23,"דייה 53, באר שבע",דייה 53,38265-92-1,דירה בבית קומות,5.0,,145.0,2060000,,,2012.0,,,10734819660,1,3826592,False,,באר שבע,דיה,,38265-92-1,38265/92,14206.896551724138,31.2316470429,34.762088959,2019
2019-12-23,2019-12-23,"סוקולוב 26, באר שבע",סוקולוב 26,38116-63-78,דירה בבית קומות,4.0,תשע עשרה,117.2,1400000,,,2012.0,,28.0,10801989720,1,3811663,False,33% ב 7.5 שנים,באר שבע,סוקולוב,4.4,38116-63-78,38116/63,11945.392491467575,31.2464339126,34.7894633131,2019
2019-12-23,2019-12-23,"נחום שריג 18, באר שבע",נחום שריג 18,38370-9-36,דירה בבית קומות,5.0,רביעית,104.0,1360000,,,2015.0,,4.0,10734922890,1,383709,False,3% ב 3 שנים,באר שבע,שריג נחום,1.0,38370-9-36,38370/9,13076.923076923076,31.2817239674,34.8057063232,2019
2019-12-23,2019-12-23,"רות הילמן 1, ",רות הילמן 1,100613-340-1,קרקע למגורים,,,461.0,800000,,,,,,10735078140,1,100613340,False,,באר שבע,רות הילמן,,100613-340-1,100613/340,1735.357917570499,31.2737988221,34.7573424079,2019
2019-12-23,2019-12-23,"אירוס הנגב 42, באר שבע",אירוס הנגב 42,38253-72-1,דירה בבית קומות,6.0,,180.0,1820000,,,2000.0,,,10734861240,1,3825372,False,,באר שבע,אירוס הנגב,,38253-72-1,38253/72,10111.111111111111,31.229040077,34.7940692,2019
2019-12-23,2019-12-23,"הכוזרי 4, באר שבע",הכוזרי 4,38070-14-2,דירה בבית קומות,4.0,קרקע,84.1,344000,,,1960.0,,1.0,10735177500,1,3807014,False,,באר שבע,הכוזרי,,38070-14-2,38070/14,4090.368608799049,31.2571781611,34.7924017883,2019
2019-12-23,2019-12-23,"נחום שריג 31, באר שבע",נחום שריג 31,38370-14-17,דירה בבית קומות,4.0,שלישית,117.0,1060000,,,2005.0,,3.0,10735272720,1,3837014,False,,באר שבע,שריג נחום,,38370-14-17,38370/14,9059.82905982906,31.2827832502,34.8055374844,2019
2019-12-23,2019-12-23,"בצלאל 26, באר שבע",בצלאל 26,38071-64-9,דירה בבית קומות,3.0,שלישית,48.0,650000,,,1960.0,,3.0,10800348840,1,3807164,True,-1% ב 3.5 שנים,באר שבע,בצלאל,-0.29,38071-64-9,38071/64,13541.666666666666,31.2545635143,34.789745902,2019
2019-12-23,2019-12-23,"נחום שריג 51, באר שבע",נחום שריג 51,38365-10-1,דירה בבית קומות,5.0,ראשונה,109.4,1630000,,,2019.0,,7.0,10800068850,1,3836510,False,,באר שבע,שריג נחום,,38365-10-1,38365/10,14899.45155393053,31.2866508751,34.8058293162,2019
2019-12-23,2019-12-23,"גדעון האוזנר 42, באר שבע",גדעון האוזנר 42,38365-16-55,דירה,3.0,,95.0,950000,1.0,רמות פמילי,2017.0,,6.0,11181231532,1,3836516,False,,באר שבע,האוזנר גדעון,,38365-16-55,38365/16,10000.0,31.2871255002,34.8071219205,2019
2019-12-22,2019-12-22,"שער הגיא 15, באר שבע",שער הגיא 15,38111-99-31,דירה בבית קומות,5.0,שמינית,115.9,1150000,,,1997.0,,9.0,10800191340,1,3811199,False,,באר שבע,שער הגיא,,38111-99-31,38111/99,9922.346850733393,31.2466192606,34.7692182429,2019
2019-12-22,2019-12-22,"אבשלום 12, באר שבע",אבשלום 12,38387-10-15,דירה בבית קומות,4.0,שניה,90.0,970000,,,1995.0,,2.0,10735367670,1,3838710,False,0% ב 3 שנים,באר שבע,אבשלום,0.0,38387-10-15,38387/10,10777.777777777776,31.2653666105,34.7652191717,2019
2019-12-22,2019-12-22,"אריה דולצ'ין 15, באר שבע",אריה דולצ'ין 15,38130-60-14,דירה בבית קומות,4.0,שלישית,79.0,740000,,,1993.0,,5.0,10734809310,1,3813060,False,,באר שבע,דולצ'ין אריה,,38130-60-14,38130/60,9367.088607594937,31.2625145211,34.7661380509,2019
2019-12-22,2019-12-22,,,100613-329-1,קרקע למגורים,,,472.0,940000,,,,,,10735081110,2,100613329,False,,באר שבע,"ד""ר וילהלמינה כהן",,100613-329-1,100613/329,1991.5254237288136,31.2743322119,34.7530171189,2019
2019-12-22,2019-12-22,"מבצע עובדה 114, באר שבע",מבצע עובדה 114,38106-22-12,דירה בבית קומות,4.0,רביעית,79.7,700000,,,1980.0,,9.0,10734742620,1,3810622,False,55% ב 8.7 שנים,באר שבע,מבצע עובדה,6.32,38106-22-12,38106/22,8782.936010037642,31.2627522662,34.7735838382,2019
2019-12-21,2019-12-21,"שמעון ברנפלד 13, באר שבע",שמעון ברנפלד 13,38091-26-29,דירה בבית קומות,3.0,שלישית,51.3,700000,,,1970.0,,4.0,10734767640,1,3809126,False,12% ב 4.2 שנים,באר שבע,ברנפלד שמעון,2.86,38091-26-29,38091/26,13645.22417153996,31.2704873851,34.7993522527,2019
2019-12-20,2019-12-20,"צפת 4, באר שבע",צפת 4,38112-2-93,דירה בבית קומות,3.0,שניה,64.2,845000,,,1980.0,,,10800767610,1,381122,False,,באר שבע,צפת,,38112-2-93,38112/2,13161.993769470404,31.247778882,34.7747414507,2019
2019-12-20,2019-12-20,"המוכתר 4, באר שבע",המוכתר 4,38035-85-31,דירה בבית קומות,3.5,שביעית,100.0,1200000,,,2013.0,,12.0,10734976350,1,3803585,True,-8% ב 3.5 שנים,באר שבע,המוכתר,-2.29,38035-85-31,38035/85,12000.0,31.2435768083,34.7864499458,2019
2019-12-20,2019-12-20,"נחום שריג 5, באר שבע",נחום שריג 5,38373-13-30,דירה בבית קומות,4.0,שלישית,86.0,1060000,,,2003.0,,6.0,10734625890,1,3837313,False,38% ב 8.5 שנים,באר שבע,שריג נחום,4.47,38373-13-30,38373/13,12325.581395348838,31.2812590362,34.8045741517,2019
2019-12-20,2019-12-20,"המעפילים 24, באר שבע",המעפילים 24,38031-12-17,דירה בבית קומות,4.0,חמישית,76.5,825000,,,1993.0,,8.0,10734625170,1,3803112,False,91% ב 9.5 שנים,באר שבע,המעפילים,9.58,38031-12-17,38031/12,10784.313725490196,31.2505187436,34.807992973,2019
2019-12-20,2019-12-20,"לואי פיקרד 14, באר שבע",לואי פיקרד 14,38375-4-5,דירה בבית קומות,4.0,ראשונה,93.0,1100000,,,2000.0,,5.0,10734655590,1,383754,False,103% ב 19 שנים,באר שבע,פיקרד,5.42,38375-4-5,38375/4,11827.956989247312,31.2775609027,34.8001602841,2019
2019-12-20,2019-12-20,"וילנאי זאב 12, באר שבע",וילנאי זאב 12,38355-15-9,דירה בבית קומות,4.0,ראשונה,95.0,1000000,,,1995.0,,2.0,10735095240,1,3835515,False,19% ב 6 שנים,באר שבע,וילנאי זאב,3.17,38355-15-9,38355/15,10526.315789473683,31.2761458161,34.8039784601,2019
2019-12-19,2019-12-19,"אהרון מסקין 55, באר שבע",אהרון מסקין 55,100621-15-22,דירה בבית קומות,4.0,קרקע,86.0,1185000,,,1998.0,,2.0,10734844770,1,10062115,False,148% ב 21.5 שנים,באר שבע,מסקין אהרון,6.88,100621-15-22,100621/15,13779.06976744186,31.2717582147,34.7648750003,2019
2019-12-19,2019-12-19,"מאיר גרוסמן 5, באר שבע",מאיר גרוסמן 5,38146-7-11,דירה בבית קומות,3.0,שניה,69.77,945000,,,1997.0,,10.0,10734666660,1,381467,False,9% ב 4.3 שנים,באר שבע,גרוסמן מאיר,2.09,38146-7-11,38146/7,13544.503368209833,31.234647465,34.7668847486,2019
2019-12-19,2019-12-19,"המשחררים 86, באר שבע",המשחררים 86,38098-75-7,דירה בבית קומות,3.0,שניה,57.0,1140000,,,1970.0,,3.0,10800437940,1,3809875,False,,באר שבע,המשחררים,,38098-75-7,38098/75,20000.0,31.2508110296,34.7844844692,2019
2019-12-19,2019-12-19,"הרצל גרינשפן 14, באר שבע",הרצל גרינשפן 14,38384-22-6,דירה בבית קומות,4.0,ראשונה,92.0,1085000,,,1998.0,,4.0,10734733710,1,3838422,False,55% ב 7.5 שנים,באר שבע,גרינשפן הרשל,7.33,38384-22-6,38384/22,11793.478260869566,31.2687983451,34.758359042,2019
2019-12-19,2019-12-19,"הרב אסף שמחה 39, באר שבע",הרב אסף שמחה 39,38093-53-18,דירה בבית קומות,3.0,שלישית,50.6,770000,,,1960.0,,4.0,10734663690,1,3809353,False,51% ב 0.6 שנים,באר שבע,הרב אסף שמחה,85.0,38093-53-18,38093/53,15217.391304347826,31.2654472806,34.8027576837,2019
2019-12-19,2019-12-19,"טבנקין 70, באר שבע",טבנקין 70,38102-9-21,דירה בבית קומות,3.0,שלישית,56.8,620000,,,1970.0,,4.0,10801588680,1,381029,False,137% ב 21.9 שנים,באר שבע,טבנקין,6.26,38102-9-21,38102/9,10915.49295774648,31.2539959047,34.7726863455,2019
2019-12-19,2019-12-19,"חביבה רייק 10, באר שבע",חביבה רייק 10,38027-37-3,דירה בבית קומות,2.0,קרקע,37.7,254000,,,1960.0,,3.0,10734751980,1,3802737,False,,באר שבע,רייק חביבה,,38027-37-3,38027/37,6737.400530503978,31.257779973,34.8084965998,2019
2019-12-19,2019-12-19,"מעלה עקרבים 30, באר שבע",מעלה עקרבים 30,38058-15-4,דירה בבית קומות,4.0,קרקע+ראשונה,116.4,1190000,,,1970.0,,1.0,10734692670,1,3805815,False,,באר שבע,מעלה עקרבים,,38058-15-4,38058/15,10223.367697594502,31.2481154693,34.7799252463,2019
2019-12-19,2019-12-19,"מינץ 36, באר שבע",מינץ 36,38021-27-12,דירה בבית קומות,3.0,שניה,56.95,535000,,,1970.0,,4.0,10800754920,1,3802127,False,,באר שבע,מינץ,,38021-27-12,38021/27,9394.205443371378,31.2570509497,34.778594895,2019
2019-12-19,2019-12-19,"מרדכי נמיר 3, באר שבע",מרדכי נמיר 3,38124-68-19,דירה בבית קומות,3.0,חמישית,65.9,735000,,,1990.0,,8.0,10735457490,1,3812468,False,5% ב 1.2 שנים,באר שבע,נמיר מרדכי,4.17,38124-68-19,38124/68,11153.262518968131,31.2586706474,34.7674745979,2019
2019-12-19,2019-12-19,"עוזייה המלך 5, באר שבע",עוזייה המלך 5,38078-34-3,דירה בבית קומות,3.0,שניה,44.3,690000,,,1960.0,,3.0,10734719400,1,3807834,False,167% ב 20.3 שנים,באר שבע,עוזיה המלך,8.23,38078-34-3,38078/34,15575.620767494358,31.2608434754,34.7939832428,2019
2019-12-19,2019-12-19,"יוהנה ז'בוטינסקי 60, באר שבע",יוהנה ז'בוטינסקי 60,38191-6-81,דירה בבית קומות,4.0,ראשונה,88.0,1100000,,,1999.0,,17.0,10734943500,1,381916,False,163% ב 17.2 שנים,באר שבע,יוהנה ז'בוטינסקי,9.48,38191-6-81,38191/6,12500.0,31.2366538537,34.770368037,2019
2019-12-19,2019-12-19,"שקמה 21, באר שבע",שקמה 21,38363-22-3,קוטג' דו משפחתי,6.0,"קומה ‎0‏, קומה ‎1‏",156.6,2195000,,,2018.0,,1.0,10735176150,1,3836322,False,,באר שבע,שקמה,,38363-22-3,38363/22,14016.60280970626,31.2864789759,34.8009835486,2019
2019-12-18,2019-12-18,"יהודה הלוי 48, באר שבע",יהודה הלוי 48,38096-18-61,דירה בבית קומות,4.0,שמינית,120.0,950000,,,2000.0,,15.0,10734827850,1,3809618,False,,באר שבע,יהודה הלוי,,38096-18-61,38096/18,7916.666666666667,31.2656410395,34.7893540139,2019
2019-12-18,2019-12-18,"המלכים 12, באר שבע",המלכים 12,38178-82-5,דירה בבית קומות,3.0,ראשונה,66.0,865000,,,1998.0,,2.0,10734516810,1,3817882,False,4% ב 4.3 שנים,באר שבע,המלכים,0.93,38178-82-5,38178/82,13106.060606060606,31.2649158014,34.757438341,2019
2019-12-18,2019-12-18,"מנדלסון 11, באר שבע",מנדלסון 11,38071-51-2,דירה בבית קומות,7.0,,168.0,1420000,,,1950.0,,1.0,10800120060,1,3807151,False,,באר שבע,מנדלסון,,38071-51-2,38071/51,8452.380952380952,31.2563136813,34.789767169,2019
2019-12-18,2019-12-18,"תמר 43, באר שבע",תמר 43,38010-238-1,קוטג' חד משפחתי,6.0,,227.0,2400000,,,2001.0,,,10734487020,1,38010238,False,,באר שבע,תמר,,38010-238-1,38010/238,10572.687224669604,31.2297804722,34.7881070662,2019
2019-12-18,2019-12-18,"דובדבן 24, באר שבע",דובדבן 24,38363-18-3,קוטג' דו משפחתי,6.0,"קומה ‎0‏, קומה ‎1‏",156.6,2200000,,,2018.0,,1.0,10735179840,1,3836318,False,,באר שבע,דובדבן,,38363-18-3,38363/18,14048.5312899106,31.2873730057,34.800511631,2019
2019-12-18,2019-12-18,"מרגיט להמן 31, ",מרגיט להמן 31,100616-112-1,קרקע למגורים,,,475.0,930000,,,,,,10734940710,1,100616112,False,,באר שבע,מרגיט להמן,,100616-112-1,100616/112,1957.8947368421047,31.2710639152,34.7510690014,2019
2019-12-18,2019-12-18,"ארלוזורוב 22, באר שבע",ארלוזורוב 22,38028-9-3,דירה בבית קומות,6.0,ראשונה,140.0,1350000,,,1950.0,,1.0,10734580620,1,380289,False,164% ב 6.5 שנים,באר שבע,ארלוזורוב,25.23,38028-9-3,38028/9,9642.857142857143,31.254102435,34.8065406159,2019
2019-12-18,2019-12-18,"לאה 33, באר שבע",לאה 33,38385-2-69,דירה בבית קומות,3.0,קרקע,65.0,1200000,,,1999.0,,4.0,10734723900,1,383852,False,47% ב 5.6 שנים,באר שבע,לאה,8.39,38385-2-69,38385/2,18461.53846153846,31.2684613856,34.7601900721,2019
2019-12-17,2019-12-17,"יוהנה ז'בוטינסקי 14, באר שבע",יוהנה ז'בוטינסקי 14,38190-5-148,דירה בבית קומות,4.0,ארבע עשרה,91.0,1030000,,,1999.0,,18.0,10801739520,1,381905,False,157% ב 17.3 שנים,באר שבע,יוהנה ז'בוטינסקי,9.08,38190-5-148,38190/5,11318.681318681318,31.2413886823,34.7765745515,2019
2019-12-17,2019-12-17,"גוש עציון 22, באר שבע",גוש עציון 22,38028-59-7,דירה בבית קומות,3.0,חמישית,76.0,930000,,,2015.0,,3.0,10734449940,1,3802859,False,,באר שבע,גוש עציון,,38028-59-7,38028/59,12236.842105263158,31.2550727432,34.8078138231,2019
2019-12-17,2019-12-17,"התקווה 1, באר שבע",התקווה 1,38015-49-36,דירה בבית קומות,4.0,שניה,113.0,1300000,,,2011.0,,10.0,10801677150,1,3801549,False,,באר שבע,התקוה,,38015-49-36,38015/49,11504.424778761062,31.244518392,34.7987802401,2019
2019-12-17,2019-12-17,"מבצע עובדה 37, באר שבע",מבצע עובדה 37,38094-37-41,דירה בבית קומות,3.0,שלישית,66.8,215000,,,1970.0,,4.0,10734513750,1,3809437,False,,באר שבע,מבצע עובדה,,38094-37-41,38094/37,3218.5628742514973,31.2597010048,34.7761577941,2019
2019-12-17,2019-12-17,"נחום שריג 23, באר שבע",נחום שריג 23,38370-13-25,דירה בבית קומות,4.0,חמישית,94.0,1024000,,,2003.0,,5.0,10734899130,1,3837013,False,70% ב 10.7 שנים,באר שבע,שריג נחום,6.54,38370-13-25,38370/13,10893.617021276596,31.2822440394,34.8053747831,2019
2019-12-17,2019-12-17,"הפחח 12, באר שבע",הפחח 12,38143-12-1,תעשיה,,,250.0,2749000,,,1989.0,,,10802008260,1,3814312,False,,באר שבע,הפחח,,38143-12-1,38143/12,10996.0,31.2250432238,34.8098896946,2019
2019-12-17,2019-12-17,"עין גדי 40, באר שבע",עין גדי 40,38324-63-2,דירה בבית קומות,6.0,,200.0,1940000,,,1970.0,,1.0,10734444810,1,3832463,False,,באר שבע,עין גדי,,38324-63-2,38324/63,9700.0,31.2510704504,34.7673038426,2019
2019-12-17,2019-12-17,"הרא""ש 16, באר שבע","הרא""ש 16",38103-40-36,דירה בבית קומות,2.0,רביעית,43.7,440000,,,1970.0,,4.0,10734523380,1,3810340,False,252% ב 11.5 שנים,באר שבע,"הרא""ש",21.91,38103-40-36,38103/40,10068.649885583523,31.2580513076,34.7741337423,2019
2019-12-17,2019-12-17,"שער הגיא 11, באר שבע",שער הגיא 11,38111-97-68,דירה בבית קומות,5.0,תשיעית,129.5,1350000,,,1996.0,,9.0,10734660810,1,3811197,True,-6% ב 5.5 שנים,באר שבע,שער הגיא,-1.09,38111-97-68,38111/97,10424.710424710423,31.2460121396,34.7689356554,2019
2019-12-16,2019-12-16,"שאול המלך 125, באר שבע",שאול המלך 125,38103-51-22,דירה בבית קומות,3.0,שלישית,59.8,640000,,,1980.0,,4.0,10734896880,1,3810351,False,,באר שבע,שאול המלך,,38103-51-22,38103/51,10702.341137123747,31.2597937663,34.7721984775,2019
2019-12-16,2019-12-16,"דוד ניב ניב 11, באר שבע",דוד ניב ניב 11,38189-59-32,דירה בבית קומות,4.0,חמישית,87.3,970000,,,1999.0,,11.0,10800782370,1,3818959,False,34% ב 8.7 שנים,באר שבע,ניב דוד,3.91,38189-59-32,38189/59,11111.111111111111,31.2391098106,34.768781546,2019
2019-12-16,2019-12-16,"פרופ' שיבא 43, באר שבע",פרופ' שיבא 43,38182-25-3,דירה בבית קומות,6.5,,271.0,1750000,,,1985.0,,1.0,10734725520,1,3818225,False,,באר שבע,פרופ' שיבא,,38182-25-3,38182/25,6457.564575645756,31.2597796969,34.7574119149,2019
2019-12-16,2019-12-16,"המרי העברי 14, באר שבע",המרי העברי 14,38069-126-5,דירה בבית קומות,3.0,שלישית,59.5,610000,,,1970.0,,3.0,10734379380,1,38069126,False,,באר שבע,המרי העברי,,38069-126-5,38069/126,10252.100840336134,31.2556448859,34.7781080095,2019
2019-12-15,2019-12-15,"אשכולית 10, באר שבע",אשכולית 10,38364-2-32,דירה בבית קומות,5.0,חמישית,141.0,1450000,,,2020.0,,3.0,10800399330,1,383642,False,,באר שבע,אשכולית,,38364-2-32,38364/2,10283.687943262412,31.2881243399,34.8019151403,2019
2019-12-15,2019-12-15,"אנדה עמיר 80, באר שבע",אנדה עמיר 80,38166-49-2,דירה בבית קומות,4.0,קרקע,83.0,1340000,,,1998.0,,3.0,10734531570,1,3816649,False,9% ב 2.3 שנים,באר שבע,עמיר אנדה,3.91,38166-49-2,38166/49,16144.578313253012,31.2732322492,34.7646878458,2019
2019-12-15,2019-12-15,"דוד גויטיין 17, באר שבע",דוד גויטיין 17,38132-228-2,קוטג' דו משפחתי,3.0,,72.0,950000,,,1993.0,,1.0,10734407550,1,38132228,False,,באר שבע,גויטיין דוד,,38132-228-2,38132/228,13194.444444444443,31.2699085666,34.7759059771,2019
2019-12-15,2019-12-15,"המלכים 58, באר שבע",המלכים 58,38178-82-37,דירה בבית קומות,4.0,שניה,92.0,1100000,,,1997.0,,2.0,10734501150,1,3817882,False,27% ב 5.3 שנים,באר שבע,המלכים,5.09,38178-82-37,38178/82,11956.521739130434,31.2649158014,34.757438341,2019
2019-12-15,2019-12-15,"יהודה שטיינברג 6, באר שבע",יהודה שטיינברג 6,38133-8-21,דירה בבית קומות,4.0,שישית,107.55,500000,,,1995.0,,8.0,10734732090,1,381338,False,,באר שבע,שטיינברג יהודה,,38133-8-21,38133/8,4649.000464900047,31.2681135136,34.7733649364,2019
2019-12-15,2019-12-15,"יהושע ייבין 21, באר שבע",יהושע ייבין 21,38187-54-15,דירה בבית קומות,4.0,רביעית,92.0,1010000,,,2002.0,,5.0,10734302790,1,3818754,False,27% ב 7.6 שנים,באר שבע,ייבין יהושע,3.55,38187-54-15,38187/54,10978.260869565218,31.2393654733,34.7657106802,2019
2019-12-15,2019-12-15,"התלמוד 103, באר שבע",התלמוד 103,38089-124-21,דירה בבית קומות,3.0,ראשונה,61.9,147000,,,1970.0,,3.0,10801765530,1,38089124,False,,באר שבע,התלמוד,,38089-124-21,38089/124,2374.798061389338,31.2688355257,34.7847563278,2019
2019-12-15,2019-12-15,"אביה השופט 1, באר שבע",אביה השופט 1,38073-260-87,דירה בבית קומות,2.0,קומה ‎10‏,36.5,600000,,,2009.0,,13.0,10735138890,1,38073260,False,13% ב 6 שנים,באר שבע,אביה השופט,2.17,38073-260-87,38073/260,16438.35616438356,31.2678228089,34.7950277269,2019
2019-12-15,2019-12-15,"מוריה 32, באר שבע",מוריה 32,38116-19-2,דירה בבית קומות,2.0,קרקע,42.5,590000,,,1970.0,,3.0,10734586470,1,3811619,False,,באר שבע,מוריה,,38116-19-2,38116/19,13882.35294117647,31.246474162,34.7850291877,2019
2019-12-15,2019-12-15,"פשוש 13, באר שבע",פשוש 13,38265-6-1,בית בודד,6.0,,200.0,2875000,,,2014.0,,,10735049790,1,382656,False,,באר שבע,פשוש,,38265-6-1,38265/6,14375.0,31.2301928252,34.7650149572,2019
2019-12-15,2019-12-15,,,38369-8-41,דירה בבית קומות,3.0,,95.0,1645000,,,2019.0,,,10734679350,2,383698,False,,באר שבע,רחבעם זאבי,,38369-8-41,38369/8,17315.78947368421,31.2844394529,34.8074318368,2019
2019-12-15,2019-12-15,"אידה בוקסבוים 11, ",אידה בוקסבוים 11,100619-113-1,קרקע למגורים,,,462.0,950000,,,,,,10734232410,1,100619113,False,,באר שבע,אידה בוקסבוים,,100619-113-1,100619/113,2056.277056277056,31.2692938849,34.7549179799,2019
2019-12-15,2019-12-15,"הגלבוע 21, באר שבע",הגלבוע 21,38102-14-20,דירה בבית קומות,3.5,שישית,71.2,673000,,,1970.0,,8.0,10734818940,1,3810214,False,,באר שבע,הגלבוע,,38102-14-20,38102/14,9452.247191011236,31.2523867071,34.7710275708,2019
2019-12-15,2019-12-15,"נחום סנה 2, באר שבע",נחום סנה 2,38367-18-66,דירה בבית קומות,4.0,רביעית,116.0,1250000,,,2015.0,,,10734321510,1,3836718,False,,באר שבע,סנה נחום,,38367-18-66,38367/18,10775.862068965518,31.2839340418,34.8008931592,2019
2019-12-12,2019-12-12,"יעלים 84, באר שבע",יעלים 84,38101-34-10,דירה בבית קומות,4.0,שלישית,80.1,750000,,,1980.0,,8.0,10800464400,1,3810134,False,,באר שבע,יעלים,,38101-34-10,38101/34,9363.295880149812,31.2547789956,34.7768153287,2019
2019-12-12,2019-12-12,"חיים גרינפלד 17, באר שבע",חיים גרינפלד 17,38372-1-15,דירה בבית קומות,4.0,ראשונה,87.9,1132000,,,2001.0,,5.0,10734500430,1,383721,False,,באר שבע,גרינפלד,,38372-1-15,38372/1,12878.270762229806,31.2826484458,34.8004386432,2019
2019-12-12,2019-12-12,"משה דיין 10, באר שבע",משה דיין 10,38352-4-13,דירה בבית קומות,3.0,שלישית,66.0,770000,,,1997.0,,3.0,10734461910,1,383524,False,25% ב 6.3 שנים,באר שבע,דיין משה,3.97,38352-4-13,38352/4,11666.666666666666,31.2649899152,34.7726294577,2019
2019-12-12,2019-12-12,"אברהם אבינו 16, באר שבע",אברהם אבינו 16,38072-1-9,דירה בבית קומות,3.0,שלישית,65.5,730000,,,1960.0,,4.0,10735238520,1,380721,False,,באר שבע,אברהם אבינו,,38072-1-9,38072/1,11145.038167938932,31.2644419116,34.7938541292,2019
2019-12-12,2019-12-12,"דוד טוביהו 121, באר שבע",דוד טוביהו 121,38110-5-393,דירה בבית קומות,4.0,אחת עשרה,123.0,1550000,,,2019.0,,30.0,10734424650,1,381105,False,,באר שבע,טוביהו דוד,,38110-5-393,38110/5,12601.626016260165,31.2499573475,34.773857833,2019
2019-12-12,2019-12-12,"חיים בר-לב 3, באר שבע",חיים בר-לב 3,38352-18-8,דירה בבית קומות,3.0,שלישית,63.3,760000,,,1995.0,,3.0,10800538920,1,3835218,False,20% ב 6.2 שנים,באר שבע,בר-לב חיים,3.23,38352-18-8,38352/18,12006.319115323857,31.265801362,34.7748817937,2019
2019-12-12,2019-12-12,"מאיר יערי 11, באר שבע",מאיר יערי 11,38131-11-5,דירה בבית קומות,4.0,ראשונה,84.5,850000,,,1990.0,,4.0,10800558000,1,3813111,False,53% ב 8 שנים,באר שבע,יערי מאיר,6.62,38131-11-5,38131/11,10059.171597633136,31.2583564376,34.7639457179,2019
2019-12-12,2019-12-12,"יוסף בורג 1, באר שבע",יוסף בורג 1,38194-11-51,דירה בבית קומות,3.0,שלישית,87.0,1126000,,,2018.0,,5.0,10734138810,1,3819411,False,,באר שבע,בורג יוסף,,38194-11-51,38194/11,12942.528735632184,31.2330886156,34.7695283248,2019
2019-12-12,2019-12-12,"מולדת 8, באר שבע",מולדת 8,38069-128-18,דירה בבית קומות,4.0,שלישית,76.1,600000,,,1970.0,,3.0,10800369540,1,38069128,False,,באר שבע,מולדת,,38069-128-18,38069/128,7884.362680683312,31.255262759,34.7786301883,2019
2019-12-12,2019-12-12,"יוסף בורג 94, באר שבע",יוסף בורג 94,38194-14-66,דירה בבית קומות,5.0,שמונה עשרה,123.0,1600000,,,2016.0,,16.0,10734417180,1,3819414,False,,באר שבע,בורג יוסף,,38194-14-66,38194/14,13008.130081300813,31.2334403081,34.7674789399,2019
2019-12-12,2019-12-12,"מבצע עובדה 9, באר שבע",מבצע עובדה 9,38094-45-58,דירה בבית קומות,3.0,שלישית,66.8,600000,,,1970.0,,4.0,10734781680,1,3809445,False,66% ב 7.9 שנים,באר שבע,מבצע עובדה,8.35,38094-45-58,38094/45,8982.035928143712,31.2593762206,34.7785997151,2019
2019-12-11,2019-11-12,"משה קהירי 8, באר שבע",משה קהירי 8,38367-7-3,דירת גן,4.0,קרקע,83.9,1310000,,,2005.0,,5.0,10731170880,1,383677,False,100% ב 11 שנים,באר שבע,קהירי,9.09,38367-7-3,38367/7,15613.825983313469,31.2853094342,34.8010535196,2019
2019-12-11,2019-11-12,"גדעון האוזנר 42, באר שבע",גדעון האוזנר 42,38365-16-83,דירה בבית קומות,3.0,שניה,92.0,1100000,1.0,רמות פמילי,2017.0,,6.0,10731182760,1,3836516,False,,באר שבע,האוזנר גדעון,,38365-16-83,38365/16,11956.521739130434,31.2871255002,34.8071219205,2019
2019-12-09,2019-09-12,"בן-גוריון 16, באר שבע",בן-גוריון 16,38027-13-9,דירה בבית קומות,2.0,שניה,41.5,860000,,,1960.0,,3.0,10728721350,1,3802713,False,,באר שבע,בן גוריון,,38027-13-9,38027/13,20722.89156626506,31.2597047783,34.8095985826,2019
2019-12-09,2019-09-12,"יוסף בורג 1, באר שבע",יוסף בורג 1,38194-11-57,דירה בבית קומות,4.0,שלישית,109.0,1300000,,,2018.0,,5.0,10728209790,1,3819411,False,,באר שבע,בורג יוסף,,38194-11-57,38194/11,11926.605504587156,31.2330886156,34.7695283248,2019
2019-12-09,2019-09-12,"גרץ 7, באר שבע",גרץ 7,38070-32-3,חנות,,קרקע,25.0,375000,,,1970.0,,,10728459180,1,3807032,False,37% ב 1.3 שנים,באר שבע,גרץ,28.46,38070-32-3,38070/32,15000.0,31.2567826533,34.7941383366,2019
2019-12-09,2019-09-12,"אביה השופט 1, באר שבע",אביה השופט 1,38073-260-85,דירה בבית קומות,2.0,קומה ‎10‏,38.0,630000,,,2009.0,,13.0,10727693100,1,38073260,False,18% ב 5.9 שנים,באר שבע,אביה השופט,3.05,38073-260-85,38073/260,16578.947368421053,31.2678228089,34.7950277269,2019
2019-12-09,2019-09-12,"בר ניסן 28, באר שבע",בר ניסן 28,38187-36-41,דירה בבית קומות,3.0,שישית,63.8,918000,,,2002.0,,6.0,10727847630,1,3818736,False,63% ב 9 שנים,באר שבע,בר ניסן,7.0,38187-36-41,38187/36,14388.71473354232,31.2398456191,34.7638297194,2019
2019-12-09,2019-09-12,"יהודה הלוי 6, באר שבע",יהודה הלוי 6,38057-4-1,דירה בבית קומות,4.0,קרקע,64.0,650000,,,1970.0,,4.0,10729821780,1,380574,False,,באר שבע,יהודה הלוי,,38057-4-1,38057/4,10156.25,31.252941273,34.7874786473,2019
2019-12-09,2019-09-12,"עוזי נרקיס 20, באר שבע",עוזי נרקיס 20,38370-12-9,דירה בבית קומות,4.0,קומה ‎5‏,116.0,1265000,,,2012.0,,7.0,10729111320,1,3837012,True,-26% ב 3.4 שנים,באר שבע,נרקיס עוזי,-7.65,38370-12-9,38370/12,10905.172413793103,31.282539387,34.8048680331,2019
2019-12-09,2019-09-12,"רוטנברג 20, באר שבע",רוטנברג 20,38027-4-17,דירה בבית קומות,3.0,ראשונה,46.4,850000,,,1960.0,,4.0,10727554950,1,380274,False,81% ב 6.7 שנים,באר שבע,רוטנברג,12.09,38027-4-17,38027/4,18318.96551724138,31.2594656894,34.8080641036,2019
2019-12-09,2019-09-12,"סטרומה 17, באר שבע",סטרומה 17,38069-54-1,דירה בבית קומות,4.0,קרקע,78.2,1600000,,,1970.0,,,10727794890,1,3806954,False,275% ב 7.1 שנים,באר שבע,סטרומה,38.73,38069-54-1,38069/54,20460.358056265984,31.2536904948,34.7789370916,2019
2019-12-09,2019-09-12,"משה שרת 44, באר שבע",משה שרת 44,38124-58-11,דירה בבית קומות,4.0,שלישית,82.0,900000,,,1970.0,,8.0,10727736210,1,3812458,False,36% ב 5.2 שנים,באר שבע,שרת משה,6.92,38124-58-11,38124/58,10975.60975609756,31.258896512,34.7695158856,2019
2019-12-09,2019-09-12,"שמעון בר-גיורא 5, באר שבע",שמעון בר-גיורא 5,38079-50-19,דירה בבית קומות,2.0,ראשונה,27.9,525000,,,1960.0,,3.0,10727696880,1,3807950,False,,באר שבע,שמעון בר גיורא,,38079-50-19,38079/50,18817.20430107527,31.263352294,34.7928605807,2019
2019-12-08,2019-08-12,"יהודה הלוי 12, באר שבע",יהודה הלוי 12,38057-38-155,דירה,5.0,,123.0,1410000,1.0,מגדלי בצלאל,2015.0,,22.0,11181229542,1,3805738,False,,באר שבע,יהודה הלוי,,38057-38-155,38057/38,11463.414634146342,31.254184461,34.7879859476,2019
2019-12-08,2019-08-12,"משה קהירי 22, באר שבע",משה קהירי 22,38367-5-27,דירה בבית קומות,5.0,חמישית,93.22,1295000,,,2012.0,,6.0,10725424830,1,383675,False,50% ב 6.7 שנים,באר שבע,קהירי,7.46,38367-5-27,38367/5,13891.868697704356,31.2851929214,34.8001636157,2019
2019-12-08,2019-08-12,"סוסיה 10, באר שבע",סוסיה 10,38111-201-154,דירה בבית קומות,5.0,קומה ‎4‏,121.8,1525000,,,2010.0,,10.0,10727654400,1,38111201,False,86% ב 9.5 שנים,באר שבע,סוסיה,9.05,38111-201-154,38111/201,12520.525451559935,31.2448368207,34.7732079901,2019
2019-12-08,2019-08-12,"משה קהירי 35, באר שבע",משה קהירי 35,38367-13-42,דירה בבית קומות,4.0,רביעית,92.0,1120000,,,2008.0,,6.0,10725350490,1,3836713,False,146% ב 11.5 שנים,באר שבע,קהירי,12.7,38367-13-42,38367/13,12173.91304347826,31.2830395699,34.8021349962,2019
2019-12-08,2019-08-12,"צפת 24, באר שבע",צפת 24,38112-1-31,דירה בבית קומות,3.0,ראשונה,60.5,815000,,,1980.0,,8.0,10725354270,1,381121,False,106% ב 9.9 שנים,באר שבע,צפת,10.71,38112-1-31,38112/1,13471.07438016529,31.248735301,34.7753044192,2019
2019-12-08,2019-08-12,"המהר""ל 5, באר שבע","המהר""ל 5",38354-9-22,דירה בבית קומות,4.0,ראשונה,106.0,1320000,,,2013.0,,,10725519150,1,383549,False,,באר שבע,"המהר""ל",,38354-9-22,38354/9,12452.830188679243,31.2668596065,34.7818688978,2019
2019-12-08,2019-08-12,"מבצע משה 9, באר שבע",מבצע משה 9,38137-15-18,דירה בבית קומות,3.0,חמישית,67.5,820000,,,1995.0,,8.0,10726349310,1,3813715,False,200% ב 10.5 שנים,באר שבע,מבצע משה,19.05,38137-15-18,38137/15,12148.148148148148,31.236790461,34.7778601761,2019
2019-12-08,2019-08-12,"יד ושם 4, באר שבע",יד ושם 4,38030-15-40,דירה בבית קומות,2.0,שמינית,55.0,400000,,,1960.0,,3.0,10725545880,1,3803015,False,,באר שבע,יד ושם,,38030-15-40,38030/15,7272.727272727273,31.2521496443,34.8034240066,2019
2019-12-08,2019-08-12,"בני אור 36, באר שבע",בני אור 36,38020-7-9,דירה בבית קומות,4.0,חמישית,89.1,650000,,,1970.0,,6.0,10727436420,1,380207,False,236% ב 11.8 שנים,באר שבע,בני אור,20.0,38020-7-9,38020/7,7295.173961840629,31.2583712643,34.7840183234,2019
2019-12-08,2019-08-12,"פרופ' יהודה ליאו פיקרד 28, באר שבע",פרופ' יהודה ליאו פיקרד 28,38375-6-58,דירה בבית קומות,3.0,חמישית,70.0,1000000,,,2000.0,,5.0,10725323040,1,383756,False,85% ב 10 שנים,באר שבע,פיקרד,8.5,38375-6-58,38375/6,14285.714285714286,31.2779546149,34.8013402675,2019
2019-12-08,2019-08-12,"רחה פריאר 9, באר שבע",רחה פריאר 9,38018-52-100,משרד,1.0,,197.0,2165454,1.0,M TOWER,2019.0,,8.0,11181229140,1,3801852,False,,באר שבע,פריאר רחה,,38018-52-100,38018/52,10992.15228426396,31.2451209471,34.8024816208,2019
2019-12-08,2019-08-12,"בלפור 35, באר שבע",בלפור 35,38025-210-18,דירה בבית קומות,3.0,קומה ‎0‏,93.26,770000,,,1970.0,,4.0,10726006950,1,38025210,False,,באר שבע,בלפור,,38025-210-18,38025/210,8256.487239974265,31.2459432549,34.7910253982,2019
2019-12-08,2019-08-12,"כצנלסון 10, באר שבע",כצנלסון 10,38129-10-1,דירה בבית קומות,3.0,קרקע,84.0,950000,,,1970.0,,1.0,10726817760,1,3812910,False,,באר שבע,כצנלסון,,38129-10-1,38129/10,11309.52380952381,31.2505586498,34.7958450985,2019
2019-12-08,2019-08-12,"רחה פריאר 9, באר שבע",רחה פריאר 9,38018-52-101,משרד,,,164.0,2550179,1.0,M TOWER,2019.0,,8.0,11181229141,1,3801852,False,,באר שבע,פריאר רחה,,38018-52-101,38018/52,15549.871951219511,31.2451209471,34.8024816208,2019
2019-12-08,2019-08-12,"גרשון שופמן 4, באר שבע",גרשון שופמן 4,38138-90-34,דירה בבית קומות,3.0,שניה,63.6,450000,,,1995.0,,6.0,10726194150,1,3813890,False,,באר שבע,שופמן גרשון,,38138-90-34,38138/90,7075.471698113208,31.2382459514,34.7758118188,2019
2019-12-08,2019-08-12,"יצחק ויטנברג 15, באר שבע",יצחק ויטנברג 15,38316-20-1,בית בודד,4.0,,92.0,1120000,,,1993.0,,1.0,10725544440,1,3831620,False,,באר שבע,ויטנברג יצחק,,38316-20-1,38316/20,12173.91304347826,31.2250360487,34.7800887169,2019
2019-12-07,2019-07-12,"קלישר 26, באר שבע",קלישר 26,38076-21-12,דירה בבית קומות,3.0,ראשונה,54.0,625000,,,1960.0,,3.0,10723559580,1,3807621,False,,באר שבע,קלישר,,38076-21-12,38076/21,11574.074074074077,31.2551567513,34.8110049647,2019
2019-12-07,2019-07-12,"יוהנה ז'בוטינסקי 14, באר שבע",יוהנה ז'בוטינסקי 14,38190-5-135,דירה בבית קומות,3.5,אחת עשרה,82.0,1080000,,,1999.0,,18.0,10725257700,1,381905,False,46% ב 7 שנים,באר שבע,יוהנה ז'בוטינסקי,6.57,38190-5-135,38190/5,13170.731707317073,31.2413886823,34.7765745515,2019
2019-12-07,2019-07-12,"בן מתתיהו יוסף 46, באר שבע",בן מתתיהו יוסף 46,38093-60-32,דירה בבית קומות,3.0,שלישית,51.5,860000,,,1960.0,,4.0,10722993120,1,3809360,False,10% ב 2.5 שנים,באר שבע,יוסף בן מתתיהו,4.0,38093-60-32,38093/60,16699.02912621359,31.2644042303,34.8005043437,2019
2019-12-06,2019-06-12,"התלמוד 115, באר שבע",התלמוד 115,38089-121-5,דירה בבית קומות,3.0,ראשונה,61.9,590000,,,1970.0,,3.0,10721026170,1,38089121,False,1% ב 0.9 שנים,באר שבע,התלמוד,1.11,38089-121-5,38089/121,9531.502423263328,31.2695054251,34.783430748,2019
2019-12-06,2019-06-12,"דוד וולפסון 32, באר שבע",דוד וולפסון 32,38018-27-3,דירה בבית קומות,4.0,ראשונה,83.2,800000,,,1970.0,,8.0,10724899140,1,3801827,False,,באר שבע,וולפסון דוד,,38018-27-3,38018/27,9615.384615384615,31.2448802348,34.80153354,2019
2019-12-06,2019-06-12,"אלפסי 3, באר שבע",אלפסי 3,38103-35-15,דירה בבית קומות,3.0,שלישית,59.6,560000,,,1970.0,,4.0,10720796040,1,3810335,False,30% ב 5.5 שנים,באר שבע,אלפסי,5.45,38103-35-15,38103/35,9395.973154362417,31.2569450262,34.7736128147,2019
2019-12-06,2019-06-12,"יהודה הלוי 12, באר שבע",יהודה הלוי 12,38057-38-150,דירה,5.0,,136.0,1760000,1.0,מגדלי בצלאל,2015.0,,22.0,11181229537,1,3805738,False,,באר שבע,יהודה הלוי,,38057-38-150,38057/38,12941.176470588236,31.254184461,34.7879859476,2019
2019-12-06,2019-06-12,"וינגייט 68, באר שבע",וינגייט 68,38127-4-48,דירה בבית קומות,3.0,רביעית,62.0,942000,,,1970.0,,8.0,10721104920,1,381274,False,,באר שבע,וינגייט,,38127-4-48,38127/4,15193.548387096776,31.2570607396,34.8035149575,2019
2019-12-06,2019-06-12,"יסמין 4, באר שבע",יסמין 4,38252-27-1,דירה בבית קומות,7.0,,200.0,1950000,,,1981.0,,,10721072160,1,3825227,False,,באר שבע,יסמין,,38252-27-1,38252/27,9750.0,31.2317258667,34.793934192,2019
2019-12-06,2019-06-12,"מבצע עובדה 19, באר שבע",מבצע עובדה 19,38094-44-17,דירה בבית קומות,4.0,חמישית,80.6,750000,,,1970.0,,8.0,10720888920,1,3809444,False,27% ב 5.8 שנים,באר שבע,מבצע עובדה,4.66,38094-44-17,38094/44,9305.210918114144,31.2592905291,34.7776291578,2019
2019-12-06,2019-06-12,"ניב דוד 21, באר שבע",ניב דוד 21,38189-57-8,דירה בבית קומות,4.0,שניה,95.0,1110000,,,2000.0,,9.0,10721012040,1,3818957,False,143% ב 18.4 שנים,באר שבע,ניב דוד,7.77,38189-57-8,38189/57,11684.21052631579,31.2403284589,34.7685735967,2019
2019-12-05,2019-05-12,"דוד טוביהו 121, באר שבע",דוד טוביהו 121,38110-5-434,דירה בבית קומות,4.0,שש עשרה,123.0,1480000,,,2019.0,,30.0,10719123120,1,381105,False,,באר שבע,טוביהו דוד,,38110-5-434,38110/5,12032.520325203252,31.2499573475,34.773857833,2019
2019-12-05,2019-05-12,"השלום 57, באר שבע",השלום 57,38029-105-1,חנות,,קרקע,25.2,310000,,,1970.0,,3.0,10719008730,1,38029105,False,,באר שבע,השלום,,38029-105-1,38029/105,12301.587301587302,31.2521577668,34.8071270711,2019
2019-12-05,2019-05-12,"יחזקאל סרנה 2, באר שבע",יחזקאל סרנה 2,38354-3-60,דירה בבית קומות,4.0,רביעית,93.0,1300000,,,2016.0,,4.0,10719873000,1,383543,False,,באר שבע,סרנה יחזקאל,,38354-3-60,38354/3,13978.494623655914,31.2662555299,34.7793791349,2019
2019-12-05,2019-05-12,"נורית 1, באר שבע",נורית 1,38185-29-1,דירה בבית קומות,5.0,,474.0,1850000,,,1970.0,,,10720576890,1,3818529,False,,באר שבע,נורית,,38185-29-1,38185/29,3902.95358649789,31.2327262585,34.7783977856,2019
2019-12-05,2019-05-12,"דה-בוטון 8, באר שבע",דה-בוטון 8,38325-23-1,קוטג' חד משפחתי,6.0,"קרקע, ראשונה",155.9,2190000,,,2006.0,,,10719357840,1,3832523,False,,באר שבע,דה-בוטון,,38325-23-1,38325/23,14047.466324567027,31.2527577697,34.7605770974,2019
2019-12-05,2019-05-12,"נחום גוטמן 13, באר שבע",נחום גוטמן 13,38137-1-31,דירה בבית קומות,4.0,שמינית,85.1,282000,,,1994.0,,8.0,10718999280,1,381371,False,,באר שבע,גוטמן נחום,,38137-1-31,38137/1,3313.748531139836,31.2395832378,34.7788095141,2019
2019-12-04,2019-04-12,"מבצע עובדה 34, באר שבע",מבצע עובדה 34,38094-15-32,דירה בבית קומות,3.0,רביעית,57.7,540000,,,1970.0,,4.0,10718309520,1,3809415,False,,באר שבע,מבצע עובדה,,38094-15-32,38094/15,9358.752166377815,31.2604291908,34.7770870531,2019
2019-12-04,2019-04-12,"אלכסנדר ינאי 17, באר שבע",אלכסנדר ינאי 17,38072-39-53,דירה בבית קומות,2.0,חמישית,39.8,725000,,,2013.0,,13.0,10717785900,1,3807239,False,,באר שבע,אלכסנדר ינאי,,38072-39-53,38072/39,18216.08040201005,31.2634927971,34.794797057,2019
2019-12-04,2019-04-12,"עפרוני 35, באר שבע",עפרוני 35,38267-128-32,דירה בבית קומות,6.0,,162.0,2035000,,,2014.0,,,10717623450,1,38267128,False,,באר שבע,עפרוני,,38267-128-32,38267/128,12561.728395061727,,,2019
2019-12-03,2019-03-12,"סיני 1, באר שבע",סיני 1,38058-76-24,דירה בבית קומות,3.5,שישית,103.0,925000,,,1980.0,,8.0,10715781960,1,3805876,False,,באר שבע,סיני,,38058-76-24,38058/76,8980.582524271844,31.2475581677,34.7829553259,2019
2019-12-03,2019-03-12,"יוסף בורג 94, באר שבע",יוסף בורג 94,38194-14-72,דירה בבית קומות,5.0,שמונה עשרה,124.0,1570000,,,2016.0,,16.0,10715718150,1,3819414,False,,באר שבע,בורג יוסף,,38194-14-72,38194/14,12661.290322580646,31.2334403081,34.7674789399,2019
2019-12-03,2019-03-12,"רבי טרפון 4, באר שבע",רבי טרפון 4,38078-48-29,דירה בבית קומות,3.0,שלישית,41.27,580000,,,1960.0,,3.0,10715391450,1,3807848,False,202% ב 10.3 שנים,באר שבע,רבי טרפון,19.61,38078-48-29,38078/48,14053.792100799612,31.2596147524,34.7936998278,2019
2019-12-03,2019-03-12,"מרדכי מקלף 3, באר שבע",מרדכי מקלף 3,38356-15-17,דירה בבית קומות,4.0,חמישית,72.5,780000,,,1992.0,,8.0,10715518350,1,3835615,False,148% ב 13 שנים,באר שבע,מקלף מרדכי,11.38,38356-15-17,38356/15,10758.620689655172,31.2650185254,34.7862349081,2019
2019-12-03,2019-03-12,"רינגלבלום 3, באר שבע",רינגלבלום 3,38092-10-3,דירה בבית קומות,2.0,ראשונה,37.2,705000,,,1960.0,,4.0,10715450040,1,3809210,False,166% ב 9.4 שנים,באר שבע,רינגלבלום,17.66,38092-10-3,38092/10,18951.612903225807,31.2666392472,34.7994214397,2019
2019-12-03,2019-03-12,"הנרי קנדל 5, באר שבע",הנרי קנדל 5,38035-61-76,דירה בבית קומות,4.0,חמישית,95.0,1160000,,,2005.0,,14.0,10716397380,1,3803561,False,3% ב 5.1 שנים,באר שבע,קנדל הנרי,0.59,38035-61-76,38035/61,12210.526315789471,31.2451301716,34.7843902725,2019
2019-12-03,2019-03-12,"בית אל 13, באר שבע",בית אל 13,38115-18-11,דירה בבית קומות,4.0,שניה,78.0,780000,,,1970.0,,4.0,10715846580,1,3811518,False,87% ב 9 שנים,באר שבע,בית אל,9.67,38115-18-11,38115/18,10000.0,31.2455146848,34.7741154905,2019
2019-12-02,2019-02-12,"יצחק אבינו 2, באר שבע",יצחק אבינו 2,38078-30-5,דירה בבית קומות,3.0,שלישית,40.37,728000,,,1960.0,,3.0,10714221900,1,3807830,False,30% ב 4.2 שנים,באר שבע,יצחק אבינו,7.14,38078-30-5,38078/30,18033.192965073074,31.2615986851,34.794302368,2019
2019-12-02,2019-02-12,"הערים התאומות 12, באר שבע",הערים התאומות 12,38375-19-20,דירה בבית קומות,4.0,שניה,87.4,1070000,,,2000.0,,5.0,10713497310,1,3837519,False,35% ב 6.5 שנים,באר שבע,הערים התאומות,5.38,38375-19-20,38375/19,12242.562929061784,31.2793140871,34.7996926188,2019
2019-12-02,2019-02-12,"דוד טוביהו 121, באר שבע",דוד טוביהו 121,38110-5-446,דירה בבית קומות,4.0,שבע עשרה,123.0,1540000,,,2019.0,,30.0,10713970170,1,381105,False,,באר שבע,טוביהו דוד,,38110-5-446,38110/5,12520.325203252032,31.2499573475,34.773857833,2019
2019-12-02,2019-02-12,"רבנו תם 19, באר שבע",רבנו תם 19,38089-64-2,דירה בבית קומות,3.0,קרקע,74.4,700000,,,1970.0,,,10715000040,1,3808964,False,,באר שבע,רבנו תם,,38089-64-2,38089/64,9408.602150537634,31.270961261,34.7860719507,2019
2019-12-02,2019-02-12,"הפלס 22, באר שבע",הפלס 22,38141-15-3,מחסנים,,,166.0,699000,,,1980.0,,,10715328180,1,3814115,False,,באר שבע,הפלס,,38141-15-3,38141/15,4210.843373493976,31.226755965,34.810419702,2019
2019-12-02,2019-02-12,"גולומב 2, באר שבע",גולומב 2,38029-81-19,דירה בבית קומות,5.0,ראשונה,128.0,1310000,1.0,משכן בוטיק,2018.0,,5.0,10714129920,1,3802981,False,,באר שבע,גולומב,,38029-81-19,38029/81,10234.375,31.2528968204,34.8027688082,2019
2019-11-29,2019-11-29,"עוזייה המלך 4, באר שבע",עוזייה המלך 4,38078-31-16,דירה בבית קומות,3.0,שניה,40.37,735000,,,1960.0,,2.0,10734353370,1,3807831,False,72% ב 6.9 שנים,באר שבע,עוזיה המלך,10.43,38078-31-16,38078/31,18206.5890512757,31.2613629168,34.7941074194,2019
2019-11-29,2019-11-29,"בלפור 31, באר שבע",בלפור 31,38025-216-11,דירה בבית קומות,3.0,קומה ‎1‏,55.52,610000,,,1960.0,,4.0,10732972950,1,38025216,False,,באר שבע,בלפור,,38025-216-11,38025/216,10987.031700288184,31.2456446838,34.791845127,2019
2019-11-29,2019-11-29,"דוד טוביהו 121, באר שבע",דוד טוביהו 121,38110-5-395,דירה בבית קומות,5.0,שמינית,136.0,1640000,,,2019.0,,30.0,10733761620,1,381105,False,,באר שבע,טוביהו דוד,,38110-5-395,38110/5,12058.823529411764,31.2499573475,34.773857833,2019
2019-11-29,2019-11-29,"שפרינצק 2, באר שבע",שפרינצק 2,38082-43-2,דירה בבית קומות,2.0,ראשונה,35.9,530000,,,1960.0,,4.0,10733241060,1,3808243,False,20% ב 5 שנים,באר שבע,שפרינצק,4.0,38082-43-2,38082/43,14763.231197771587,31.2699664008,34.7940611649,2019
2019-11-29,2019-11-29,"משה קהירי 14, באר שבע",משה קהירי 14,38367-6-36,דירה בבית קומות,4.0,ראשונה,120.0,1272000,,,2014.0,,,10732868280,1,383676,False,,באר שבע,קהירי,,38367-6-36,38367/6,10600.0,31.2848230475,34.800679047,2019
2019-11-28,2019-11-28,"ארתור רופין 26, באר שבע",ארתור רופין 26,38134-11-1,דירה בבית קומות,6.0,,242.0,2400000,,,1992.0,,,10733890050,1,3813411,False,,באר שבע,רופין ארתור,,38134-11-1,38134/11,9917.355371900829,31.2655963243,34.7688812756,2019
2019-11-28,2019-11-28,"מרבד הקסמים 4, באר שבע",מרבד הקסמים 4,38098-104-6,דירה בבית קומות,3.0,קרקע,89.9,597000,,,1960.0,,,10735194690,1,38098104,False,,באר שבע,מרבד הקסמים,,38098-104-6,38098/104,6640.711902113459,31.2510820983,34.7837119486,2019
2019-11-28,2019-11-28,"סנהדרין 34, באר שבע",סנהדרין 34,38082-7-8,דירה בבית קומות,4.0,ראשונה,82.0,264000,,,1960.0,,3.0,10732763700,1,380827,False,,באר שבע,סנהדרין,,38082-7-8,38082/7,3219.512195121951,31.2724739276,34.7944720735,2019
2019-11-28,2019-11-28,"קרן היסוד 1, באר שבע",קרן היסוד 1,38018-20-57,דירה בבית קומות,3.0,ראשונה,89.0,1000000,,,1970.0,,3.0,10734045930,1,3801820,False,,באר שבע,קרן היסוד,,38018-20-57,38018/20,11235.955056179777,31.2463215572,34.8004576869,2019
2019-11-28,2019-11-28,"אלפסי 5, באר שבע",אלפסי 5,38103-35-20,דירה בבית קומות,3.0,שניה,59.6,590000,,,1970.0,,4.0,10732915890,1,3810335,False,,באר שבע,אלפסי,,38103-35-20,38103/35,9899.328859060402,31.2569450262,34.7736128147,2019
2019-11-28,2019-11-28,"רחה פריאר 9, באר שבע",רחה פריאר 9,38018-52-185,משרד,1.0,עשרים ואחת,171.0,2266758,1.0,M TOWER,2019.0,,8.0,10734216660,1,3801852,False,,באר שבע,פריאר רחה,,38018-52-185,38018/52,13255.894736842103,31.2451209471,34.8024816208,2019
2019-11-28,2019-11-28,"מיכאל חזני 26, באר שבע",מיכאל חזני 26,38106-7-6,דירה בבית קומות,4.0,שניה,87.5,790000,,,1992.0,,3.0,10732825350,1,381067,False,133% ב 15.8 שנים,באר שבע,חזני מיכאל,8.42,38106-7-6,38106/7,9028.57142857143,31.2618964812,34.7712356385,2019
2019-11-28,2019-11-28,"המשחררים 18, באר שבע",המשחררים 18,38074-132-16,דירה בבית קומות,4.0,רביעית,76.0,950000,,,1996.0,,8.0,10732911390,1,38074132,False,,באר שבע,המשחררים,,38074-132-16,38074/132,12500.0,31.2520429332,34.7945353829,2019
2019-11-28,2019-11-28,"יוחנן לינדנר 31, באר שבע",יוחנן לינדנר 31,38396-59-2,קוטג' דו משפחתי,6.5,,168.0,1450000,,,1993.0,,1.0,10734339330,1,3839659,False,,באר שבע,לינדנר יוחנן,,38396-59-2,38396/59,8630.952380952382,31.2750607033,34.8024355385,2019
2019-11-28,2019-11-28,"יוסף בורג 1, באר שבע",יוסף בורג 1,38194-11-53,דירה בבית קומות,3.0,שניה,87.0,1120000,1.0,דלויה YOUNG,2018.0,,5.0,10733413410,1,3819411,False,,באר שבע,בורג יוסף,,38194-11-53,38194/11,12873.563218390804,31.2330886156,34.7695283248,2019
2019-11-28,2019-11-28,"הנרי קנדל 10, באר שבע",הנרי קנדל 10,38035-60-101,דירה בבית קומות,5.5,ארבע עשרה,150.0,960000,,,2000.0,,18.0,10800303390,1,3803560,False,,באר שבע,קנדל הנרי,,38035-60-101,38035/60,6400.0,31.2452471681,34.7832342939,2019
2019-11-28,2019-11-28,"שמחה 4, באר שבע",שמחה 4,38005-54-2,דירה בבית קומות,4.0,קרקע,115.2,1340000,,,1950.0,,,10733969520,1,3800554,False,,באר שבע,שמחה,,38005-54-2,38005/54,11631.944444444443,31.2415189393,34.7844539252,2019
2019-11-27,2019-11-27,"יהודה הלוי 48, באר שבע",יהודה הלוי 48,38096-18-28,דירה בבית קומות,4.0,שלישית,109.0,910000,,,2000.0,,15.0,10732822290,1,3809618,False,,באר שבע,יהודה הלוי,,38096-18-28,38096/18,8348.62385321101,31.2656410395,34.7893540139,2019
2019-11-27,2019-11-27,"עוזי נרקיס 13, באר שבע",עוזי נרקיס 13,38368-16-11,דירה בבית קומות,5.0,מרתף+קרקע,133.7,1596000,,,2003.0,,4.0,10732834260,1,3836816,False,,באר שבע,נרקיס עוזי,,38368-16-11,38368/16,11937.17277486911,31.282534424,34.8038649801,2019
2019-11-27,2019-11-27,"חיים גרינפלד 13, באר שבע",חיים גרינפלד 13,38372-1-43,דירה בבית קומות,4.0,ק.קרקע,81.9,1325000,,,2001.0,,5.0,10734450660,1,383721,False,172% ב 12.3 שנים,באר שבע,גרינפלד,13.98,38372-1-43,38372/1,16178.266178266178,31.2826484458,34.8004386432,2019
2019-11-27,2019-11-27,"ביאליק 53, באר שבע",ביאליק 53,38074-48-64,דירה בבית קומות,3.0,רביעית,58.5,830000,,,1970.0,,4.0,10732847580,1,3807448,False,,באר שבע,ביאליק,,38074-48-64,38074/48,14188.034188034188,31.253518569,34.7925062942,2019
2019-11-27,2019-11-27,"שרגא אברמסון 3, באר שבע",שרגא אברמסון 3,38374-13-1,דירה בבית קומות,6.0,קרקע וראשונה,148.0,2510000,,,2005.0,,2.0,10733187600,1,3837413,False,164% ב 14.2 שנים,באר שבע,אברמסון שרגא,11.55,38374-13-1,38374/13,16959.45945945946,31.2774590038,34.7978831891,2019
2019-11-27,2019-11-27,"יצחק שתל 20, באר שבע",יצחק שתל 20,38197-15-4,דירה בבית קומות,4.0,ראשונה,88.7,1200000,,,2001.0,,4.0,10732607730,1,3819715,False,125% ב 18.4 שנים,באר שבע,שתל יצחק,6.79,38197-15-4,38197/15,13528.748590755356,31.277127989,34.8213128527,2019
2019-11-27,2019-11-27,"אמירה בלייברג 22, ",אמירה בלייברג 22,100622-213-1,קרקע למגורים,,,483.0,900000,,,,,,10735075080,1,100622213,False,,באר שבע,אמירה בלייברג,,100622-213-1,100622/213,1863.354037267081,31.2704274323,34.7576417452,2019
2019-11-27,2019-11-27,"רבי עקיבא 6, באר שבע",רבי עקיבא 6,38078-47-39,דירה בבית קומות,3.0,שניה,41.27,735000,,,1960.0,,3.0,10732814100,1,3807847,False,23% ב 3.1 שנים,באר שבע,רבי עקיבא,7.42,38078-47-39,38078/47,17809.546886358126,31.2593625659,34.793703141,2019
2019-11-27,2019-11-27,"אהרון מסקין 17, באר שבע",אהרון מסקין 17,38377-17-20,דירה בבית קומות,3.0,שלישית,63.0,930000,,,1995.0,,4.0,10732599540,1,3837717,False,3% ב 4.3 שנים,באר שבע,מסקין אהרון,0.7,38377-17-20,38377/17,14761.90476190476,31.2701258372,34.766852591,2019
2019-11-27,2019-11-27,"רינגלבלום 1, באר שבע",רינגלבלום 1,38092-9-29,דירה בבית קומות,3.0,שלישית,51.7,800000,,,1960.0,,3.0,10732913730,1,380929,False,253% ב 15.6 שנים,באר שבע,רינגלבלום,16.22,38092-9-29,38092/9,15473.887814313346,31.2666294828,34.7990231454,2019
2019-11-27,2019-11-27,"עמוס דה-שליט 30, באר שבע",עמוס דה-שליט 30,38159-100-1,קוטג' דו משפחתי,5.5,,149.0,1370000,,,1990.0,,,10732624110,1,38159100,False,,באר שבע,דה-שליט עמוס,,38159-100-1,38159/100,9194.630872483222,31.2726696439,34.8074686175,2019
2019-11-27,2019-11-27,"המשחררים 18, באר שבע",המשחררים 18,38074-132-6,דירה בבית קומות,4.5,שניה,99.0,990000,,,1996.0,,8.0,10732710960,1,38074132,False,19% ב 6.6 שנים,באר שבע,המשחררים,2.88,38074-132-6,38074/132,10000.0,31.2520429332,34.7945353829,2019
2019-11-27,2019-11-27,"דוד טוביהו 121, באר שבע",דוד טוביהו 121,38110-5-396,דירה בבית קומות,5.0,שביעית,197.0,1615000,,,2019.0,,30.0,10733078520,1,381105,False,,באר שבע,טוביהו דוד,,38110-5-396,38110/5,8197.969543147208,31.2499573475,34.773857833,2019
2019-11-26,2019-11-26,"דוד טוביהו 121, באר שבע",דוד טוביהו 121,38110-5-397,דירה בבית קומות,6.0,שמונה עשרה,148.0,1860000,1.0,גרנד אביסרור,2019.0,,30.0,10732571370,1,381105,False,,באר שבע,טוביהו דוד,,38110-5-397,38110/5,12567.567567567568,31.2499573475,34.773857833,2019
2019-11-26,2019-11-26,"ברבור 15, באר שבע",ברבור 15,38268-41-3,דירה בבית קומות,6.0,,161.0,2300000,,,2010.0,,1.0,10733031810,1,3826841,False,,באר שבע,ברבור,,38268-41-3,38268/41,14285.714285714286,31.2290893908,34.7704761489,2019
2019-11-26,2019-11-26,"רחל אימנו 49, באר שבע",רחל אימנו 49,38167-1-3,קוטג' דו משפחתי,4.0,,121.0,1250000,,,1990.0,,1.0,10732797000,1,381671,False,,באר שבע,רחל אמנו,,38167-1-3,38167/1,10330.578512396694,31.2708536816,34.7636163913,2019
2019-11-26,2019-11-26,"אברהם אמיר 4, באר שבע",אברהם אמיר 4,38247-74-28,דירה בבית קומות,4.0,שניה,90.0,1235000,,,2002.0,,5.0,10732703400,1,3824774,False,1% ב 3.1 שנים,באר שבע,אמיר אברהם,0.32,38247-74-28,38247/74,13722.222222222224,31.2764652655,34.8220648822,2019
2019-11-26,2019-11-26,"המלכים 28, באר שבע",המלכים 28,38178-82-16,דירה בבית קומות,5.0,קרקע ראשונה,126.0,1350000,,,1995.0,,,10734169950,1,3817882,False,,באר שבע,המלכים,,38178-82-16,38178/82,10714.285714285714,31.2649158014,34.757438341,2019
2019-11-26,2019-11-26,"השלום 31, באר שבע",השלום 31,38029-87-15,חנות,,קרקע,,570000,,,1970.0,,3.0,10800346500,1,3802987,False,,באר שבע,השלום,,38029-87-15,38029/87,,31.2532061836,34.8045380351,2019
2019-11-26,2019-11-26,"משה זמורה 3, באר שבע",משה זמורה 3,38132-128-2,קוטג' דו משפחתי,5.0,ראשונה,180.0,1750000,,,1900.0,,1.0,10733609430,1,38132128,False,,באר שבע,זמורה משה,,38132-128-2,38132/128,9722.222222222224,31.2696125287,34.776481596,2019
2019-11-26,2019-11-26,"גדעון האוזנר 42, באר שבע",גדעון האוזנר 42,38365-16-80,דירה בבית קומות,4.0,ראשונה,110.0,950000,1.0,רמות פמילי,2017.0,,6.0,10733424390,1,3836516,False,,באר שבע,האוזנר גדעון,,38365-16-80,38365/16,8636.363636363636,31.2871255002,34.8071219205,2019
2019-11-26,2019-11-26,"אשר ברש 6, באר שבע",אשר ברש 6,38138-66-55,דירה בבית קומות,4.0,שישית,75.5,845000,,,1990.0,,6.0,10733000400,1,3813866,False,,באר שבע,ברש אשר,,38138-66-55,38138/66,11192.05298013245,31.2401162234,34.7775402503,2019
2019-11-26,2019-11-26,"שמעון בר-גיורא 25, באר שבע",שמעון בר-גיורא 25,38078-22-23,דירה בבית קומות,2.0,שלישית,35.2,540000,,,1960.0,,3.0,10733545620,1,3807822,False,6% ב 2.6 שנים,באר שבע,שמעון בר גיורא,2.31,38078-22-23,38078/22,15340.90909090909,31.261527706,34.7928195739,2019
2019-11-26,2019-11-26,"חיים בר-לב 3, באר שבע",חיים בר-לב 3,38352-18-9,דירה בבית קומות,5.0,קרקע,94.7,1030000,,,1995.0,,3.0,10732477770,1,3835218,False,,באר שבע,בר-לב חיים,,38352-18-9,38352/18,10876.451953537486,31.265801362,34.7748817937,2019
2019-11-25,2019-11-25,"ניב דוד 6, באר שבע",ניב דוד 6,38189-4-4,דירה בבית קומות,3.0,ראשונה,74.0,1060000,,,2000.0,,4.0,10732443570,1,381894,False,1% ב 3.3 שנים,באר שבע,ניב דוד,0.3,38189-4-4,38189/4,14324.324324324323,31.2382522984,34.7699044729,2019
2019-11-25,2019-11-25,"גדעון האוזנר 33, באר שבע",גדעון האוזנר 33,38365-3-19,דירה בבית קומות,4.0,קרקע,100.9,1470000,,,2009.0,,6.0,10734118110,1,383653,True,-14% ב 5.9 שנים,באר שבע,האוזנר גדעון,-2.37,38365-3-19,38365/3,14568.880079286422,31.2880167551,34.805451747,2019
2019-11-25,2019-11-25,"התקווה 12, באר שבע",התקווה 12,38016-51-59,דירה בבית קומות,3.0,קומה ‎9‏,72.4,1220000,,,2002.0,,19.0,10733475060,1,3801651,False,,באר שבע,התקוה,,38016-51-59,38016/51,16850.828729281766,31.2482984417,34.7996532754,2019
2019-11-25,2019-11-25,"בלפור 16, באר שבע",בלפור 16,38025-53-2,דירה בבית קומות,3.0,קרקע,52.0,700000,,,1950.0,,1.0,10733397840,1,3802553,False,,באר שבע,בלפור,,38025-53-2,38025/53,13461.53846153846,31.2456874249,34.7942165296,2019
2019-11-25,2019-11-25,"פרופ' שיבא 46, באר שבע",פרופ' שיבא 46,38180-42-1,בית בודד,6.0,,220.0,3400000,,,1992.0,,1.0,10732469580,1,3818042,False,,באר שבע,פרופ' שיבא,,38180-42-1,38180/42,15454.545454545454,31.2607901177,34.7565847992,2019
2019-11-25,2019-11-25,"חווה 16, באר שבע",חווה 16,38170-1-1,דירה בבית קומות,5.0,,124.0,1330000,,,1994.0,,,10732573710,1,381701,False,,באר שבע,חוה,,38170-1-1,38170/1,10725.806451612903,31.2688199925,34.7634930359,2019
2019-11-24,2019-11-24,"צפת 44, באר שבע",צפת 44,38112-6-41,דירה בבית קומות,4.0,שניה,83.0,923000,,,1980.0,,8.0,10732813380,1,381126,False,47% ב 7.9 שנים,באר שבע,צפת,5.95,38112-6-41,38112/6,11120.481927710844,31.2475282049,34.7768469422,2019
2019-11-24,2019-11-24,"גדעון האוזנר 42, באר שבע",גדעון האוזנר 42,38365-16-81,דירה בבית קומות,4.0,חמישית,111.0,950000,1.0,רמות פמילי,2017.0,,6.0,10733532210,1,3836516,False,,באר שבע,האוזנר גדעון,,38365-16-81,38365/16,8558.558558558558,31.2871255002,34.8071219205,2019
2019-11-24,2019-11-24,"הצבי 55, באר שבע",הצבי 55,38081-40-5,דירה בבית קומות,4.0,שניה,80.7,800000,,,1970.0,,8.0,10732626270,1,3808140,False,,באר שבע,הצבי,,38081-40-5,38081/40,9913.258983890952,31.2499128656,34.7758908058,2019
2019-11-24,2019-11-24,"יהודה בורלא 45, באר שבע",יהודה בורלא 45,38081-3-14,דירה בבית קומות,3.0,שלישית,62.1,600000,,,1970.0,,3.0,10800250110,1,380813,False,,באר שבע,בורלא יהודה,,38081-3-14,38081/3,9661.83574879227,31.2519843683,34.774909429,2019
2019-11-24,2019-11-24,"יעקב כהן 12, באר שבע",יעקב כהן 12,38074-157-13,דירה בבית קומות,6.0,חמישית,180.0,1970000,,,2012.0,,11.0,10732684230,1,38074157,False,,באר שבע,כהן יעקב,,38074-157-13,38074/157,10944.444444444443,31.2548138223,34.7975201187,2019
2019-11-24,2019-11-24,"טיומקין זאב 4, באר שבע",טיומקין זאב 4,38145-28-18,דירה בבית קומות,4.0,רביעית,87.0,935000,,,1995.0,,4.0,10800004860,1,3814528,False,,באר שבע,טיומקין זאב,,38145-28-18,38145/28,10747.12643678161,31.2388862974,34.7666281336,2019
2019-11-22,2019-11-22,"קלישר 4, באר שבע",קלישר 4,38076-6-12,דירה בבית קומות,4.0,שניה,79.55,725000,,,1970.0,,4.0,10802866590,1,380766,False,51% ב 8.6 שנים,באר שבע,קלישר,5.93,38076-6-12,38076/6,9113.764927718415,31.256502209,34.8115062694,2019
2019-11-21,2019-11-21,"יוחנן הורקנוס 8, באר שבע",יוחנן הורקנוס 8,38072-2-2,דירה בבית קומות,4.0,ראשונה,62.5,640000,,,1960.0,,3.0,10732153950,1,380722,False,,באר שבע,יוחנן הורקנוס,,38072-2-2,38072/2,10240.0,31.2649982067,34.7942658347,2019
2019-11-21,2019-11-21,"ח""ן 18, באר שבע","ח""ן 18",38352-13-13,דירה בבית קומות,4.0,רביעית,81.0,925000,,,1995.0,,5.0,10733508360,1,3835213,False,120% ב 17.2 שנים,באר שבע,"ח""ן",6.98,38352-13-13,38352/13,11419.753086419752,31.2652737001,34.7762882099,2019
2019-11-21,2019-11-21,"ציזלינג 12, באר שבע",ציזלינג 12,38131-5-10,דירה בבית קומות,4.0,שניה,81.0,840000,,,1970.0,,4.0,10732473360,1,381315,False,12% ב 4 שנים,באר שבע,ציזלינג,3.0,38131-5-10,38131/5,10370.37037037037,31.2590562775,34.7623934097,2019
2019-11-21,2019-11-21,"המשחררים 65, באר שבע",המשחררים 65,38057-31-11,דירה בבית קומות,4.0,ראשונה,90.1,845000,,,1970.0,,3.0,10732174110,1,3805731,False,31% ב 7.7 שנים,באר שבע,המשחררים,4.03,38057-31-11,38057/31,9378.468368479467,31.2516996133,34.7880692923,2019
2019-11-21,2019-11-21,"רד""ק 3, באר שבע","רד""ק 3",38103-33-3,דירה בבית קומות,3.0,שניה,59.6,570000,,,1980.0,,4.0,10732283190,1,3810333,False,106% ב 21.2 שנים,באר שבע,"רד""ק",5.0,38103-33-3,38103/33,9563.758389261744,31.256971605,34.7727365571,2019
2019-11-21,2019-11-21,"רחה פריאר 9, באר שבע",רחה פריאר 9,38018-52-187,משרד,1.0,שמינית,170.0,2374515,1.0,M TOWER,2019.0,,8.0,10734585030,1,3801852,False,,באר שבע,פריאר רחה,,38018-52-187,38018/52,13967.735294117649,31.2451209471,34.8024816208,2019
2019-11-21,2019-11-21,"יהודה הלוי 32, באר שבע",יהודה הלוי 32,38079-26-12,דירה בבית קומות,3.0,שניה,44.0,480000,,,1970.0,,3.0,10732085730,1,3807926,False,,באר שבע,יהודה הלוי,,38079-26-12,38079/26,10909.09090909091,31.2628977401,34.7895973993,2019
2019-11-21,2019-11-21,"בית אל 31, באר שבע",בית אל 31,38115-48-4,דירה בבית קומות,4.0,ראשונה,78.3,860000,,,1980.0,,4.0,10733027310,1,3811548,False,62% ב 5.9 שנים,באר שבע,בית אל,10.51,38115-48-4,38115/48,10983.397190293745,31.2444774151,34.7739708011,2019
2019-11-21,2019-11-21,"חיים בר-לב 31, באר שבע",חיים בר-לב 31,38352-23-4,דירה בבית קומות,4.0,ראשונה,78.0,990000,,,1996.0,,5.0,10733218920,1,3835223,False,121% ב 16.8 שנים,באר שבע,בר-לב חיים,7.2,38352-23-4,38352/23,12692.307692307691,31.2665207185,34.7722420327,2019
2019-11-21,2019-11-21,"אמציה 4, באר שבע",אמציה 4,38108-71-3,דירה בבית קומות,4.0,שניה,82.0,820000,,,1980.0,,4.0,10732558050,1,3810871,False,,באר שבע,אמציה,,38108-71-3,38108/71,10000.0,31.2644164804,34.7844882038,2019
2019-11-21,2019-11-21,"יחיל חיים 26, באר שבע",יחיל חיים 26,38018-24-22,דירה בבית קומות,3.0,שלישית,63.7,680000,,,1970.0,,3.0,10732073040,1,3801824,False,3% ב 5.1 שנים,באר שבע,יחיל חיים,0.59,38018-24-22,38018/24,10675.039246467815,31.2452600645,34.8013097638,2019
2019-11-20,2019-11-20,"שלדג 6, באר שבע",שלדג 6,38265-60-2,בית בודד,6.0,,288.0,3200000,,,2012.0,,1.0,10731980340,1,3826560,False,,באר שבע,שלדג,,38265-60-2,38265/60,11111.111111111111,31.2316153514,34.7640360546,2019
2019-11-20,2019-11-20,"פיארברג 31, באר שבע",פיארברג 31,38139-53-32,דירה בבית קומות,5.0,שלישית+רביעית,104.6,1170000,,,1998.0,,3.0,10731943260,1,3813953,False,38% ב 8.7 שנים,באר שבע,פיארברג,4.37,38139-53-32,38139/53,11185.46845124283,31.2351720008,34.7725843283,2019
2019-11-20,2019-11-20,"מבצע נחשון 59, באר שבע",מבצע נחשון 59,38088-94-1,דירה בבית קומות,6.0,קרקע וראשונה,143.6,1350000,,,1970.0,,1.0,10731960900,1,3808894,False,,באר שבע,מבצע נחשון,,38088-94-1,38088/94,9401.114206128132,31.2614679529,34.7868698201,2019
2019-11-20,2019-11-20,"יהודה הלוי 12, באר שבע",יהודה הלוי 12,38057-38-251,דירה בבית קומות,4.0,חמש עשרה,115.0,1360000,,,2015.0,,22.0,10732800780,1,3805738,False,,באר שבע,יהודה הלוי,,38057-38-251,38057/38,11826.08695652174,31.254184461,34.7879859476,2019
2019-11-20,2019-11-20,"גוש עציון 97, באר שבע",גוש עציון 97,38027-19-22,דירה בבית קומות,2.0,ראשונה,37.0,800000,,,1960.0,,3.0,10732609890,1,3802719,False,40% ב 3.1 שנים,באר שבע,גוש עציון,12.9,38027-19-22,38027/19,21621.62162162162,31.2584804058,34.8106359314,2019
2019-11-20,2019-11-20,,,100613-265-1,קרקע למגורים,,,497.0,750000,,,,,,10734386850,2,100613265,False,,באר שבע,רות הילמן,,100613-265-1,100613/265,1509.0543259557344,31.2743438178,34.7557390001,2019
2019-11-20,2019-11-20,"אביגדור המאירי 16, באר שבע",אביגדור המאירי 16,38190-11-2,חנות,,קרקע ביניים,152.0,2999000,,,1999.0,,8.0,10732448070,1,3819011,False,30% ב 4.3 שנים,באר שבע,אביגדור המאירי,6.98,38190-11-2,38190/11,19730.263157894737,31.240221719,34.7750843433,2019
2019-11-20,2019-11-20,"הרב הרצוג 13, באר שבע",הרב הרצוג 13,38124-43-4,דירה בבית קומות,3.0,ראשונה,68.25,665000,,,1992.0,,4.0,10731962520,1,3812443,False,84% ב 18.5 שנים,באר שבע,הרב הרצוג,4.54,38124-43-4,38124/43,9743.589743589744,31.2610810857,34.7686826584,2019
2019-11-19,2019-11-19,"סוקולוב 8, באר שבע",סוקולוב 8,38264-4-35,דירה בבית קומות,4.0,שניה,82.9,630000,,,1970.0,,4.0,10734412050,1,382644,False,,באר שבע,סוקולוב,,38264-4-35,38264/4,7599.517490952955,31.2481782383,34.7911889537,2019
2019-11-19,2019-11-19,"בר-ניסן 23, באר שבע",בר-ניסן 23,38187-43-45,דירה בבית קומות,5.0,שישית,102.0,1270000,,,2002.0,,8.0,10731854160,1,3818743,False,0% ב 3 שנים,באר שבע,בר ניסן,0.0,38187-43-45,38187/43,12450.980392156862,31.2405558011,34.7641732451,2019
2019-11-19,2019-11-19,"רחה פריאר 9, באר שבע",רחה פריאר 9,38018-52-188,משרד,1.0,שבע עשרה,46.0,629694,1.0,M TOWER,2019.0,,8.0,10734249510,1,3801852,False,,באר שבע,פריאר רחה,,38018-52-188,38018/52,13689.0,31.2451209471,34.8024816208,2019
2019-11-19,2019-11-19,"מקור חיים 7, באר שבע",מקור חיים 7,38187-13-2,דירת גן,4.0,קרקע,92.2,1490000,,,2008.0,,5.0,10732163580,1,3818713,True,-3% ב 2.5 שנים,באר שבע,מקור חיים,-1.2,38187-13-2,38187/13,16160.52060737527,31.238545362,34.7636312933,2019
2019-11-19,2019-11-19,"רינגלבלום 21, באר שבע",רינגלבלום 21,38092-18-42,דירה בבית קומות,3.0,ראשונה,44.0,810000,,,1960.0,,4.0,10731860910,1,3809218,False,45% ב 6.4 שנים,באר שבע,רינגלבלום,7.03,38092-18-42,38092/18,18409.090909090908,31.2684143885,34.800117729,2019
2019-11-19,2019-11-19,"מרבד הקסמים 4, באר שבע",מרבד הקסמים 4,38098-104-5,דירה בבית קומות,3.0,קרקע,72.6,796000,,,1960.0,,,10732688640,1,38098104,False,151% ב 16.5 שנים,באר שבע,מרבד הקסמים,9.15,38098-104-5,38098/104,10964.187327823693,31.2510820983,34.7837119486,2019
2019-11-19,2019-11-19,"יהודה הלוי 12, באר שבע",יהודה הלוי 12,38057-38-254,דירה בבית קומות,4.0,שלוש עשרה,108.0,1280000,,,2015.0,,22.0,10732523040,1,3805738,False,,באר שבע,יהודה הלוי,,38057-38-254,38057/38,11851.851851851852,31.254184461,34.7879859476,2019
2019-11-19,2019-11-19,"דוד ניב ניב 13, באר שבע",דוד ניב ניב 13,38189-58-39,דירה בבית קומות,3.0,חמישית,92.0,1050000,,,1999.0,,8.0,10732141350,1,3818958,False,28% ב 5.5 שנים,באר שבע,ניב דוד,5.09,38189-58-39,38189/58,11413.04347826087,31.2396832193,34.768652344,2019
2019-11-18,2019-11-18,"אברהם יפה 59, באר שבע",אברהם יפה 59,38369-4-3,דירה בבית קומות,3.0,,96.0,1390000,,,2016.0,,,10733059080,1,383694,False,,באר שבע,יפה אברהם,,38369-4-3,38369/4,14479.166666666666,31.2855376874,34.8066143378,2019
2019-11-18,2019-11-18,"דוד טוביהו 121, באר שבע",דוד טוביהו 121,38110-5-398,דירה בבית קומות,4.0,חמישית,123.0,1470000,,,2019.0,,30.0,10732137750,1,381105,False,,באר שבע,טוביהו דוד,,38110-5-398,38110/5,11951.219512195124,31.2499573475,34.773857833,2019
2019-11-18,2019-11-18,"רותם 26, באר שבע",רותם 26,38253-20-1,בית בודד,4.0,,120.0,2015000,,,1970.0,,,10732195710,1,3825320,False,,באר שבע,רותם,,38253-20-1,38253/20,16791.666666666668,31.2299470018,34.7946140657,2019
2019-11-18,2019-11-18,"אליהו בן-חור 8, באר שבע",אליהו בן-חור 8,38352-8-16,דירת גן,4.0,קרקע,88.0,1110000,,,1996.0,,3.0,10733534370,1,383528,False,,באר שבע,בן-חור אליהו,,38352-8-16,38352/8,12613.636363636364,31.2647522087,34.7736159465,2019
2019-11-18,2019-11-18,"יציאת אירופה 4, באר שבע",יציאת אירופה 4,38098-3-1,דירה בבית קומות,3.0,קרקע,67.5,740000,,,1970.0,,2.0,10732457700,1,380983,False,,באר שבע,יציאת אירופה,,38098-3-1,38098/3,10962.962962962964,31.2521493545,34.7832065214,2019
2019-11-17,2019-11-17,"נחום שריג 29, באר שבע",נחום שריג 29,38370-13-37,דירה בבית קומות,3.5,שישית,87.0,1025000,,,2003.0,,6.0,10733440140,1,3837013,False,35% ב 7.5 שנים,באר שבע,שריג נחום,4.67,38370-13-37,38370/13,11781.6091954023,31.2822440394,34.8053747831,2019
2019-11-17,2019-11-17,"יצחק אבינו 12, באר שבע",יצחק אבינו 12,38078-39-4,דירה בבית קומות,3.0,שניה,44.3,350000,,,1960.0,,3.0,10731544380,1,3807839,False,,באר שבע,יצחק אבינו,,38078-39-4,38078/39,7900.677200902935,31.2604923594,34.7944364657,2019
2019-11-17,2019-11-17,"דב סרן 7, באר שבע",דב סרן 7,38137-23-7,דירה בבית קומות,4.0,שניה,94.4,980000,,,1998.0,,16.0,10734332490,1,3813723,False,64% ב 10.1 שנים,באר שבע,סרן דב,6.34,38137-23-7,38137/23,10381.355932203389,31.2355831725,34.77966067,2019
2019-11-17,2019-11-17,"פרויד 6, באר שבע",פרויד 6,38070-49-5,דירה בבית קומות,4.0,קרקע,100.0,1290000,,,1960.0,,1.0,10731611970,1,3807049,False,35% ב 6.5 שנים,באר שבע,פרויד,5.38,38070-49-5,38070/49,12900.0,31.2557973097,34.792533789,2019
2019-11-17,2019-11-17,"מבצע נחשון 60, באר שבע",מבצע נחשון 60,38085-59-7,חנות,,קרקע,42.19,655000,,,1996.0,,1.0,10733868450,1,3808559,False,,באר שבע,מבצע נחשון,,38085-59-7,38085/59,15525.005925574782,31.260588625,34.7874206047,2019
2019-11-17,2019-11-17,"חיים הזז 4, באר שבע",חיים הזז 4,38074-136-42,דירה בבית קומות,5.0,עשירית,118.4,1340000,,,1995.0,,9.0,10731477600,1,38074136,False,,באר שבע,הזז חיים,,38074-136-42,38074/136,11317.567567567568,31.2533922909,34.7965236031,2019
2019-11-17,2019-11-17,"משה שרת 56, באר שבע",משה שרת 56,38124-50-10,דירה בבית קומות,3.0,שלישית,63.0,630000,,,1980.0,,,10731874770,1,3812450,False,39% ב 7.1 שנים,באר שבע,שרת משה,5.49,38124-50-10,38124/50,10000.0,31.2600236294,34.7700937591,2019
2019-11-17,2019-11-17,"וינגייט 82, באר שבע",וינגייט 82,38127-1-47,דירה בבית קומות,3.0,רביעית,64.0,820000,,,1970.0,,8.0,10731384000,1,381271,False,,באר שבע,וינגייט,,38127-1-47,38127/1,12812.5,31.2560267958,34.8017487663,2019
2019-11-17,2019-11-17,"סוכות 1, באר שבע",סוכות 1,38073-74-1,דירה בבית קומות,5.0,קרקע,116.1,935000,,,1970.0,,,10733010210,1,3807374,False,,באר שבע,סוכות,,38073-74-1,38073/74,8053.402239448751,31.2678368197,34.7958416781,2019
2019-11-17,2019-11-17,"מבצע יואב 24, באר שבע",מבצע יואב 24,38128-1-54,דירה בבית קומות,3.0,שניה,63.0,615000,,,1970.0,,3.0,10731606030,1,381281,False,,באר שבע,מבצע יואב,,38128-1-54,38128/1,9761.90476190476,31.2598148146,34.7810304876,2019
2019-11-17,2019-11-17,"יוסף בורג 92, באר שבע",יוסף בורג 92,38194-15-38,דירה בבית קומות,5.0,קומה ‎11‏,131.08,1480000,,,2018.0,,24.0,10734158070,1,3819415,False,,באר שבע,בורג יוסף,,38194-15-38,38194/15,11290.814769606346,31.2330919773,34.7672313813,2019
2019-11-15,2019-11-15,"אליהו הנביא 2, באר שבע",אליהו הנביא 2,38079-111-97,דירה בבית קומות,1.5,קומה ‎5‏,33.0,360000,,,1995.0,,14.0,10731404160,1,38079111,False,,באר שבע,אליהו הנביא,,38079-111-97,38079/111,10909.09090909091,31.2645869603,34.7928103306,2019
2019-11-15,2019-11-15,"גדעון האוזנר 42, באר שבע",גדעון האוזנר 42,38365-16-82,דירה בבית קומות,3.0,,95.0,1290000,1.0,רמות פמילי,2017.0,,6.0,10732264650,1,3836516,False,,באר שבע,האוזנר גדעון,,38365-16-82,38365/16,13578.947368421052,31.2871255002,34.8071219205,2019
2019-11-15,2019-11-15,"הרב שלמה טנא 24, באר שבע",הרב שלמה טנא 24,38389-19-35,דירה בבית קומות,4.0,תשיעית,103.9,1123000,,,2011.0,,15.0,10731883680,1,3838919,False,13% ב 3.5 שנים,באר שבע,הרב טנא שלמה,3.71,38389-19-35,38389/19,10808.46968238691,31.2342752101,34.7852178362,2019
2019-11-15,2019-11-15,"מבצע נחשון 72, באר שבע",מבצע נחשון 72,38085-1-138,דירה בבית קומות,5.0,שניה,118.52,1210000,,,1994.0,,9.0,10733835960,1,380851,False,,באר שבע,מבצע נחשון,,38085-1-138,38085/1,10209.247384407696,31.2619562469,34.7880870661,2019
2019-11-14,2019-11-14,"עוזי נרקיס 5, באר שבע",עוזי נרקיס 5,38373-7-19,דירה בבית קומות,4.0,שלישית,86.9,1140000,,,2002.0,,5.0,10732037490,1,383737,False,128% ב 16.8 שנים,באר שבע,נרקיס עוזי,7.62,38373-7-19,38373/7,13118.527042577674,31.2820707802,34.8032542219,2019
2019-11-14,2019-11-14,"יהודה הלוי 12, באר שבע",יהודה הלוי 12,38057-38-255,דירה בבית קומות,5.0,שמונה עשרה,124.0,1420000,,,2015.0,,22.0,10732800060,1,3805738,False,,באר שבע,יהודה הלוי,,38057-38-255,38057/38,11451.612903225809,31.254184461,34.7879859476,2019
2019-11-14,2019-11-14,"השלום 22, באר שבע",השלום 22,38030-19-5,דירה בבית קומות,3.0,שלישית,73.3,660000,,,1970.0,,3.0,10731351420,1,3803019,False,23% ב 6.8 שנים,באר שבע,השלום,3.38,38030-19-5,38030/19,9004.092769440655,31.2524943325,34.8030914548,2019
2019-11-14,2019-11-14,"שמעון בר-גיורא 21, באר שבע",שמעון בר-גיורא 21,38078-24-12,דירה בבית קומות,2.0,שלישית,35.2,643000,,,1960.0,,3.0,10732501530,1,3807824,False,23% ב 0.5 שנים,באר שבע,שמעון בר גיורא,46.0,38078-24-12,38078/24,18267.04545454545,31.2620377357,34.7928215296,2019
2019-11-14,2019-11-14,"אחד העם 6, באר שבע",אחד העם 6,38025-6-8,דירה בבית קומות,2.0,שניה,48.0,600000,,,1970.0,,3.0,10735271100,1,380256,False,206% ב 14.5 שנים,באר שבע,אחד העם,14.21,38025-6-8,38025/6,12500.0,31.247479665,34.7919961602,2019
2019-11-14,2019-11-14,"מונטיפיורי 2, באר שבע",מונטיפיורי 2,38129-76-3,דירה בבית קומות,4.0,ראשונה,105.0,990000,,,1950.0,,1.0,10731570390,1,3812976,False,155% ב 18.1 שנים,באר שבע,מונטיפיורי,8.56,38129-76-3,38129/76,9428.57142857143,31.2494958667,34.7971324101,2019
2019-11-14,2019-11-14,"האיסיים 5, באר שבע",האיסיים 5,38079-2-11,דירה בבית קומות,3.0,שלישית,40.4,500000,,,1970.0,,3.0,10731431610,1,380792,False,39% ב 6.2 שנים,באר שבע,האיסיים,6.29,38079-2-11,38079/2,12376.237623762378,31.2669511983,34.7921875415,2019
2019-11-14,2019-11-14,"יפה ירקוני 46, ",יפה ירקוני 46,100613-199-1,קרקע למגורים,,,557.0,900000,,,,,,10734132780,1,100613199,False,,באר שבע,יפה ירקוני,,100613-199-1,100613/199,1615.7989228007182,31.2759463116,34.7555557772,2019
2019-11-14,2019-11-14,"סנהדרין 16, באר שבע",סנהדרין 16,38082-70-4,דירה בבית קומות,3.0,ראשונה,51.0,555000,,,1960.0,,4.0,10734871500,1,3808270,False,,באר שבע,סנהדרין,,38082-70-4,38082/70,10882.35294117647,31.2731183914,34.7965595551,2019
2019-11-14,2019-11-14,"מצדה 156, באר שבע",מצדה 156,38128-9-6,דירה בבית קומות,4.0,שניה,89.0,685000,,,1970.0,,3.0,10733036220,1,381289,False,,באר שבע,מצדה,,38128-9-6,38128/9,7696.629213483146,31.2589005188,34.783099983,2019
2019-11-14,2019-11-14,"מיכאל הנגבי 11, באר שבע",מיכאל הנגבי 11,38368-13-7,דירה בבית קומות,4.0,רביעית,91.4,1150000,,,2002.0,,7.0,10731353490,1,3836813,False,,באר שבע,הנגבי,,38368-13-7,38368/13,12582.056892778992,31.2841359487,34.8042372909,2019
2019-11-13,2019-11-13,"שאול המלך 131, באר שבע",שאול המלך 131,38103-4-10,דירה בבית קומות,2.0,קרקע,41.2,630000,,,1970.0,,4.0,10732604670,1,381034,False,36% ב 0.3 שנים,באר שבע,שאול המלך,120.0,38103-4-10,38103/4,15291.262135922329,31.2591813541,34.7708722022,2019
2019-11-13,2019-11-13,"רוטנשטרייך 8, באר שבע",רוטנשטרייך 8,38371-12-2,קוטג' דו משפחתי,4.0,קרקע,125.1,2300000,,,2007.0,,,10732035420,1,3837112,False,144% ב 12.2 שנים,באר שבע,רוטנשטרייך,11.8,38371-12-2,38371/12,18385.29176658673,31.2807734359,34.7977754278,2019
2019-11-13,2019-11-13,"אליהו הנביא 15, באר שבע",אליהו הנביא 15,38079-10-8,דירה בבית קומות,2.5,ראשונה,42.0,520000,,,1960.0,,3.0,10731320190,1,3807910,False,13% ב 4 שנים,באר שבע,אליהו הנביא,3.25,38079-10-8,38079/10,12380.952380952382,31.2661177755,34.7922159412,2019
2019-11-13,2019-11-13,"שמשון 20, באר שבע",שמשון 20,38021-29-17,דירה בבית קומות,3.0,שלישית,60.7,585000,,,1970.0,,4.0,10731318750,1,3802129,False,23% ב 5.5 שנים,באר שבע,שמשון,4.18,38021-29-17,38021/29,9637.561779242174,31.2564956671,34.7796707312,2019
2019-11-12,2019-12-11,"רמב""ן 74, באר שבע","רמב""ן 74",38089-4-26,דירה בבית קומות,4.0,שניה,61.9,635000,,,1970.0,,3.0,10734579000,1,380894,False,,באר שבע,"רמב""ן",,38089-4-26,38089/4,10258.48142164782,31.2713169453,34.7819327384,2019
2019-11-12,2019-12-11,"שמשון עמיצור 17, באר שבע",שמשון עמיצור 17,38371-11-90,דירה בבית קומות,5.0,רביעית,107.0,1330000,,,2008.0,,6.0,10734089760,1,3837111,False,14% ב 6.2 שנים,באר שבע,עמיצור שמשון,2.26,38371-11-90,38371/11,12429.906542056076,31.2823832458,34.7985624866,2019
2019-11-12,2019-12-11,"שרה לוי-תנאי 29, ",שרה לוי-תנאי 29,100612-138-2,קרקע למגורים,,,484.0,800000,,,,,,10734683760,1,100612138,False,,באר שבע,שרה לוי-תנאי,,100612-138-2,100612/138,1652.892561983471,31.275913862,34.7521270892,2019
2019-11-12,2019-12-11,"דוד טוביהו 121, באר שבע",דוד טוביהו 121,38110-5-394,דירה בבית קומות,4.0,עשרים,124.0,1560000,,,2019.0,,30.0,10734383160,1,381105,False,,באר שבע,טוביהו דוד,,38110-5-394,38110/5,12580.645161290322,31.2499573475,34.773857833,2019
2019-11-12,2019-12-11,"דוד ניב ניב 7, באר שבע",דוד ניב ניב 7,38189-3-31,דירה בבית קומות,3.0,רביעית,68.7,1035000,,,1999.0,,13.0,10734081570,1,381893,False,51% ב 7.5 שנים,באר שבע,ניב דוד,6.8,38189-3-31,38189/3,15065.502183406114,31.2379603811,34.769256777,2019
2019-11-12,2019-12-11,"מיכאל חזני 1, באר שבע",מיכאל חזני 1,38106-13-63,דירה בבית קומות,4.0,חמישית,80.96,930000,,,1996.0,,8.0,10734716610,1,3810613,True,-2% ב 2.9 שנים,באר שבע,חזני מיכאל,-0.69,38106-13-63,38106/13,11487.15415019763,31.2610513358,34.7704673471,2019
2019-11-12,2019-12-11,"יוסף בורג 1, באר שבע",יוסף בורג 1,38194-11-22,דירה,3.0,,87.0,1126000,1.0,דלויה YOUNG,2018.0,,5.0,11181230640,1,3819411,False,,באר שבע,בורג יוסף,,38194-11-22,38194/11,12942.528735632184,31.2330886156,34.7695283248,2019
2019-11-12,2019-12-11,"המשחררים 18, באר שבע",המשחררים 18,38074-132-58,דירה בבית קומות,4.0,שביעית,76.0,930000,,,1996.0,,8.0,10800786870,1,38074132,False,16% ב 5.9 שנים,באר שבע,המשחררים,2.71,38074-132-58,38074/132,12236.842105263158,31.2520429332,34.7945353829,2019
2019-11-12,2019-12-11,"יהודה שטיינברג 36, באר שבע",יהודה שטיינברג 36,38133-68-3,דירה בבית קומות,4.5,,95.0,1250000,,,2011.0,,,10734030270,1,3813368,False,,באר שבע,שטיינברג יהודה,,38133-68-3,38133/68,13157.894736842103,31.2682622521,34.7715948921,2019
2019-11-12,2019-12-11,"אשכולית 10, באר שבע",אשכולית 10,38364-2-33,דירה בבית קומות,4.0,רביעית,123.0,1340000,,,2020.0,,3.0,10734377220,1,383642,False,,באר שבע,אשכולית,,38364-2-33,38364/2,10894.30894308943,31.2881243399,34.8019151403,2019
2019-11-11,2019-11-11,"בזל 38, באר שבע",בזל 38,38262-12-1,דירה בבית קומות,3.0,קרקע,76.2,900000,,,1970.0,,2.0,10731344580,1,3826212,True,-15% ב 6.5 שנים,באר שבע,בזל,-2.31,38262-12-1,38262/12,11811.023622047243,31.2501630451,34.7874272924,2019
2019-11-11,2019-11-11,"עבדת 27, באר שבע",עבדת 27,38319-18-4,קוטג' דו משפחתי,5.0,קרקע+ראשונה,143.0,2276000,,,1999.0,,,10731060990,1,3831918,False,57% ב 7.1 שנים,באר שבע,עבדת,8.03,38319-18-4,38319/18,15916.083916083917,31.2437519241,34.7675796771,2019
2019-11-11,2019-11-11,"הנרי קנדל 5, באר שבע",הנרי קנדל 5,38035-61-59,דירה בבית קומות,4.0,ראשונה,102.0,1315000,,,2005.0,,14.0,10731232710,1,3803561,False,,באר שבע,קנדל הנרי,,38035-61-59,38035/61,12892.156862745098,31.2451301716,34.7843902725,2019
2019-11-11,2019-11-11,"בר-ניסן 13, באר שבע",בר-ניסן 13,38187-59-53,דירת גן,4.0,קרקע,88.9,1270000,,,2002.0,,8.0,10731217680,1,3818759,False,32% ב 7.8 שנים,באר שבע,בר ניסן,4.1,38187-59-53,38187/59,14285.714285714284,31.2398695048,34.7630533786,2019
2019-11-11,2019-11-11,"עפרוני 116, באר שבע",עפרוני 116,38267-128-31,דירה בבית קומות,6.0,,169.0,2255000,,,2014.0,,,10731545100,1,38267128,False,,באר שבע,עפרוני,,38267-128-31,38267/128,13343.195266272189,,,2019
2019-11-11,2019-11-11,"אמירה בלייברג 45, ",אמירה בלייברג 45,100622-181-1,קרקע למגורים,,,480.0,900000,,,,,,10802783610,1,100622181,False,,באר שבע,אמירה בלייברג,,100622-181-1,100622/181,1875.0,31.2708824067,34.7569873261,2019
2019-11-10,2019-10-11,"דב יוסף 21, באר שבע",דב יוסף 21,38105-5-1,דירה בבית קומות,3.0,ראשונה,63.0,660000,,,1980.0,,4.0,10729633230,1,381055,False,0% ב 0.6 שנים,באר שבע,דב יוסף,0.0,38105-5-1,38105/5,10476.190476190475,31.255245741,34.7637896914,2019
2019-11-10,2019-10-11,"הגלבוע 17, באר שבע",הגלבוע 17,38102-15-30,דירה בבית קומות,3.0,שלישית,72.1,675000,,,1970.0,,4.0,10730259000,1,3810215,False,,באר שבע,הגלבוע,,38102-15-30,38102/15,9361.997226074896,31.2521861325,34.7716528213,2019
2019-11-10,2019-10-11,"החיד""א 37, באר שבע","החיד""א 37",38118-18-10,דירה בבית קומות,4.0,ראשונה,83.9,780000,,,1970.0,,4.0,10730390490,1,3811818,False,56% ב 7.6 שנים,באר שבע,"החיד""א",7.37,38118-18-10,38118/18,9296.78188319428,31.2532157444,34.7691985412,2019
2019-11-09,2019-09-11,"מרדכי מקלף 7, באר שבע",מרדכי מקלף 7,38108-56-3,דירה בבית קומות,4.0,שניה,78.0,785000,,,1980.0,,4.0,10727425890,1,3810856,False,115% ב 16.4 שנים,באר שבע,מקלף מרדכי,7.01,38108-56-3,38108/56,10064.102564102564,31.2664686957,34.7841330391,2019
2019-11-09,2019-09-11,"ישראל זנגוויל 15, באר שבע",ישראל זנגוויל 15,38175-43-1,קוטג' דו משפחתי,3.0,ראשונה,60.0,990000,,,1990.0,,1.0,10728031500,1,3817543,False,,באר שבע,זנגויל ישראל,,38175-43-1,38175/43,16500.0,31.2649905771,34.7609334166,2019
2019-11-09,2019-09-11,"הרב שלמה טנא 7, באר שבע",הרב שלמה טנא 7,38389-24-63,דירה בבית קומות,5.0,שמינית,110.0,1400000,,,2011.0,,9.0,10727483760,1,3838924,False,34% ב 7.7 שנים,באר שבע,הרב טנא שלמה,4.42,38389-24-63,38389/24,12727.272727272728,31.234707757,34.7838226898,2019
2019-11-09,2019-09-11,"אבן גבירול 4, באר שבע",אבן גבירול 4,38070-109-1,דירה בבית קומות,3.0,ראשונה,62.1,880000,,,1960.0,,3.0,10727870580,1,38070109,False,,באר שבע,אבן גבירול,,38070-109-1,38070/109,14170.692431561996,31.2560936427,34.7965604505,2019
2019-11-09,2019-09-11,"דוד טוביהו 121, באר שבע",דוד טוביהו 121,38110-5-409,דירה בבית קומות,5.0,עשרים ושבע,136.0,1800000,,,2019.0,,30.0,10728235080,1,381105,False,,באר שבע,טוביהו דוד,,38110-5-409,38110/5,13235.29411764706,31.2499573475,34.773857833,2019
2019-11-09,2019-09-11,"רינגלבלום 112, באר שבע",רינגלבלום 112,38091-39-27,דירה בבית קומות,2.0,שניה,43.5,650000,,,1960.0,,4.0,10727652330,1,3809139,False,,באר שבע,רינגלבלום,,38091-39-27,38091/39,14942.528735632184,31.2695910567,34.8001369317,2019
2019-11-09,2019-09-11,"דוד ניב ניב 11, באר שבע",דוד ניב ניב 11,38189-59-13,דירה בבית קומות,4.0,שניה,87.3,1110000,,,1999.0,,11.0,10727725230,1,3818959,False,80% ב 9.1 שנים,באר שבע,ניב דוד,8.79,38189-59-13,38189/59,12714.776632302406,31.2391098106,34.768781546,2019
2019-11-09,2019-09-11,"דוד ניב ניב 13, באר שבע",דוד ניב ניב 13,38189-58-20,דירה בבית קומות,4.0,שישית,91.0,1155000,,,1999.0,,8.0,10727460810,1,3818958,False,7% ב 3.7 שנים,באר שבע,ניב דוד,1.89,38189-58-20,38189/58,12692.307692307691,31.2396832193,34.768652344,2019
2019-11-09,2019-09-11,"יוסף בורג 1, באר שבע",יוסף בורג 1,38194-11-16,דירה,4.0,,110.0,1300000,1.0,דלויה YOUNG,2018.0,,5.0,11181230636,1,3819411,False,,באר שבע,בורג יוסף,,38194-11-16,38194/11,11818.181818181818,31.2330886156,34.7695283248,2019
2019-11-09,2019-09-11,"סוסיה 5, באר שבע",סוסיה 5,38111-199-18,דירה בבית קומות,4.0,שלישית,109.56,1260000,,,2011.0,,7.0,10727548470,1,38111199,False,45% ב 7.3 שנים,באר שבע,סוסיה,6.16,38111-199-18,38111/199,11500.547645125958,31.2441693372,34.7726766399,2019
2019-11-09,2019-09-11,"משה קהירי 22, באר שבע",משה קהירי 22,38367-5-10,דירה בבית קומות,4.0,שלישית,98.64,1320000,,,2012.0,,6.0,10729139400,1,383675,False,1% ב 0.9 שנים,באר שבע,קהירי,1.11,38367-5-10,38367/5,13381.995133819952,31.2851929214,34.8001636157,2019
2019-11-09,2019-09-11,"התלמוד 103, באר שבע",התלמוד 103,38089-124-20,דירה בבית קומות,2.0,קרקע,50.3,445000,,,1970.0,,3.0,10728860310,1,38089124,False,,באר שבע,התלמוד,,38089-124-20,38089/124,8846.918489065607,31.2688355257,34.7847563278,2019
2019-11-09,2019-09-11,"עפרה חזה 50, ",עפרה חזה 50,100622-56-1,קרקע למגורים,,,474.0,800000,,,,,,10728900270,1,10062256,False,,באר שבע,עופרה חזה,,100622-56-1,100622/56,1687.7637130801688,31.2729175704,34.7564296974,2019
2019-11-09,2019-09-11,"יהודה הלוי 34, באר שבע",יהודה הלוי 34,38079-25-8,דירה בבית קומות,3.0,שניה,43.5,660000,,,1970.0,,3.0,10727534430,1,3807925,False,24% ב 3.4 שנים,באר שבע,יהודה הלוי,7.06,38079-25-8,38079/25,15172.413793103447,31.2631470785,34.789662235,2019
2019-11-09,2019-09-11,"מבצע נחשון 58, באר שבע",מבצע נחשון 58,38128-17-11,דירה בבית קומות,4.0,רביעית,76.0,620000,,,1970.0,,4.0,10727485200,1,3812817,False,3% ב 4.5 שנים,באר שבע,מבצע נחשון,0.67,38128-17-11,38128/17,8157.894736842105,31.2597024719,34.7873410649,2019
2019-11-09,2019-09-11,"פיארברג 41, באר שבע",פיארברג 41,38139-55-52,דירה בבית קומות,4.0,אחת עשרה,109.6,1070000,,,2000.0,,,10727412480,1,3813955,False,52% ב 9.8 שנים,באר שבע,פיארברג,5.31,38139-55-52,38139/55,9762.77372262774,31.2359853298,34.7712348245,2019
2019-11-09,2019-09-11,"דוד אלעזר 33, באר שבע",דוד אלעזר 33,38353-2-36,דירה בבית קומות,4.0,שניה,80.31,900000,,,2000.0,,9.0,10728243990,1,383532,False,10% ב 5.5 שנים,באר שבע,דוד אלעזר,1.82,38353-2-36,38353/2,11206.574523720585,31.2672234792,34.7738932193,2019
2019-11-09,2019-09-11,"שמעון פינקל 9, באר שבע",שמעון פינקל 9,38405-13-2,דירה בבית קומות,6.0,,237.0,1830000,,,1997.0,,,10727692380,1,3840513,False,,באר שבע,פינקל שמעון,,38405-13-2,38405/13,7721.518987341772,31.2634904169,34.7585182998,2019
2019-11-09,2019-09-11,"עמוס דה-שליט 34, באר שבע",עמוס דה-שליט 34,38159-96-1,קוטג' דו משפחתי,4.0,,123.0,1690000,,,1992.0,,,10728033120,1,3815996,False,,באר שבע,דה-שליט עמוס,,38159-96-1,38159/96,13739.837398373984,31.2728065929,34.8073612994,2019
2019-11-09,2019-09-11,"שלמה המלך 66, באר שבע",שלמה המלך 66,38078-40-18,דירה בבית קומות,3.0,שלישית,44.3,745000,,,1970.0,,3.0,10727454960,1,3807840,False,11% ב 2.3 שנים,באר שבע,שלמה המלך,4.78,38078-40-18,38078/40,16817.155756207678,31.2602164843,34.7940193718,2019
2019-11-08,2019-08-11,"בודנהיימר 8, באר שבע",בודנהיימר 8,38372-5-66,דירה בבית קומות,5.0,קומה ‎5‏,139.0,1700000,,,2016.0,,6.0,10725681690,1,383725,False,0% ב 3.2 שנים,באר שבע,בודנהיימר,0.0,38372-5-66,38372/5,12230.21582733813,31.2811569278,34.8017887636,2019
2019-11-08,2019-08-11,"דוד טוביהו 121, באר שבע",דוד טוביהו 121,38110-5-417,דירה בבית קומות,6.0,,149.0,1974000,,,2019.0,,30.0,10725672780,1,381105,False,,באר שבע,טוביהו דוד,,38110-5-417,38110/5,13248.322147651006,31.2499573475,34.773857833,2019
2019-11-07,2019-07-11,"המשחררים 9, באר שבע",המשחררים 9,38129-2-2,דירה בבית קומות,3.0,שניה,57.8,820000,,,1970.0,,5.0,10722893490,1,381292,False,22% ב 4.1 שנים,באר שבע,המשחררים,5.37,38129-2-2,38129/2,14186.851211072664,31.2512397992,34.7949682734,2019
2019-11-07,2019-07-11,"שיזף 44, באר שבע",שיזף 44,38010-80-3,דירה בבית קומות,5.0,,140.0,1842000,,,1980.0,,,10722895830,1,3801080,False,,באר שבע,שיזף,,38010-80-3,38010/80,13157.142857142857,31.2320776284,34.788533653,2019
2019-11-07,2019-07-11,"אשר ברש 2, באר שבע",אשר ברש 2,38138-66-27,דירה בבית קומות,3.0,שישית,63.6,800000,,,1996.0,,6.0,10723584960,1,3813866,False,56% ב 6.4 שנים,באר שבע,ברש אשר,8.75,38138-66-27,38138/66,12578.616352201258,31.2401162234,34.7775402503,2019
2019-11-07,2019-07-11,"עמוס ירקוני 21, באר שבע",עמוס ירקוני 21,38352-29-39,דירת גן,3.0,קרקע,73.2,970000,,,1998.0,,5.0,10722996000,1,3835229,False,81% ב 10.1 שנים,באר שבע,ירקוני עמוס,8.02,38352-29-39,38352/29,13251.36612021858,31.2666568778,34.7736121861,2019
2019-11-07,2019-07-11,"נעמי שמר 42, ",נעמי שמר 42,100618-168-1,קרקע למגורים,,,390.0,800000,,,,,,10723316130,1,100618168,False,,באר שבע,נעמי שמר,,100618-168-1,100618/168,2051.2820512820517,31.269424427,34.7508289376,2019
2019-11-07,2019-07-11,"לואי פיקרד 16, באר שבע",לואי פיקרד 16,38375-4-38,דירה בבית קומות,5.0,שניה,138.0,1430000,,,2000.0,,5.0,10723015440,1,383754,False,104% ב 11.5 שנים,באר שבע,פיקרד,9.04,38375-4-38,38375/4,10362.31884057971,31.2775609027,34.8001602841,2019
2019-11-07,2019-07-11,"אשר ברש 3, באר שבע",אשר ברש 3,38138-69-6,דירה בבית קומות,4.0,ראשונה,77.8,150000,,,1994.0,,8.0,10722935970,1,3813869,False,,באר שבע,ברש אשר,,38138-69-6,38138/69,1928.0205655526995,31.2394551748,34.7776017479,2019
2019-11-07,2019-07-11,"יעלים 28, באר שבע",יעלים 28,38068-38-14,דירה בבית קומות,3.0,רביעית,68.9,610000,,,1970.0,,4.0,10723279590,1,3806838,False,,באר שבע,יעלים,,38068-38-14,38068/38,8853.410740203193,31.2506685904,34.7802992165,2019
2019-11-07,2019-07-11,"צבייה ויצחק 36, באר שבע",צבייה ויצחק 36,38314-18-1,קוטג' דו משפחתי,5.0,,180.0,1485000,,,1994.0,,,10725255540,1,3831418,False,,באר שבע,צביה ויצחק,,38314-18-1,38314/18,8250.0,31.2238549057,34.7795731826,2019
2019-11-07,2019-07-11,"מאיר גרוסמן 5, באר שבע",מאיר גרוסמן 5,38146-7-40,דירה בבית קומות,4.0,שביעית,89.73,1040000,,,1997.0,,10.0,10724677830,1,381467,False,15% ב 4.8 שנים,באר שבע,גרוסמן מאיר,3.12,38146-7-40,38146/7,11590.32653516104,31.234647465,34.7668847486,2019
2019-11-06,2019-06-11,"אבן גבירול 7, באר שבע",אבן גבירול 7,38070-69-1,דירה בבית קומות,3.0,ראשונה,62.1,1000000,,,1960.0,,3.0,10722825270,1,3807069,False,,באר שבע,אבן גבירול,,38070-69-1,38070/69,16103.05958132045,31.2566205934,34.7956684289,2019
2019-11-06,2019-06-11,"סוקולוב 24, באר שבע",סוקולוב 24,38116-63-213,דירה בבית קומות,6.0,"עשרים ושבע, עשרים ושמונה",200.5,1770000,,,2012.0,,27.0,10721700990,1,3811663,False,,באר שבע,סוקולוב,,38116-63-213,38116/63,8827.930174563591,31.2464339126,34.7894633131,2019
2019-11-06,2019-06-11,"ברדיצ'בסקי 1, באר שבע",ברדיצ'בסקי 1,38133-4-66,קוטג' חד משפחתי,5.0,,167.0,1870000,,,2018.0,,,10722845430,1,381334,False,,באר שבע,ברדיצ'בסקי,,38133-4-66,38133/4,11197.604790419162,,,2019
2019-11-06,2019-06-11,"דייה 8, באר שבע",דייה 8,38265-100-1,קוטג' חד משפחתי,6.0,,170.0,2120000,,,2012.0,,,10720589490,1,38265100,False,,באר שבע,דיה,,38265-100-1,38265/100,12470.588235294115,31.2317041386,34.763071118,2019
2019-11-06,2019-06-11,"מבצע יואב 41, באר שבע",מבצע יואב 41,38094-29-5,דירה בבית קומות,3.0,שלישית,65.0,680000,,,1970.0,,4.0,10723231350,1,3809429,False,30% ב 1.5 שנים,באר שבע,מבצע יואב,20.0,38094-29-5,38094/29,10461.53846153846,31.2602326979,34.7799813637,2019
2019-11-06,2019-06-11,"המשחררים 131, באר שבע",המשחררים 131,38116-9-20,דירה בבית קומות,4.0,חמישית,86.0,885000,,,1980.0,,9.0,10721707740,1,381169,False,10% ב 2.9 שנים,באר שבע,המשחררים,3.45,38116-9-20,38116/9,10290.697674418603,31.2472113968,34.7836518952,2019
2019-11-06,2019-06-11,"ברבור 14, באר שבע",ברבור 14,38268-42-1,דירה בבית קומות,7.0,,181.0,2050000,,,2016.0,,,10720793790,1,3826842,False,,באר שבע,ברבור,,38268-42-1,38268/42,11325.966850828729,31.2290111132,34.7700138672,2019
2019-11-06,2019-06-11,"יוסף בורג 1, באר שבע",יוסף בורג 1,38194-11-60,דירה בבית קומות,4.0,ראשונה,110.0,1300000,,,2018.0,,5.0,10720829430,1,3819411,False,,באר שבע,בורג יוסף,,38194-11-60,38194/11,11818.181818181818,31.2330886156,34.7695283248,2019
2019-11-06,2019-06-11,"פרופ' גבריאל טרק 1, באר שבע",פרופ' גבריאל טרק 1,38374-37-4,דירה בבית קומות,4.0,שניה,95.0,1090000,,,2001.0,,6.0,10720680930,1,3837437,False,,באר שבע,טרק גבריאל,,38374-37-4,38374/37,11473.684210526317,31.2796605088,34.7990191478,2019
2019-11-06,2019-06-11,"יוסף בורג 1, באר שבע",יוסף בורג 1,38194-11-13,דירה בבית קומות,4.0,חמישית,110.0,1330000,,,2018.0,,5.0,10722612150,1,3819411,False,,באר שבע,בורג יוסף,,38194-11-13,38194/11,12090.90909090909,31.2330886156,34.7695283248,2019
2019-11-04,2019-04-11,"יוסף בן-מתתיהו 32, באר שבע",יוסף בן-מתתיהו 32,38093-61-14,דירה בבית קומות,3.0,שלישית,50.6,695000,,,1960.0,,4.0,10717789590,1,3809361,False,,באר שבע,יוסף בן מתתיהו,,38093-61-14,38093/61,13735.177865612648,31.264859292,34.8001069116,2019
2019-11-04,2019-04-11,"רד""ק 14, באר שבע","רד""ק 14",38103-21-15,דירה בבית קומות,3.0,רביעית,62.0,755000,,,1980.0,,8.0,10718555850,1,3810321,True,-3% ב 1.6 שנים,באר שבע,"רד""ק",-1.88,38103-21-15,38103/21,12177.41935483871,31.2572637283,34.7721167223,2019
2019-11-04,2019-04-11,"הגאולים 25, באר שבע",הגאולים 25,38030-89-1,דירה בבית קומות,3.0,ראשונה,89.2,750000,,,1960.0,,3.0,10717744410,1,3803089,False,1% ב 2.9 שנים,באר שבע,הגאולים,0.34,38030-89-1,38030/89,8408.071748878923,31.2481505825,34.8056561018,2019
2019-11-04,2019-04-11,"יצחק אבינו 13, באר שבע",יצחק אבינו 13,38075-94-37,דירה בבית קומות,2.0,עשירית,52.0,820000,,,2016.0,,15.0,10717605630,1,3807594,False,,באר שבע,יצחק אבינו,,38075-94-37,38075/94,15769.23076923077,31.2594861776,34.7951243165,2019
2019-11-04,2019-04-11,"עיט 41, באר שבע",עיט 41,38269-54-2,קוטג' חד משפחתי,7.0,,231.0,2660000,,,2003.0,,,10717533630,1,3826954,False,,באר שבע,עיט,,38269-54-2,38269/54,11515.151515151516,31.223981995,34.7635714252,2019
2019-11-04,2019-04-11,"סוסיה 10, באר שבע",סוסיה 10,38111-201-175,דירה בבית קומות,4.0,קומה ‎8‏,93.0,1255000,,,2010.0,,10.0,10718608590,1,38111201,False,19% ב 4.5 שנים,באר שבע,סוסיה,4.22,38111-201-175,38111/201,13494.623655913978,31.2448368207,34.7732079901,2019
2019-11-04,2019-04-11,"אליעזר שמאלי 11, באר שבע",אליעזר שמאלי 11,38189-20-13,דירה בבית קומות,4.0,שישית,94.0,1185000,,,2000.0,,9.0,10717840080,1,3818920,False,0% ב 2.7 שנים,באר שבע,שמאלי אליעזר,0.0,38189-20-13,38189/20,12606.382978723404,31.2390177197,34.7708884256,2019
2019-11-04,2019-04-11,"מיכאל חזני 6, באר שבע",מיכאל חזני 6,38106-1-4,דירה בבית קומות,4.0,קרקע,94.0,1170000,,,2003.0,,,10717592940,1,381061,False,172% ב 13.5 שנים,באר שבע,חזני מיכאל,12.74,38106-1-4,38106/1,12446.8085106383,31.2605070821,34.771429134,2019
2019-11-04,2019-04-11,"חביבה רייק 6, באר שבע",חביבה רייק 6,38027-39-16,דירה בבית קומות,3.0,שלישית,65.3,685000,,,1960.0,,3.0,10717424370,1,3802739,False,7% ב 2.4 שנים,באר שבע,רייק חביבה,2.92,38027-39-16,38027/39,10490.045941807044,31.2572496054,34.8083369817,2019
2019-11-04,2019-04-11,"דוד ניב ניב 26, באר שבע",דוד ניב ניב 26,38189-62-59,דירה בבית קומות,5.0,שישית,158.0,1440000,,,2010.0,,3.0,10717571430,1,3818962,False,,באר שבע,ניב דוד,,38189-62-59,38189/62,9113.924050632912,31.2393437544,34.7694478322,2019
2019-11-04,2019-04-11,"מרבד הקסמים 3, באר שבע",מרבד הקסמים 3,38098-14-22,דירה בבית קומות,3.0,ראשונה,45.8,622000,,,1970.0,2010.0,2.0,10717543980,1,3809814,True,-5% ב 1.8 שנים,באר שבע,מרבד הקסמים,-2.78,38098-14-22,38098/14,13580.786026200874,31.2502286128,34.7832641363,2019
2019-11-04,2019-04-11,"נחום סנה 14, באר שבע",נחום סנה 14,38367-3-33,דירה בבית קומות,4.0,שניה,109.0,1300000,,,2014.0,,6.0,10717819380,1,383673,False,44% ב 6.1 שנים,באר שבע,סנה נחום,7.21,38367-3-33,38367/3,11926.605504587156,31.2846900638,34.7997888723,2019
2019-11-03,2019-03-11,"בר לב חיים 13, באר שבע",בר לב חיים 13,38352-19-5,דירה בבית קומות,3.0,שניה,71.5,870000,,,1996.0,,3.0,10716998940,1,3835219,False,176% ב 14.2 שנים,באר שבע,בר-לב חיים,12.39,38352-19-5,38352/19,12167.832167832168,31.2654833484,34.7740387509,2019
2019-11-03,2019-03-11,"וילנאי זאב 8, באר שבע",וילנאי זאב 8,38355-16-12,דירה בבית קומות,4.0,שניה,81.0,900000,,,1996.0,,2.0,10715591790,1,3835516,False,,באר שבע,וילנאי זאב,,38355-16-12,38355/16,11111.111111111111,31.2756719035,34.8041961559,2019
2019-11-03,2019-03-11,,,100622-140-1,קרקע למגורים,,,488.0,945000,,,,,,10715322330,2,100622140,False,,באר שבע,עליזה בירון-קטן,,100622-140-1,100622/140,1936.4754098360656,31.2720100965,34.7583354977,2019
2019-11-03,2019-03-11,"הרב אסף שמחה 47, באר שבע",הרב אסף שמחה 47,38093-53-36,דירה בבית קומות,3.0,שלישית,50.6,860000,,,1960.0,,4.0,10715526540,1,3809353,False,48% ב 4.6 שנים,באר שבע,הרב אסף שמחה,10.43,38093-53-36,38093/53,16996.04743083004,31.2654472806,34.8027576837,2019
2019-11-03,2019-03-11,"הנוטר 25, באר שבע",הנוטר 25,38029-70-1,דירה בבית קומות,6.0,קרקע,260.4,1490000,,,1950.0,,,10716681870,1,3802970,False,,באר שבע,הנוטר,,38029-70-1,38029/70,5721.966205837174,31.2533635481,34.8054962393,2019
2019-11-03,2019-03-11,"הרב הרצוג 34, באר שבע",הרב הרצוג 34,38124-18-1,דירה בבית קומות,5.0,,180.0,1710000,,,1970.0,,1.0,10717244010,1,3812418,False,,באר שבע,הרב הרצוג,,38124-18-1,38124/18,9500.0,31.2605721338,34.7673158441,2019
2019-11-03,2019-03-11,"דולצ'ין אריה 20, באר שבע",דולצ'ין אריה 20,38130-68-9,דירה בבית קומות,4.0,קרקע,78.0,1074000,,,1995.0,,3.0,10716320250,1,3813068,False,,באר שבע,דולצ'ין אריה,,38130-68-9,38130/68,13769.23076923077,31.2630334362,34.7659327526,2019
2019-11-03,2019-03-11,"עפרה חזה 25, ",עפרה חזה 25,100622-119-1,קרקע למגורים,,,493.0,900000,,,,,,10715778900,1,100622119,False,,באר שבע,עופרה חזה,,100622-119-1,100622/119,1825.5578093306287,31.2718738733,34.7593626517,2019
2019-11-02,2019-02-11,"עגנון 2, באר שבע",עגנון 2,38081-103-1,דירה בבית קומות,4.0,ראשונה,96.0,1000000,,,1992.0,,14.0,10714080780,1,38081103,False,,באר שבע,עגנון,,38081-103-1,38081/103,10416.666666666666,31.2523262917,34.7775403762,2019
2019-11-02,2019-02-11,"מבצע עובדה 21, באר שבע",מבצע עובדה 21,38094-43-11,דירה בבית קומות,4.0,שלישית,80.6,823000,,,1980.0,,8.0,10715127120,1,3809443,False,,באר שבע,מבצע עובדה,,38094-43-11,38094/43,10210.918114143922,31.259147622,34.7772725574,2019
2019-11-02,2019-02-11,"דב יוסף 25, באר שבע",דב יוסף 25,38105-4-7,דירה בבית קומות,3.0,רביעית,63.0,129000,,,2015.0,,4.0,10713847680,1,381054,False,,באר שבע,דב יוסף,,38105-4-7,38105/4,2047.619047619048,31.2553560336,34.7633355417,2019
2019-11-02,2019-02-11,"יהודה הלוי 12, באר שבע",יהודה הלוי 12,38057-38-274,דירה בבית קומות,4.0,חמישית,109.0,1250000,1.0,מגדלי בצלאל,2015.0,,22.0,10713643470,1,3805738,False,,באר שבע,יהודה הלוי,,38057-38-274,38057/38,11467.88990825688,31.254184461,34.7879859476,2019
2019-11-02,2019-02-11,"פרופ' יהודה ליאו פיקרד 28, באר שבע",פרופ' יהודה ליאו פיקרד 28,38375-6-43,דירה בבית קומות,4.0,קרקע,93.0,1280000,,,2000.0,,5.0,10713261780,1,383756,False,18% ב 4.5 שנים,באר שבע,פיקרד,4.0,38375-6-43,38375/6,13763.440860215054,31.2779546149,34.8013402675,2019
2019-11-02,2019-02-11,"טבנקין 40, באר שבע",טבנקין 40,38102-6-10,דירה בבית קומות,3.0,שלישית,65.9,740000,,,1970.0,,3.0,10715041620,1,381026,False,39% ב 3 שנים,באר שבע,טבנקין,13.0,38102-6-10,38102/6,11229.135053110773,31.2550288491,34.7733686302,2019
2019-11-01,2019-01-11,"חוגלה 18, באר שבע",חוגלה 18,38098-22-61,דירה בבית קומות,4.0,קרקע,77.0,845000,,,1970.0,,2.0,10711093590,1,3809822,False,0% ב 2.1 שנים,באר שבע,חגלה,0.0,38098-22-61,38098/22,10974.025974025972,31.2497446294,34.7827633384,2019
2019-11-01,2019-01-11,"משה קהירי 35, באר שבע",משה קהירי 35,38367-13-34,דירה בבית קומות,4.0,חמישית,89.0,1140000,,,2008.0,,6.0,10711042470,1,3836713,False,128% ב 10.5 שנים,באר שבע,קהירי,12.19,38367-13-34,38367/13,12808.988764044943,31.2830395699,34.8021349962,2019
2019-11-01,2019-01-11,"דוד ילין 33, באר שבע",דוד ילין 33,38160-91-1,דירה בבית קומות,5.0,ראשונה,140.0,1400000,,,1990.0,,1.0,10711160640,1,3816091,False,,באר שבע,ילין דוד,,38160-91-1,38160/91,10000.0,31.2705286937,34.8059596797,2019
2019-11-01,2019-01-11,"לאה 44, באר שבע",לאה 44,38168-37-2,דירה בבית קומות,6.0,,159.0,1500000,,,1990.0,,1.0,10713258000,1,3816837,False,,באר שבע,לאה,,38168-37-2,38168/37,9433.962264150943,31.2694884167,34.7598131262,2019
2019-11-01,2019-01-11,"נחום שריג 5, באר שבע",נחום שריג 5,38373-13-28,דירה בבית קומות,4.0,שניה,86.0,1065000,,,2003.0,,6.0,10710962280,1,3837313,False,25% ב 4.2 שנים,באר שבע,שריג נחום,5.95,38373-13-28,38373/13,12383.720930232555,31.2812590362,34.8045741517,2019
2019-11-01,2019-01-11,"בזל 67, באר שבע",בזל 67,38263-12-9,דירה בבית קומות,3.0,ראשונה,61.9,735000,,,1970.0,,4.0,10710977220,1,3826312,False,13% ב 2.9 שנים,באר שבע,בזל,4.48,38263-12-9,38263/12,11873.990306946687,31.2510968314,34.790382831,2019
2019-10-31,2019-10-31,"מאיר גרוסמן 5, באר שבע",מאיר גרוסמן 5,38146-7-32,דירה בבית קומות,4.0,חמישית,97.03,1040000,,,1997.0,,10.0,10730627370,1,381467,False,16% ב 6 שנים,באר שבע,גרוסמן מאיר,2.67,38146-7-32,38146/7,10718.334535710605,31.234647465,34.7668847486,2019
2019-10-31,2019-10-31,"החיד""א 2, באר שבע","החיד""א 2",38118-36-5,דירה בבית קומות,4.0,שניה,93.9,850000,,,1970.0,,8.0,10730545020,1,3811836,False,,באר שבע,"החיד""א",,38118-36-5,38118/36,9052.183173588925,31.2542235848,34.7696204627,2019
2019-10-31,2019-10-31,"גדעון האוזנר 42, באר שבע",גדעון האוזנר 42,38365-16-86,דירה בבית קומות,3.0,שלישית,92.0,1085000,1.0,רמות פמילי,2017.0,,6.0,10731196170,1,3836516,False,,באר שבע,האוזנר גדעון,,38365-16-86,38365/16,11793.478260869566,31.2871255002,34.8071219205,2019
2019-10-31,2019-10-31,"ישראל רוקח 3, באר שבע",ישראל רוקח 3,38130-59-2,דירה בבית קומות,4.0,קרקע,78.0,1020000,,,1990.0,,3.0,10730534490,1,3813059,False,133% ב 16.3 שנים,באר שבע,רוקח ישראל,8.16,38130-59-2,38130/59,13076.923076923076,31.2622186619,34.7659182427,2019
2019-10-31,2019-10-31,"אברהם אבינו 20, באר שבע",אברהם אבינו 20,38072-1-29,דירה בבית קומות,3.0,שניה,65.5,820000,,,1960.0,,4.0,10731471660,1,380721,False,12% ב 0.5 שנים,באר שבע,אברהם אבינו,24.0,38072-1-29,38072/1,12519.08396946565,31.2644419116,34.7938541292,2019
2019-10-31,2019-10-31,"רפאל קלצ'קין 44, באר שבע",רפאל קלצ'קין 44,38381-21-2,דירה בבית קומות,5.0,,144.0,1620000,,,1995.0,,1.0,10730538990,1,3838121,False,,באר שבע,קלצ'קין רפאל,,38381-21-2,38381/21,11250.0,31.2686594219,34.7702089368,2019
2019-10-31,2019-10-31,"מבצע נחשון 52, באר שבע",מבצע נחשון 52,38128-17-38,דירה בבית קומות,4.0,ראשונה,76.0,655000,,,1970.0,,4.0,10730783520,1,3812817,False,181% ב 11.2 שנים,באר שבע,מבצע נחשון,16.16,38128-17-38,38128/17,8618.421052631578,31.2597024719,34.7873410649,2019
2019-10-31,2019-10-31,"אליהו בן-חור 7, באר שבע",אליהו בן-חור 7,38352-7-38,דירה בבית קומות,5.0,שניה,104.8,1060000,,,1997.0,,4.0,10730508660,1,383527,False,,באר שבע,בן-חור אליהו,,38352-7-38,38352/7,10114.503816793893,31.2643266343,34.7737659075,2019
