DEALDATE,DEALDATETIME,FULLADRESS,DISPLAYADRESS,GUSH,DEALNATUREDESCRIPTION,ASSETROOMNUM,FLOORNO,DEALNATURE,DEALAMOUNT,NEWPROJECTTEXT,PROJECTNAME,BUILDINGYEAR,YEARBUILT,BUILDINGFLOORS,KEYVALUE,TYPE,POLYGON_ID,TREND_IS_NEGATIVE,TREND_FORMAT,city_name,street,presentage per year,GUSH - Copy,Gush_Helka,Price per sqm,lat,lon,Year
2022-12-31,2022-12-31,"מעשי חייא 7, בית שמש",מעשי חייא 7,5379-10-3,דירה בבית קומות,6.0,ראשונה שניה,142.0,3000000,,,1994.0,,1.0,3690255780,1,537910,False,291% ב 18.6 שנים,בית שמש,מעשי חייא,15.65,5379-10-3,5379/10,21126.76056338028,31.7416936609,34.9930112336,2022
2022-12-30,2022-12-30,"העלייה 11, בית שמש",העלייה 11,5203-10-275,דירה בבית קומות,4.0,קומה ‎4‏,117.58,2350000,,,2012.0,,15.0,3690044130,1,520310,False,62% ב 8 שנים,בית שמש,העליה,7.75,5203-10-275,5203/10,19986.39224357884,31.7557246239,34.9873893367,2022
2022-12-29,2022-12-29,"נחום הנביא 4, בית שמש",נחום הנביא 4,34357-17-2,דירה בבית קומות,6.0,"קרקע, ראשונה",137.85,3440000,,,2012.0,,1.0,3690269910,1,3435717,False,171% ב 8.5 שנים,בית שמש,נחום הנביא,20.12,34357-17-2,34357/17,24954.66086325717,31.7047648324,34.9840912009,2022
2022-12-29,2022-12-29,,,5151-65-1,קרקע למגורים,,,,5423000,,,,,,3691024770,2,515165,False,,בית שמש,אוהל יהושע,,5151-65-1,5151/65,,31.7346146715,34.9903478722,2022
2022-12-29,2022-12-29,"באר שבע 1, בית שמש",באר שבע 1,34278-106-2,דירה בבית קומות,4.0,"קרקע, ראשונה",120.0,3500000,,,2009.0,,1.0,3690311970,1,34278106,False,184% ב 13.2 שנים,בית שמש,באר שבע,13.94,34278-106-2,34278/106,29166.666666666668,31.7131166148,34.9866630264,2022
2022-12-29,2022-12-29,"יחזקאל הנביא 13, בית שמש",יחזקאל הנביא 13,34357-5-6,דירה בבית קומות,5.0,שניה,115.8,2675000,,,2012.0,,4.0,3669484320,1,343575,False,81% ב 4.6 שנים,בית שמש,יחזקאל הנביא,17.61,34357-5-6,34357/5,23100.172711571675,31.7050527476,34.9834724662,2022
2022-12-29,2022-12-29,"בן איש חי 5, בית שמש",בן איש חי 5,5935-21-40,דירה בבית קומות,4.0,שלישית,81.0,2100000,,,2006.0,,7.0,3692408790,1,593521,False,,בית שמש,בן איש חי,,5935-21-40,5935/21,25925.925925925927,31.7457665154,34.9993696842,2022
2022-12-28,2022-12-28,"בר-אילן 19, בית שמש",בר-אילן 19,5239-41-5,דירה בבית קומות,4.0,ראשונה,78.9,1840000,,,1991.0,,4.0,3669432600,1,523941,False,,בית שמש,בר אילן,,5239-41-5,5239/41,23320.65906210393,31.7417355426,34.9876928998,2022
2022-12-28,2022-12-28,"חגואל 21, ",חגואל 21,34574-92-12,דירה בבית קומות,5.0,קומה ‎4‏,101.25,2800000,,,2019.0,,8.0,3669448980,1,3457492,False,,בית שמש,ניסן,,34574-92-12,34574/92,27654.32098765432,31.7049550365,35.00111349,2022
2022-12-28,2022-12-28,"אהבת ישראל 6, בית שמש",אהבת ישראל 6,5240-22-13,דירה בבית קומות,4.0,שלישית,79.4,1500000,,,1980.0,,7.0,3690338940,1,524022,False,283% ב 21.4 שנים,בית שמש,אהבת ישראל,13.22,5240-22-13,5240/22,18891.687657430728,31.7425198304,34.9809722577,2022
2022-12-28,2022-12-28,"אור שמח 12, בית שמש",אור שמח 12,5380-2-7,דירה בבית קומות,5.0,שניה,104.5,2926000,,,1997.0,,3.0,3669439080,1,53802,False,,בית שמש,אור שמח,,5380-2-7,5380/2,28000.0,31.7384761459,34.994838459,2022
2022-12-28,2022-12-28,"השבעה 6, בית שמש",השבעה 6,5213-30-31,דירה בבית קומות,3.0,שישית,63.7,1600000,,,1970.0,,6.0,3690036960,1,521330,False,100% ב 5.7 שנים,בית שמש,השבעה,17.54,5213-30-31,5213/30,25117.73940345369,31.7490901283,34.9852088941,2022
2022-12-27,2022-12-27,"המשלט 6, בית שמש",המשלט 6,5209-84-2,קרקע למגורים,,ראשונה,32.6,3930000,,,1960.0,,1.0,3690004290,1,520984,False,,בית שמש,המשלט,,5209-84-2,5209/84,120552.1472392638,31.7511719382,34.9904076657,2022
2022-12-27,2022-12-27,"רבי יוסי בן-קיסמא 19, בית שמש",רבי יוסי בן-קיסמא 19,5943-3-18,דירה בבית קומות,2.0,חמישית,30.0,1750000,,,2003.0,,5.0,3691022760,1,59433,False,,בית שמש,רבי יוסי בן קיסמא,,5943-3-18,5943/3,58333.333333333336,31.7363074993,34.9967412391,2022
2022-12-27,2022-12-27,"הרצל 35, בית שמש",הרצל 35,5208-80-10,דירה בבית קומות,3.0,שניה,44.75,972000,,,1960.0,,4.0,3690091650,1,520880,False,21% ב 7 שנים,בית שמש,הרצל,3.0,5208-80-10,5208/80,21720.67039106145,31.7489691545,34.9931912535,2022
2022-12-26,2022-12-26,"מרים הנביאה 22, בית שמש",מרים הנביאה 22,34518-13-22,דירה בבית קומות,3.0,רביעית,75.0,1860000,,,2020.0,,5.0,3690705990,1,3451813,False,,בית שמש,מרים הנביאה,,34518-13-22,34518/13,24800.0,31.7009577293,34.9946936961,2022
2022-12-26,2022-12-26,"ברכת אברהם 8, בית שמש",ברכת אברהם 8,5379-33-12,דירה בבית קומות,3.0,ראשונה,71.0,1800000,,,1993.0,,3.0,3669460320,1,537933,False,20% ב 3 שנים,בית שמש,ברכת אברהם,6.67,5379-33-12,5379/33,25352.11267605634,31.7385188207,34.9932793737,2022
2022-12-25,2022-12-25,"נחל שחם 9, בית שמש",נחל שחם 9,34274-64-22,דירה בבית קומות,4.0,חמישית,85.5,2300000,,,2008.0,,5.0,3669243750,1,3427464,False,45% ב 1.5 שנים,בית שמש,נחל שחם,30.0,34274-64-22,34274/64,26900.58479532164,31.7133894398,34.9894791394,2022
2022-12-25,2022-12-25,"גור אריה 1, בית שמש",גור אריה 1,5210-86-1,דירה בבית קומות,3.0,קומה ‎1‏,54.7,1520000,,,1960.0,,4.0,3690187920,1,521086,False,93% ב 6.5 שנים,בית שמש,גור אריה,14.31,5210-86-1,5210/86,27787.934186471663,31.7510305247,34.985561786,2022
2022-12-25,2022-12-25,"בן-אליעזר 4, בית שמש",בן-אליעזר 4,5240-51-24,דירה בבית קומות,4.0,שישית,79.7,763000,,,1980.0,,7.0,3669439530,1,524051,False,,בית שמש,בן אליעזר,,5240-51-24,5240/51,9573.40025094103,31.7419832975,34.9832128937,2022
2022-12-25,2022-12-25,"נחל רביבים 18, בית שמש",נחל רביבים 18,34271-29-38,דירה בבית קומות,3.0,ראשונה,69.0,2670000,,,1999.0,,6.0,3669245460,1,3427129,False,,בית שמש,נחל רביבים,,34271-29-38,34271/29,38695.65217391304,31.7107609474,34.9926206848,2022
2022-12-22,2022-12-22,,,34355-24-2,קרקע למגורים,,,368.0,1760000,,,,,,3690715440,2,3435524,False,,בית שמש,שלמה המלך,,34355-24-2,34355/24,4782.608695652174,31.7073859007,34.9827750235,2022
2022-12-22,2022-12-22,"נחל לוז 10, בית שמש",נחל לוז 10,34271-16-1,דירה בבית קומות,7.0,"מרתף,קרקע,ראשונה",175.4,6500000,,,1980.0,,3.0,3690532230,1,3427116,False,209% ב 9.6 שנים,בית שמש,נחל לוז,21.77,34271-16-1,34271/16,37058.152793614594,31.7103244229,34.9940674614,2022
2022-12-21,2022-12-21,"גד 1, בית שמש",גד 1,5546-76-6,דירה בבית קומות,4.0,"קומה ‎0‏, קומה ‎1‏",122.6,3100000,,,2000.0,,2.0,3690240150,1,554676,False,,בית שמש,גד,,5546-76-6,5546/76,25285.48123980424,31.7386725974,34.9913897973,2022
2022-12-21,2022-12-21,"הרצל 20, בית שמש",הרצל 20,5209-92-14,דירה בבית קומות,3.0,שניה,44.5,1250000,,,1970.0,,3.0,3690663150,1,520992,False,182% ב 23.5 שנים,בית שמש,הרצל,7.74,5209-92-14,5209/92,28089.88764044944,31.7497711391,34.9902155066,2022
2022-12-20,2022-12-20,"הרצל 28, בית שמש",הרצל 28,5208-73-15,דירה בבית קומות,5.0,שביעית,111.0,2045000,,,1960.0,2025.0,4.0,3669414840,1,520873,False,,בית שמש,הרצל,,5208-73-15,5208/73,18423.423423423425,31.7493054561,34.9920530959,2022
2022-12-20,2022-12-20,"נחל ניצנים 10, בית שמש",נחל ניצנים 10,34278-36-9,דירה בבית קומות,4.0,שלישית,89.0,2100000,,,2000.0,,2.0,3690358770,1,3427836,False,,בית שמש,נחל ניצנים,,34278-36-9,34278/36,23595.505617977527,31.7131317405,34.9885058935,2022
2022-12-20,2022-12-20,"נהר הירדן 56, בית שמש",נהר הירדן 56,5942-19-3,דירה בבית קומות,4.0,ראשונה,88.9,2165000,,,1998.0,,3.0,3690507990,1,594219,False,,בית שמש,נהר הירדן,,5942-19-3,5942/19,24353.20584926884,31.7270786944,34.9938131191,2022
2022-12-20,2022-12-20,"אור שמח 26, בית שמש",אור שמח 26,5381-11-4,דירה בבית קומות,4.0,ראשונה,85.2,2220000,,,1992.0,,4.0,3669197460,1,538111,False,46% ב 2 שנים,בית שמש,אור שמח,23.0,5381-11-4,5381/11,26056.33802816901,31.7398544477,34.9952049989,2022
2022-12-19,2022-12-19,"הארבל 2, בית שמש",הארבל 2,5215-40-86,דירה בבית קומות,4.0,ראשונה,105.2,2100000,,,1995.0,,2.0,3669140340,1,521540,False,,בית שמש,הארבל,,5215-40-86,5215/40,19961.977186311786,31.7477379779,34.995649801,2022
2022-12-19,2022-12-19,"סיני 18, בית שמש",סיני 18,5207-192-1,בית בודד,1.0,ראשונה,359.0,6073000,,,2011.0,,1.0,3690321360,1,5207192,False,,בית שמש,סיני,,5207-192-1,5207/192,16916.43454038997,31.7483517066,34.9981352817,2022
2022-12-19,2022-12-19,"בן איש חי 72, בית שמש",בן איש חי 72,5934-18-56,דירה בבית קומות,4.0,ראשונה,93.65,2300000,,,2013.0,,5.0,3669203940,1,593418,False,192% ב 9 שנים,בית שמש,בן איש חי,21.33,5934-18-56,5934/18,24559.53016550988,31.7519189112,34.9991958888,2022
2022-12-18,2022-12-18,"חזון איש 2, בית שמש",חזון איש 2,5379-6-9,דירה בבית קומות,4.0,קרקע,71.0,2300000,,,1970.0,,3.0,3690520560,1,53796,False,,בית שמש,חזון איש,,5379-6-9,5379/6,32394.3661971831,31.7408257693,34.9918629825,2022
2022-12-18,2022-12-18,"העונות 25, ",העונות 25,34575-82-55,דירת גג,5.0,שביעית,126.0,2450000,,,2020.0,,6.0,3690294390,1,3457582,False,,בית שמש,העונות,,34575-82-55,34575/82,19444.444444444445,31.6989260564,35.006546419,2022
2022-12-18,2022-12-18,"נחל שמשון 13, בית שמש",נחל שמשון 13,34269-8-9,דירה בבית קומות,5.0,רביעית,119.75,2850000,,,1998.0,,3.0,3669099960,1,342698,False,,בית שמש,נחל שמשון,,34269-8-9,34269/8,23799.582463465555,31.7133245846,35.0007352269,2022
2022-12-14,2022-12-14,"הרצל 34, בית שמש",הרצל 34,5208-76-23,דירה בבית קומות,3.0,שלישית,44.75,358000,,,1960.0,,3.0,3669119550,1,520876,False,35% ב 19.8 שנים,בית שמש,הרצל,1.77,5208-76-23,5208/76,8000.0,31.749452304,34.9933434127,2022
2022-12-14,2022-12-14,"הרצל 33, בית שמש",הרצל 33,5208-81-21,דירה בבית קומות,3.0,רביעית,44.75,1390000,,,1970.0,,4.0,3669041550,1,520881,False,46% ב 1.7 שנים,בית שמש,הרצל,27.06,5208-81-21,5208/81,31061.45251396648,31.7488310627,34.9923577057,2022
2022-12-14,2022-12-14,"ירמיהו הנביא 30, בית שמש",ירמיהו הנביא 30,34357-15-17,דירה בבית קומות,3.0,שלישית,75.4,1930000,,,2013.0,,4.0,3669140580,1,3435715,False,123% ב 10 שנים,בית שמש,ירמיהו הנביא,12.3,34357-15-17,34357/15,25596.81697612732,31.7025751195,34.9846108921,2022
2022-12-14,2022-12-14,"בן איש חי 29, בית שמש",בן איש חי 29,5935-21-39,דירה בבית קומות,4.0,רביעית,81.0,2050000,,,2006.0,,7.0,3669084390,1,593521,False,,בית שמש,בן איש חי,,5935-21-39,5935/21,25308.64197530864,31.7457665154,34.9993696842,2022
2022-12-13,2022-12-13,"הרצל 34, בית שמש",הרצל 34,5208-76-15,דירה בבית קומות,3.0,שניה,44.75,1460000,,,1960.0,,3.0,3669099480,1,520876,False,84% ב 7.4 שנים,בית שמש,הרצל,11.35,5208-76-15,5208/76,32625.698324022345,31.749452304,34.9933434127,2022
2022-12-13,2022-12-13,"אלישע הנביא 15, בית שמש",אלישע הנביא 15,34357-13-23,דירה בבית קומות,3.0,שניה,66.6,1925000,,,2013.0,,1.0,3690317670,1,3435713,False,50% ב 3.4 שנים,בית שמש,אלישע הנביא,14.71,34357-13-23,34357/13,28903.903903903905,31.7039454152,34.9886449749,2022
2022-12-12,2022-12-12,"הרצל 26, בית שמש",הרצל 26,5208-72-14,דירה בבית קומות,4.0,קומה ‎1‏,89.0,1672000,,,1960.0,2026.0,4.0,3690125820,1,520872,False,,בית שמש,הרצל,,5208-72-14,5208/72,18786.516853932582,31.7494679403,34.9917056493,2022
2022-12-12,2022-12-12,"העלייה 5, בית שמש",העלייה 5,5203-10-112,דירה בבית קומות,5.0,קומה ‎12‏,122.35,2500000,,,2012.0,,15.0,3690327840,1,520310,False,80% ב 6.8 שנים,בית שמש,העליה,11.76,5203-10-112,5203/10,20433.18348998774,31.7557246239,34.9873893367,2022
2022-12-07,2022-07-12,"יצחק רבין 12, בית שמש",יצחק רבין 12,5232-13-52,דירה בבית קומות,4.0,שניה,91.7,1690000,,,1995.0,,3.0,3665702790,1,523213,False,,בית שמש,רבין יצחק,,5232-13-52,5232/13,18429.66194111232,31.7460152603,34.9931208025,2022
2022-12-07,2022-07-12,"הנרקיס 14, בית שמש",הנרקיס 14,5219-12-7,דירה בבית קומות,3.0,שלישית,67.0,1526000,,,1970.0,,3.0,3691548990,1,521912,False,103% ב 2.3 שנים,בית שמש,הנרקיס,44.78,5219-12-7,5219/12,22776.119402985078,31.7374204137,34.9768183445,2022
2022-12-06,2022-06-12,"הגפן 22, בית שמש",הגפן 22,5213-123-10,דירה בבית קומות,2.0,ראשונה,54.8,1130000,,,1970.0,,4.0,3664758870,1,5213123,False,,בית שמש,הגפן,,5213-123-10,5213/123,20620.43795620438,31.7464910907,34.9863250945,2022
2022-12-06,2022-06-12,"רבי יהודה צדקה 2, בית שמש",רבי יהודה צדקה 2,5935-22-69,דירה בבית קומות,5.0,שישית,99.0,2500000,,,2004.0,,7.0,3664556910,1,593522,False,,בית שמש,רבי צדקה יהודה,,5935-22-69,5935/22,25252.52525252525,31.74448978,34.9986599105,2022
2022-12-06,2022-06-12,"רבי יהודה צדקה 2, בית שמש",רבי יהודה צדקה 2,5935-22-77,דירה בבית קומות,5.0,ראשונה,,1800000,,,2004.0,,7.0,3665671830,1,593522,False,,בית שמש,רבי צדקה יהודה,,5935-22-77,5935/22,,31.74448978,34.9986599105,2022
2022-12-06,2022-06-12,"נחל צאלים 3, בית שמש",נחל צאלים 3,34294-62-52,דירה בבית קומות,3.0,קומה ‎3‏,67.1,2540000,,,2017.0,,7.0,3664625160,1,3429462,False,94% ב 5.5 שנים,בית שמש,נחל צאלים,17.09,34294-62-52,34294/62,37853.949329359166,31.7121730599,34.9883530771,2022
2022-12-06,2022-06-12,"מרים הנביאה 17, בית שמש",מרים הנביאה 17,34518-29-28,דירה בבית קומות,5.0,קומה ‎3‏,112.1,2300000,,,2017.0,,7.0,3664858140,1,3451829,False,,בית שמש,מרים הנביאה,,34518-29-28,34518/29,20517.395182872435,31.7014821576,34.9932798552,2022
2022-12-05,2022-05-12,"פולה בן-גוריון 1, בית שמש",פולה בן-גוריון 1,5240-2-10,דירה בבית קומות,3.0,קרקע,64.0,1940000,,,1980.0,,1.0,3663875460,1,52402,False,,בית שמש,בן גוריון פולה,,5240-2-10,5240/2,30312.5,31.7436017469,34.9808327782,2022
2022-12-05,2022-05-12,"נהר הירקון 26, בית שמש",נהר הירקון 26,34271-26-17,דירה בבית קומות,4.0,ראשונה,90.3,2350000,,,1997.0,,4.0,3663852240,1,3427126,False,197% ב 14.3 שנים,בית שמש,נהר הירקון,13.78,34271-26-17,34271/26,26024.36323366556,31.7085681981,34.9965530066,2022
2022-12-05,2022-05-12,"רמב""ם 53, בית שמש","רמב""ם 53",5207-8-2,דירה בבית קומות,2.0,ראשונה,26.3,1000000,,,1970.0,,2.0,3663944790,1,52078,False,,בית שמש,"רמב""ם",,5207-8-2,5207/8,38022.813688212926,31.7507608168,34.9957636396,2022
2022-12-05,2022-05-12,"רבי ינאי 5, בית שמש",רבי ינאי 5,5231-54-12,דירה בבית קומות,4.0,שניה,110.0,1118000,,,2014.0,,7.0,3663983400,1,523154,False,,בית שמש,רבי ינאי,,5231-54-12,5231/54,10163.636363636364,31.7363948687,34.9862492317,2022
2022-12-04,2022-04-12,"שמואל גונן 2, בית שמש",שמואל גונן 2,5239-10-4,דירה בבית קומות,4.0,ראשונה,90.37,1650000,,,1990.0,,3.0,3663128040,1,523910,False,68% ב 8.2 שנים,בית שמש,גונן שמואל,8.29,5239-10-4,5239/10,18258.27155029324,31.7423163937,34.987313126,2022
2022-12-04,2022-04-12,"רבי יהודה צדקה 2, בית שמש",רבי יהודה צדקה 2,5935-22-68,דירה בבית קומות,5.0,שביעית,143.0,1840000,,,2004.0,,7.0,3663038940,1,593522,False,,בית שמש,רבי צדקה יהודה,,5935-22-68,5935/22,12867.132867132868,31.74448978,34.9986599105,2022
2022-12-04,2022-04-12,"גור אריה 1, בית שמש",גור אריה 1,5210-86-7,דירה בבית קומות,3.0,קומה ‎2‏,54.7,1188000,,,1960.0,,4.0,3663519060,1,521086,False,48% ב 5.6 שנים,בית שמש,גור אריה,8.57,5210-86-7,5210/86,21718.464351005485,31.7510305247,34.985561786,2022
2022-12-04,2022-04-12,"בן-אליעזר 14, בית שמש",בן-אליעזר 14,5240-55-25,דירה בבית קומות,3.0,שישית,64.8,1150000,,,1980.0,,7.0,3663283200,1,524055,False,,בית שמש,בן אליעזר,,5240-55-25,5240/55,17746.913580246914,31.7408680244,34.9824289701,2022
2022-12-04,2022-04-12,"שפת אמת 10, בית שמש",שפת אמת 10,5381-9-5,דירה בבית קומות,4.0,ראשונה,86.0,1670000,,,1997.0,,2.0,3663524520,1,53819,False,,בית שמש,שפת אמת,,5381-9-5,5381/9,19418.60465116279,31.7397215664,34.9958778539,2022
2022-12-04,2022-04-12,"חיד""א 1, בית שמש","חיד""א 1",5934-21-74,דירה בבית קומות,3.0,,79.0,1535000,,,2009.0,,5.0,3663122580,1,593421,False,,בית שמש,"חיד""א",,5934-21-74,5934/21,19430.37974683544,31.749617221,34.9998631122,2022
2022-12-04,2022-04-12,"האדמו""ר מבעלזא 1, בית שמש","האדמו""ר מבעלזא 1",5152-42-12,דירה בבית קומות,4.0,ראשונה,63.0,2200000,,,2010.0,,3.0,3663924780,1,515242,False,,בית שמש,"האדמו""ר מבעלזא",,5152-42-12,5152/42,34920.63492063492,31.7318889019,34.9927289327,2022
2022-12-04,2022-04-12,"הגולן 10, בית שמש",הגולן 10,5232-10-10,דירה בבית קומות,4.0,קרקע,98.2,2365000,,,1980.0,,2.0,3663054030,1,523210,False,123% ב 12.4 שנים,בית שמש,הגולן,9.92,5232-10-10,5232/10,24083.50305498981,31.744608948,34.9923306772,2022
2022-12-04,2022-04-12,"השבעה 19, בית שמש",השבעה 19,5210-44-2,דירה בבית קומות,7.0,ראשונה,254.0,4200000,,,1980.0,,1.0,3663214410,1,521044,False,,בית שמש,השבעה,,5210-44-2,5210/44,16535.43307086614,31.7502518656,34.9827349346,2022
2022-12-04,2022-04-12,"קרן היסוד 1, בית שמש",קרן היסוד 1,5208-177-11,דירה בבית קומות,3.0,שלישית,44.7,1490000,,,1970.0,,3.0,3663817080,1,5208177,False,65% ב 6.4 שנים,בית שמש,קרן היסוד,10.16,5208-177-11,5208/177,33333.33333333333,31.7496864274,34.9934457515,2022
2022-12-01,2022-01-12,"שמואל גונן 2, בית שמש",שמואל גונן 2,5239-10-14,דירה בבית קומות,3.0,שלישית,76.0,1450000,,,1990.0,,3.0,3660623370,1,523910,False,,בית שמש,גונן שמואל,,5239-10-14,5239/10,19078.947368421053,31.7423163937,34.987313126,2022
2022-12-01,2022-01-12,"העלייה 7, בית שמש",העלייה 7,5203-10-176,דירה בבית קומות,5.0,קומה ‎11‏,130.8,2200000,,,2012.0,,15.0,3660744150,1,520310,False,44% ב 5.7 שנים,בית שמש,העליה,7.72,5203-10-176,5203/10,16819.571865443424,31.7557246239,34.9873893367,2022
2022-12-01,2022-01-12,"העלייה 15, בית שמש",העלייה 15,5210-61-5,דירה בבית קומות,3.0,שלישית,46.8,1150000,,,1970.0,,3.0,3660517410,1,521061,False,26% ב 3.9 שנים,בית שמש,העליה,6.67,5210-61-5,5210/61,24572.64957264957,31.7514416548,34.9873859572,2022
2022-12-01,2022-01-12,"בן איש חי 56, בית שמש",בן איש חי 56,5934-22-147,מחסנים,,,,1833000,,,2011.0,,8.0,3664687500,1,593422,False,,בית שמש,בן איש חי,,5934-22-147,5934/22,,31.7499127764,35.0004093718,2022
2022-12-01,2022-01-12,"העונות 9, ",העונות 9,34574-12-16,דירה בבית קומות,3.0,,90.0,1041000,,,2022.0,,5.0,3660463680,1,3457412,False,,בית שמש,העונות,,34574-12-16,34574/12,11566.666666666666,31.7018716598,35.0063516135,2022
2022-12-01,2022-01-12,"העונות 9, ",העונות 9,34574-12-14,דירה בבית קומות,3.0,חמישית,76.0,897000,,,2022.0,,5.0,3660407520,1,3457412,False,,בית שמש,העונות,,34574-12-14,34574/12,11802.631578947368,31.7018716598,35.0063516135,2022
2022-12-01,2022-01-12,"העונות 9, ",העונות 9,34574-12-13,דירה בבית קומות,3.0,שישית,76.0,884000,,,2022.0,,5.0,3660467130,1,3457412,False,,בית שמש,העונות,,34574-12-13,34574/12,11631.578947368422,31.7018716598,35.0063516135,2022
2022-12-01,2022-01-12,"יגאל ידין 2, בית שמש",יגאל ידין 2,5240-42-8,דירה בבית קומות,3.0,ראשונה,64.0,1530000,,,1992.0,,1.0,3660838920,1,524042,False,,בית שמש,ידין יגאל,,5240-42-8,5240/42,23906.25,31.7430936771,34.9845231831,2022
2022-12-01,2022-01-12,"רבן יוחנן בן-זכאי 17, בית שמש",רבן יוחנן בן-זכאי 17,5940-14-15,דירה בבית קומות,5.0,שלישית,95.05,1700000,,,2000.0,,4.0,3661025760,1,594014,False,192% ב 16.5 שנים,בית שמש,רבן יוחנן בן זכאי,11.64,5940-14-15,5940/14,17885.32351394003,31.7225761891,34.9913384648,2022
2022-12-01,2022-01-12,"בן-אליעזר 10, בית שמש",בן-אליעזר 10,5240-48-5,דירה בבית קומות,3.0,ראשונה,63.4,1250000,,,1980.0,,7.0,3660320670,1,524048,False,,בית שמש,בן אליעזר,,5240-48-5,5240/48,19716.08832807571,31.7415139705,34.9818586428,2022
2022-11-30,2022-11-30,"יצחק רבין 8, בית שמש",יצחק רבין 8,5232-12-15,דירה בבית קומות,4.0,ראשונה,103.94,2050000,,,1995.0,,3.0,3669230670,1,523212,False,,בית שמש,רבין יצחק,,5232-12-15,5232/12,19722.917067538965,31.7467372812,34.9929786524,2022
2022-11-29,2022-11-29,"נהר הירדן 27, בית שמש",נהר הירדן 27,5152-18-9,דירה בבית קומות,3.0,ראשונה,68.0,1850000,,,2003.0,,2.0,3668706240,1,515218,False,,בית שמש,נהר הירדן,,5152-18-9,5152/18,27205.88235294117,31.7299942118,34.9945998262,2022
2022-11-28,2022-11-28,"הרצל 8, בית שמש",הרצל 8,5209-60-8,דירה בבית קומות,3.0,ראשונה,45.3,1700000,,,1960.0,,3.0,3668699580,1,520960,False,193% ב 14 שנים,בית שמש,הרצל,13.79,5209-60-8,5209/60,37527.59381898455,31.7499751495,34.9880711234,2022
2022-11-28,2022-11-28,,,34355-75-2,קרקע למגורים,,,447.0,3600000,,,,,,3690233010,2,3435575,False,,בית שמש,עזרא,,34355-75-2,34355/75,8053.6912751677855,31.7063659881,34.9820101517,2022
2022-11-28,2022-11-28,"לב שמחה 10, בית שמש",לב שמחה 10,5380-25-3,דירה בבית קומות,4.0,קרקע,80.2,2800000,,,1995.0,,3.0,3668833950,1,538025,False,154% ב 11.9 שנים,בית שמש,לב שמחה,12.94,5380-25-3,5380/25,34912.718204488774,31.7366643748,34.9958042187,2022
2022-11-28,2022-11-28,"בן איש חי 58, בית שמש",בן איש חי 58,5934-22-143,דירה בבית קומות,3.0,,83.0,1840000,,,2011.0,,8.0,3668679990,1,593422,False,,בית שמש,בן איש חי,,5934-22-143,5934/22,22168.67469879518,31.7499127764,35.0004093718,2022
2022-11-27,2022-11-27,"קוק הרב 26, בית שמש",קוק הרב 26,80031-5-11,דירת גן,5.0,"מרתף ‎-1‏, קומה ‎0‏, קומה ‎1‏, קומה ‎2‏",186.45,4830000,,,2019.0,,2.0,3668764410,1,800315,False,,בית שמש,הרב קוק,,80031-5-11,80031/5,25905.06838294449,31.7083998339,35.0023783565,2022
2022-11-23,2022-11-23,"התבור 2, בית שמש",התבור 2,5232-25-18,דירה בבית קומות,4.0,שניה + שלישית,93.5,2100000,,,1995.0,,3.0,3668575320,1,523225,False,70% ב 9.1 שנים,בית שמש,התבור,7.69,5232-25-18,5232/25,22459.893048128342,31.7471058585,34.9944540838,2022
2022-11-22,2022-11-22,"חגי הנביא 14, בית שמש",חגי הנביא 14,34356-15-9,דירה בבית קומות,3.0,חמישית,65.5,1930000,,,2013.0,,4.0,3668534220,1,3435615,False,162% ב 9.5 שנים,בית שמש,חגי הנביא,17.05,34356-15-9,34356/15,29465.648854961837,31.7013413362,34.9807909671,2022
2022-11-22,2022-11-22,"אחיעזר 1, בית שמש",אחיעזר 1,5381-6-5,דירה בבית קומות,4.0,,114.0,2500000,,,1993.0,,1.0,3668991360,1,53816,False,,בית שמש,אחיעזר,,5381-6-5,5381/6,21929.824561403508,31.7410740432,34.9945742421,2022
2022-11-22,2022-11-22,"ריב""ל 29, בית שמש","ריב""ל 29",5940-16-25,דירה בבית קומות,4.0,ראשונה,114.0,2350000,,,2000.0,,4.0,3668753280,1,594016,False,,בית שמש,"ריב""ל",,5940-16-25,5940/16,20614.035087719298,31.723402886,34.9926924729,2022
2022-11-22,2022-11-22,"לוי אשכול 13, בית שמש",לוי אשכול 13,5381-22-2,דירה בבית קומות,5.0,ראשונה,120.0,3050000,,,1990.0,,1.0,3669183870,1,538122,False,,בית שמש,אשכול לוי,,5381-22-2,5381/22,25416.666666666668,31.7395204768,34.9969795864,2022
2022-11-21,2022-11-21,"המשלט 14, בית שמש",המשלט 14,5208-178-27,דירה בבית קומות,2.0,שלישית,35.54,646000,,,1960.0,,4.0,3668532510,1,5208178,False,,בית שמש,המשלט,,5208-178-27,5208/178,18176.702307259427,31.7506383228,34.991981503,2022
2022-11-20,2022-11-20,"מצפה הרש""פ 4, בית שמש","מצפה הרש""פ 4",5152-17-11,דירה בבית קומות,3.0,ראשונה,90.0,2390000,,,2003.0,,5.0,3667253130,1,515217,False,,בית שמש,"מצפה הרש""פ",,5152-17-11,5152/17,26555.555555555555,31.7300239413,34.9936989793,2022
2022-11-20,2022-11-20,"בן איש חי 33, בית שמש",בן איש חי 33,5935-18-41,דירה בבית קומות,3.0,חמישית,65.0,950000,,,2008.0,,6.0,3690577260,1,593518,False,,בית שמש,בן איש חי,,5935-18-41,5935/18,14615.384615384615,31.7469787939,35.0000903465,2022
2022-11-20,2022-11-20,"העונות 7, ",העונות 7,34574-11-38,דירה בבית קומות,4.0,שביעית,107.0,2600000,,,2020.0,,8.0,3668659200,1,3457411,False,,בית שמש,העונות,,34574-11-38,34574/11,24299.065420560742,31.7022174347,35.0063147086,2022
2022-11-20,2022-11-20,"דם המכבים 22, בית שמש",דם המכבים 22,5209-38-2,דירה בבית קומות,4.0,ראשונה,120.0,1700000,,,1965.0,,1.0,3668965170,1,520938,False,,בית שמש,דם המכבים,,5209-38-2,5209/38,14166.666666666666,31.7501809679,34.9875271601,2022
2022-11-20,2022-11-20,"העלייה 11, בית שמש",העלייה 11,5203-10-301,דירה בבית קומות,5.0,קומה ‎9‏,122.35,2525000,,,2012.0,,15.0,3668481780,1,520310,False,104% ב 10.2 שנים,בית שמש,העליה,10.2,5203-10-301,5203/10,20637.51532488762,31.7557246239,34.9873893367,2022
2022-11-20,2022-11-20,"ההדס 8, בית שמש",ההדס 8,5217-119-1,דירה בבית קומות,5.0,ראשונה,430.0,3200000,,,1990.0,,1.0,3668774550,1,5217119,False,,בית שמש,ההדס,,5217-119-1,5217/119,7441.860465116279,31.743484547,34.9746660702,2022
2022-11-17,2022-11-17,"הגולן 7, בית שמש",הגולן 7,5216-6-1,דירה בבית קומות,4.0,קרקע,83.0,2200000,,,1995.0,,2.0,3668444640,1,52166,False,101% ב 12.9 שנים,בית שמש,הגולן,7.83,5216-6-1,5216/6,26506.024096385543,31.7438625269,34.9927094614,2022
2022-11-17,2022-11-17,"יואל הנביא 26, בית שמש",יואל הנביא 26,34355-84-12,דירה בבית קומות,5.0,"קרקע, ראשונה",106.95,3000000,,,2013.0,,5.0,3669017550,1,3435584,False,4% ב 0.4 שנים,בית שמש,יואל הנביא,10.0,34355-84-12,34355/84,28050.49088359046,31.7055436939,34.9790670686,2022
2022-11-17,2022-11-17,"אהבת ישראל 6, בית שמש",אהבת ישראל 6,5240-22-18,דירה בבית קומות,3.0,חמישית,61.6,382000,,,1980.0,,7.0,3668521800,1,524022,False,,בית שמש,אהבת ישראל,,5240-22-18,5240/22,6201.298701298701,31.7425198304,34.9809722577,2022
2022-11-16,2022-11-16,"נהרדעא 19, ",נהרדעא 19,34281-322-1,,5.0,,118.0,2555555,1.0,,,,,11181217962,1,34281322,False,,בית שמש,נהרדעא,,34281-322-1,34281/322,21657.245762711864,31.7006666095,34.9720666276,2022
2022-11-16,2022-11-16,"הרצל 30, בית שמש",הרצל 30,5208-74-16,דירה בבית קומות,5.0,רביעית,111.0,2091000,,,1970.0,2026.0,4.0,3668908710,1,520874,False,,בית שמש,הרצל,,5208-74-16,5208/74,18837.83783783784,31.7492682352,34.9924197417,2022
2022-11-15,2022-11-15,"הרצל 30, בית שמש",הרצל 30,5208-74-18,דירה בבית קומות,5.0,שישית,111.0,2101000,,,1970.0,2026.0,4.0,3669028950,1,520874,False,,בית שמש,הרצל,,5208-74-18,5208/74,18927.92792792793,31.7492682352,34.9924197417,2022
2022-11-15,2022-11-15,"האמוראים 47, ",האמוראים 47,34281-385-23,מחסנים,,,,666000,,,2020.0,,6.0,3668620350,1,34281385,False,,בית שמש,האמוראים,,34281-385-23,34281/385,,31.702404222,34.9678182346,2022
2022-11-13,2022-11-13,"דוד רזיאל 10, בית שמש",דוד רזיאל 10,5240-29-17,דירה בבית קומות,3.0,שניה,59.35,1410000,,,1985.0,,4.0,3668548830,1,524029,False,,בית שמש,רזיאל דוד,,5240-29-17,5240/29,23757.37152485257,31.742483606,34.9831491516,2022
2022-11-13,2022-11-13,"ריב""ל 6, בית שמש","ריב""ל 6",5941-9-6,דירה בבית קומות,4.0,שניה,69.8,2200000,,,1980.0,,3.0,3668995110,1,59419,False,,בית שמש,"ריב""ל",,5941-9-6,5941/9,31518.62464183381,31.7246716234,34.9939035651,2022
2022-11-12,2022-12-11,"יונה בן-אמיתי 17, בית שמש",יונה בן-אמיתי 17,34357-10-75,דירה בבית קומות,4.0,ראשונה,87.3,2520000,,,2013.0,,5.0,3694305390,1,3435710,False,138% ב 11.5 שנים,בית שמש,יונה בן אמיתי,12.0,34357-10-75,34357/10,28865.9793814433,31.7055638357,34.9865884159,2022
2022-11-12,2022-12-11,"נהר הירקון 1, בית שמש",נהר הירקון 1,34294-112-15,קוטג' חד משפחתי,8.0,"מרתף, קרקע, ראשונה, שניה",220.65,5773000,,,2018.0,,,3668952510,1,34294112,False,,בית שמש,נהר הירקון,,34294-112-15,34294/112,26163.60752322683,31.7082233156,34.9917140343,2022
2022-11-12,2022-12-11,"נחל ניצנים 10, בית שמש",נחל ניצנים 10,34278-36-10,דירה בבית קומות,4.0,שניה,76.0,2250000,,,2000.0,,2.0,3669217770,1,3427836,False,,בית שמש,נחל ניצנים,,34278-36-10,34278/36,29605.263157894737,31.7131317405,34.9885058935,2022
2022-11-12,2022-12-11,"הנרקיס 12, בית שמש",הנרקיס 12,5219-10-18,דירה בבית קומות,3.0,קרקע,70.0,1550000,,,1970.0,,3.0,3668934450,1,521910,False,47% ב 1.5 שנים,בית שמש,הנרקיס,31.33,5219-10-18,5219/10,22142.85714285714,31.7378074785,34.9762023399,2022
2022-11-08,2022-08-11,"נחל שורק 31, בית שמש",נחל שורק 31,34278-37-6,דירה בבית קומות,4.0,ראשונה,103.16,2400000,,,2000.0,,4.0,3666783870,1,3427837,False,60% ב 3.3 שנים,בית שמש,נחל שורק,18.18,34278-37-6,34278/37,23264.831329972854,31.7144694701,34.9887319219,2022
2022-11-08,2022-08-11,"ביאליק 2, בית שמש",ביאליק 2,5210-24-3,דירה בבית קומות,2.0,שניה,35.0,286000,,,1960.0,,2.0,3666336360,1,521024,False,,בית שמש,ביאליק,,5210-24-3,5210/24,8171.428571428572,31.7520265034,34.9861966959,2022
2022-11-07,2022-07-11,"נהר הירדן 6, בית שמש",נהר הירדן 6,5151-20-48,חניה,,,,295000,,,2003.0,,6.0,3666607620,1,515120,False,,בית שמש,נהר הירדן,,5151-20-48,5151/20,,31.7354716671,34.9918788666,2022
2022-11-07,2022-07-11,"המשלט 8, בית שמש",המשלט 8,5209-83-1,בית בודד,2.0,ראשונה,32.6,2700000,,,1950.0,,1.0,3665550300,1,520983,False,,בית שמש,המשלט,,5209-83-1,5209/83,82822.08588957055,31.7510885827,34.9906614328,2022
2022-11-07,2022-07-11,"קרן היסוד 9, בית שמש",קרן היסוד 9,5208-102-16,דירה בבית קומות,3.0,רביעית,47.7,1550000,,,1970.0,,5.0,3665915130,1,5208102,False,46% ב 1.5 שנים,בית שמש,קרן היסוד,30.67,5208-102-16,5208/102,32494.758909853248,31.7495897588,34.9913900364,2022
2022-11-07,2022-07-11,"הדובדבן 13, בית שמש",הדובדבן 13,5218-3-13,דירה בבית קומות,4.0,מרתף+קרקע+ראשונה,121.6,3030000,,,1980.0,,3.0,3665757030,1,52183,False,181% ב 9.4 שנים,בית שמש,הדובדבן,19.26,5218-3-13,5218/3,24917.763157894737,31.7442453344,34.9800484753,2022
2022-11-07,2022-07-11,"העונות 7, ",העונות 7,34574-11-40,דירה בבית קומות,4.0,שביעית,129.0,2880000,,,2020.0,,8.0,3665853780,1,3457411,False,,בית שמש,העונות,,34574-11-40,34574/11,22325.58139534884,31.7022174347,35.0063147086,2022
2022-11-04,2022-04-11,"העונות 3, ",העונות 3,34574-9-30,דירה בבית קומות,3.0,רביעית,94.0,2182000,,,2020.0,,8.0,3663490140,1,345749,False,,בית שמש,העונות,,34574-9-30,34574/9,23212.76595744681,31.7029172642,35.0062333917,2022
2022-11-04,2022-04-11,"יחזקאל הנביא 65, בית שמש",יחזקאל הנביא 65,34357-7-15,דירה בבית קומות,3.0,שניה,80.0,1750000,,,2014.0,,3.0,3663072330,1,343577,False,,בית שמש,יחזקאל הנביא,,34357-7-15,34357/7,21875.0,31.7015663455,34.9876453481,2022
2022-11-04,2022-04-11,"רש""י 19, בית שמש","רש""י 19",5545-2-8,דירה בבית קומות,6.0,רביעית,128.0,2055000,,,1992.0,,3.0,3663483180,1,55452,False,,בית שמש,"רש""י",,5545-2-8,5545/2,16054.6875,31.7410771456,34.9873825419,2022
2022-11-03,2022-03-11,"העונות 3, ",העונות 3,34574-9-34,דירה בבית קומות,5.0,שלישית,127.0,2612000,,,2020.0,,8.0,3662450400,1,345749,False,,בית שמש,העונות,,34574-9-34,34574/9,20566.929133858263,31.7029172642,35.0062333917,2022
2022-11-03,2022-03-11,"העונות 7, ",העונות 7,34574-11-33,דירה בבית קומות,5.0,שלישית,127.0,2603000,,,2020.0,,8.0,3662445240,1,3457411,False,,בית שמש,העונות,,34574-11-33,34574/11,20496.062992125982,31.7022174347,35.0063147086,2022
2022-11-03,2022-03-11,"השלושה 7, ",השלושה 7,34574-21-35,דירה בבית קומות,5.0,שניה,127.0,2584000,,,2020.0,,9.0,3662437500,1,3457421,False,,בית שמש,כסליו,,34574-21-35,34574/21,20346.456692913387,31.7029572887,35.0041907,2022
2022-11-03,2022-03-11,"השלושה 5, ",השלושה 5,34574-22-34,דירה בבית קומות,5.0,שלישית,127.0,2628000,,,2020.0,,10.0,3662397480,1,3457422,False,,בית שמש,כסליו,,34574-22-34,34574/22,20692.91338582677,31.7027149905,35.004605672,2022
2022-11-03,2022-03-11,"השלושה 7, ",השלושה 7,34574-21-36,דירה בבית קומות,5.0,שלישית,127.0,2629000,,,2020.0,,9.0,3662435790,1,3457421,False,,בית שמש,כסליו,,34574-21-36,34574/21,20700.7874015748,31.7029572887,35.0041907,2022
2022-11-03,2022-03-11,"השלושה 5, ",השלושה 5,34574-22-33,דירה בבית קומות,5.0,שניה,127.0,2562000,,,2020.0,,10.0,3662398200,1,3457422,False,,בית שמש,כסליו,,34574-22-33,34574/22,20173.228346456694,31.7027149905,35.004605672,2022
2022-11-03,2022-03-11,"בן איש חי 9, בית שמש",בן איש חי 9,5935-22-67,דירה בבית קומות,3.0,ראשונה,85.0,1700000,,,2004.0,,7.0,3662182860,1,593522,False,,בית שמש,בן איש חי,,5935-22-67,5935/22,20000.0,31.74448978,34.9986599105,2022
2022-11-02,2022-02-11,"רבי יהודה צדקה 2, בית שמש",רבי יהודה צדקה 2,5935-22-63,דירה בבית קומות,4.0,ראשונה,82.0,1620000,,,2004.0,,7.0,3661264140,1,593522,False,,בית שמש,רבי צדקה יהודה,,5935-22-63,5935/22,19756.09756097561,31.74448978,34.9986599105,2022
2022-11-02,2022-02-11,"נחל תמנע 8, בית שמש",נחל תמנע 8,34272-11-26,דירה בבית קומות,4.0,רביעית,85.8,1950000,,,1997.0,,4.0,3662000430,1,3427211,False,,בית שמש,נחל תמנע,,34272-11-26,34272/11,22727.272727272728,31.7149544947,34.998394124,2022
2022-11-01,2022-01-11,"העונות 9, ",העונות 9,34574-12-12,,3.0,,90.0,1041597,1.0,,2022.0,,5.0,11181219350,1,3457412,False,,בית שמש,העונות,,34574-12-12,34574/12,11573.3,31.7018716598,35.0063516135,2022
2022-10-30,2022-10-30,"הגולן 7, בית שמש",הגולן 7,5216-6-2,דירה בבית קומות,4.0,קרקע,81.2,2450000,,,1995.0,,2.0,3668353290,1,52166,False,81% ב 9.4 שנים,בית שמש,הגולן,8.62,5216-6-2,5216/6,30172.41379310345,31.7438625269,34.9927094614,2022
2022-10-30,2022-10-30,"נהרדעא 9, ",נהרדעא 9,34281-314-16,דירה בבית קומות,4.0,שניה,108.0,1900000,,,2020.0,,5.0,3668156310,1,34281314,False,,בית שמש,נהרדעא,,34281-314-16,34281/314,17592.59259259259,31.6999537843,34.9739909467,2022
2022-10-30,2022-10-30,"נחל מיכה 16, בית שמש",נחל מיכה 16,34276-7-21,דירה בבית קומות,5.0,שניה,93.3,3040000,,,1997.0,,4.0,3668261970,1,342767,False,,בית שמש,נחל מיכה,,34276-7-21,34276/7,32583.065380493037,31.717452199,34.9933601346,2022
2022-10-30,2022-10-30,"הרצל 26, בית שמש",הרצל 26,5208-72-17,דירה בבית קומות,5.0,שלישית,111.0,1860000,,,1960.0,2026.0,4.0,3668564910,1,520872,False,,בית שמש,הרצל,,5208-72-17,5208/72,16756.756756756757,31.7494679403,34.9917056493,2022
2022-10-27,2022-10-27,"העונות 9, ",העונות 9,34574-12-36,דירה בבית קומות,5.0,שלישית,120.0,2272000,,,2022.0,,5.0,3668085750,1,3457412,False,,בית שמש,העונות,,34574-12-36,34574/12,18933.33333333333,31.7018716598,35.0063516135,2022
2022-10-27,2022-10-27,"אור שמח 8, בית שמש",אור שמח 8,5380-1-9,דירה בבית קומות,4.0,שניה,104.8,2300000,,,1995.0,,3.0,3668045100,1,53801,False,91% ב 9.7 שנים,בית שמש,אור שמח,9.38,5380-1-9,5380/1,21946.564885496184,31.7385428194,34.9943605627,2022
2022-10-27,2022-10-27,"הרצל 30, בית שמש",הרצל 30,5208-74-19,דירה בבית קומות,5.0,חמישית,111.0,1936000,,,1970.0,2026.0,4.0,3668506770,1,520874,False,,בית שמש,הרצל,,5208-74-19,5208/74,17441.441441441442,31.7492682352,34.9924197417,2022
2022-10-27,2022-10-27,"הרצל 26, בית שמש",הרצל 26,5208-72-18,דירה בבית קומות,5.0,שלישית,111.0,1842000,,,1960.0,2026.0,4.0,3668481000,1,520872,False,,בית שמש,הרצל,,5208-72-18,5208/72,16594.594594594593,31.7494679403,34.9917056493,2022
2022-10-27,2022-10-27,"הרצל 28, בית שמש",הרצל 28,5208-73-16,דירה בבית קומות,5.0,שביעית,111.0,1840000,,,1960.0,2025.0,4.0,3668474820,1,520873,False,,בית שמש,הרצל,,5208-73-16,5208/73,16576.576576576575,31.7493054561,34.9920530959,2022
2022-10-26,2022-10-26,"נחל מיכה 14, בית שמש",נחל מיכה 14,34276-7-15,דירה בבית קומות,4.0,שלישית,72.5,1500000,,,1990.0,,4.0,3668637450,1,342767,False,8% ב 4.9 שנים,בית שמש,נחל מיכה,1.63,34276-7-15,34276/7,20689.655172413797,31.717452199,34.9933601346,2022
2022-10-26,2022-10-26,"נחל דולב 66, בית שמש",נחל דולב 66,34269-12-73,דירה בבית קומות,2.0,ראשונה,52.0,1110000,,,2018.0,,6.0,3668655750,1,3426912,False,,בית שמש,נחל דולב,,34269-12-73,34269/12,21346.153846153848,31.7126929757,34.9998540068,2022
2022-10-25,2022-10-25,"רבי יוסי בן-קיסמא 2, בית שמש",רבי יוסי בן-קיסמא 2,5943-31-10,דירה בבית קומות,3.0,שלישית,90.0,1650000,,,2010.0,,4.0,3668071380,1,594331,False,,בית שמש,רבי יוסי בן קיסמא,,5943-31-10,5943/31,18333.33333333333,31.736447707,35.0001110776,2022
2022-10-25,2022-10-25,"קרן היסוד 9, בית שמש",קרן היסוד 9,5208-102-18,דירה בבית קומות,4.0,קומה ‎0‏,103.0,1994000,,,1970.0,2026.0,5.0,3668506020,1,5208102,False,,בית שמש,קרן היסוד,,5208-102-18,5208/102,19359.223300970876,31.7495897588,34.9913900364,2022
2022-10-25,2022-10-25,"נחל ניצנים 10, בית שמש",נחל ניצנים 10,34278-36-11,מגורים,,,,341000,,,2000.0,,2.0,3668409480,1,3427836,False,,בית שמש,נחל ניצנים,,34278-36-11,34278/36,,31.7131317405,34.9885058935,2022
2022-10-25,2022-10-25,"נחל צאלים 3, בית שמש",נחל צאלים 3,34294-62-57,דירה בבית קומות,3.0,קומה ‎4‏,67.1,2100000,,,2017.0,,7.0,3668103030,1,3429462,False,81% ב 5.9 שנים,בית שמש,נחל צאלים,13.73,34294-62-57,34294/62,31296.57228017884,31.7121730599,34.9883530771,2022
2022-10-25,2022-10-25,"חגי הנביא 9, בית שמש",חגי הנביא 9,34356-24-48,דירה בבית קומות,3.0,רביעית,68.9,1855000,,,2015.0,,5.0,3668101530,1,3435624,False,54% ב 1.5 שנים,בית שמש,חגי הנביא,36.0,34356-24-48,34356/24,26923.07692307692,31.7010551636,34.981441429,2022
2022-10-25,2022-10-25,"אור שמח 22, בית שמש",אור שמח 22,5381-10-7,דירה בבית קומות,4.0,קומה ‎4‏,87.4,1710000,,,1992.0,,5.0,3690038970,1,538110,False,31% ב 4.5 שנים,בית שמש,אור שמח,6.89,5381-10-7,5381/10,19565.217391304348,31.739418636,34.9954226891,2022
2022-10-25,2022-10-25,"הרצל 30, בית שמש",הרצל 30,5208-74-14,דירה בבית קומות,4.0,קומה ‎1‏,89.0,1700000,,,1970.0,2026.0,4.0,3668501070,1,520874,False,,בית שמש,הרצל,,5208-74-14,5208/74,19101.123595505615,31.7492682352,34.9924197417,2022
2022-10-24,2022-10-24,"יונה בן-אמיתי 21, בית שמש",יונה בן-אמיתי 21,34357-11-7,דירה בבית קומות,3.0,שניה,67.25,1850000,,,2014.0,,1.0,3668065710,1,3435711,False,48% ב 3.5 שנים,בית שמש,יונה בן אמיתי,13.71,34357-11-7,34357/11,27509.2936802974,31.7045359472,34.9881786989,2022
2022-10-24,2022-10-24,"השלושה 5, ",השלושה 5,34574-22-37,דירה בבית קומות,4.0,רביעית,106.0,2420000,,,2020.0,,10.0,3667992420,1,3457422,False,,בית שמש,כסליו,,34574-22-37,34574/22,22830.18867924528,31.7027149905,35.004605672,2022
2022-10-23,2022-10-23,"רמב""ם 19, בית שמש","רמב""ם 19",5204-78-2,דירה בבית קומות,3.0,ראשונה,47.3,183000,,,1960.0,,6.0,3668329050,1,520478,False,,בית שמש,"רמב""ם",,5204-78-2,5204/78,3868.921775898521,31.7533004257,34.9901750259,2022
2022-10-20,2022-10-20,"מרדכי מקלף 1, בית שמש",מרדכי מקלף 1,5240-40-0,קרקע למגורים,,,620.0,50000,,,1980.0,,1.0,3669262110,1,524040,False,,בית שמש,מקלף מרדכי,,5240-40-0,5240/40,80.64516129032258,31.7432036096,34.9843256894,2022
2022-10-20,2022-10-20,"מרים הנביאה 18, בית שמש",מרים הנביאה 18,34517-21-24,דירה בבית קומות,4.0,רביעית,90.0,2200000,,,2017.0,,3.0,3668253540,1,3451721,False,,בית שמש,מרים הנביאה,,34517-21-24,34517/21,24444.444444444445,31.7007219471,34.9936714816,2022
2022-10-20,2022-10-20,"המעפילים 16, בית שמש",המעפילים 16,5210-36-16,דירה בבית קומות,3.0,חמישית,47.7,1540000,,,1970.0,,4.0,3668107260,1,521036,False,83% ב 4.9 שנים,בית שמש,המעפילים,16.94,5210-36-16,5210/36,32285.115303983228,31.7503095254,34.984534461,2022
2022-10-20,2022-10-20,"הרצל 26, בית שמש",הרצל 26,5208-72-19,דירה בבית קומות,5.0,שביעית,111.0,1878000,,,1960.0,2026.0,4.0,3668410950,1,520872,False,,בית שמש,הרצל,,5208-72-19,5208/72,16918.91891891892,31.7494679403,34.9917056493,2022
2022-10-20,2022-10-20,"רבי צדוק 3, בית שמש",רבי צדוק 3,5941-5-10,דירה בבית קומות,5.0,ראשונה,114.15,2300000,,,2000.0,,2.0,3668090430,1,59415,False,,בית שמש,רבי צדוק,,5941-5-10,5941/5,20148.92685063513,31.7232695296,34.9954984501,2022
2022-10-19,2022-10-19,"הרצל 26, בית שמש",הרצל 26,5208-72-20,דירה בבית קומות,5.0,רביעית,111.0,1862000,,,1960.0,2026.0,4.0,3668354520,1,520872,False,,בית שמש,הרצל,,5208-72-20,5208/72,16774.774774774774,31.7494679403,34.9917056493,2022
2022-10-19,2022-10-19,"מאיר 1146, בית שמש",מאיר 1146,5211-152-1,דירה בבית קומות,4.0,ראשונה,79.0,1057000,,,1970.0,,4.0,3667866210,1,5211152,False,,בית שמש,נתיב מאיר,,5211-152-1,5211/152,13379.746835443038,31.74933997,34.9816970928,2022
2022-10-11,2022-11-10,"נחל תמנע 16, בית שמש",נחל תמנע 16,34272-12-34,דירה בבית קומות,3.0,חמישית,82.55,1900000,,,2000.0,,5.0,3668306040,1,3427212,False,77% ב 8 שנים,בית שמש,נחל תמנע,9.62,34272-12-34,34272/12,23016.353725015146,31.714373043,34.997825456,2022
2022-10-11,2022-11-10,"הנרקיס 26, בית שמש",הנרקיס 26,5219-23-9,דירה בבית קומות,4.0,קרקע,78.0,1150000,,,1970.0,,3.0,3668249100,1,521923,False,205% ב 19 שנים,בית שמש,הנרקיס,10.79,5219-23-9,5219/23,14743.589743589744,31.7371784227,34.98023862,2022
2022-10-10,2022-10-10,"משה רבנו 8, בית שמש",משה רבנו 8,34356-11-30,דירה בבית קומות,3.0,ראשונה,71.0,1800000,,,2014.0,,3.0,3668302530,1,3435611,False,118% ב 8.5 שנים,בית שמש,משה רבנו,13.88,34356-11-30,34356/11,25352.11267605634,31.7040988711,34.9834859712,2022
2022-10-08,2022-08-10,"ירמיהו הנביא 22, בית שמש",ירמיהו הנביא 22,34357-4-43,דירה בבית קומות,5.0,"קרקע, ראשונה",116.7,3300000,,,2014.0,,5.0,3666708150,1,343574,False,89% ב 7.2 שנים,בית שמש,ירמיהו הנביא,12.36,34357-4-43,34357/4,28277.634961439588,31.7016818975,34.9842440431,2022
2022-10-08,2022-08-10,"רבי ינאי 1, בית שמש",רבי ינאי 1,5231-54-13,דירה בבית קומות,5.0,חמישית,120.0,2200000,,,2014.0,,7.0,3667112520,1,523154,False,,בית שמש,רבי ינאי,,5231-54-13,5231/54,18333.33333333333,31.7363948687,34.9862492317,2022
2022-10-08,2022-08-10,"קרן היסוד 6, בית שמש",קרן היסוד 6,5208-156-4,דירה בבית קומות,3.0,ראשונה,62.0,1500000,,,1970.0,,3.0,3666497490,1,5208156,False,57% ב 4.9 שנים,בית שמש,קרן היסוד,11.63,5208-156-4,5208/156,24193.548387096773,31.7501709735,34.9920318824,2022
2022-10-07,2022-07-10,"לב שמחה 8, בית שמש",לב שמחה 8,5380-26-6,דירה בבית קומות,4.0,ראשונה,78.4,1900000,,,1992.0,,3.0,3665491470,1,538026,False,28% ב 2 שנים,בית שמש,לב שמחה,14.0,5380-26-6,5380/26,24234.693877551017,31.7366574618,34.9954131803,2022
2022-10-07,2022-07-10,"העונות 7, ",העונות 7,34574-11-35,,4.0,שביעית,129.0,2880000,1.0,,2020.0,,8.0,11181219349,1,3457411,False,,בית שמש,העונות,,34574-11-35,34574/11,22325.58139534884,31.7022174347,35.0063147086,2022
2022-10-06,2022-06-10,"היצירה 1, בית שמש",היצירה 1,5084-5-6,ללא תיכנון,,,,8100000,,,1996.0,,1.0,3665277600,1,50845,False,,בית שמש,היצירה,,5084-5-6,5084/5,,31.7336726713,34.9566889571,2022
2022-10-05,2022-05-10,"רימון 4, בית שמש",רימון 4,5213-18-1,קוטג' דו משפחתי,2.0,ראשונה,28.4,1368000,,,1950.0,,1.0,3664016850,1,521318,False,,בית שמש,רימון,,5213-18-1,5213/18,48169.01408450704,31.7480137179,34.9837017152,2022
2022-10-05,2022-05-10,"קהילת יעקב 11, בית שמש",קהילת יעקב 11,5380-22-9,דירה בבית קומות,5.0,ראשונה,165.8,1550000,,,1996.0,,2.0,3664551690,1,538022,False,,בית שמש,קהילת יעקב,,5380-22-9,5380/22,9348.612786489746,31.7374387045,34.9963562014,2022
2022-10-05,2022-05-10,"נחל שורק 33, בית שמש",נחל שורק 33,34278-38-29,דירה בבית קומות,4.0,ראשונה,82.8,1800000,,,2002.0,,4.0,3664519020,1,3427838,False,,בית שמש,נחל שורק,,34278-38-29,34278/38,21739.130434782608,31.714592125,34.9879860381,2022
2022-10-05,2022-05-10,"העונות 9, ",העונות 9,34574-12-23,דירה בבית קומות,5.0,שניה,120.0,2175000,,,2022.0,,5.0,3663859440,1,3457412,False,,בית שמש,העונות,,34574-12-23,34574/12,18125.0,31.7018716598,35.0063516135,2022
2022-10-04,2022-04-10,"האמוראים 62, ",האמוראים 62,34281-386-43,דירה בבית קומות,4.0,ראשונה,103.0,1650000,,,2020.0,,7.0,3663695790,1,34281386,False,,בית שמש,האמוראים,,34281-386-43,34281/386,16019.417475728156,31.7017886754,34.9675668669,2022
2022-10-04,2022-04-10,"בן איש חי 51, בית שמש",בן איש חי 51,5934-21-68,דירה בבית קומות,3.0,ראשונה,98.0,1850000,,,2009.0,,5.0,3662920440,1,593421,False,,בית שמש,בן איש חי,,5934-21-68,5934/21,18877.55102040816,31.749617221,34.9998631122,2022
2022-10-04,2022-04-10,"נחל שורק 23, בית שמש",נחל שורק 23,34274-19-4,דירה בבית קומות,3.0,שניה,85.2,1850000,,,2000.0,,5.0,3662949600,1,3427419,False,118% ב 12.3 שנים,בית שמש,נחל שורק,9.59,34274-19-4,34274/19,21713.615023474176,31.7151605765,34.9909774715,2022
2022-10-04,2022-04-10,"נחל דולב 11, בית שמש",נחל דולב 11,34272-6-7,דירה בבית קומות,4.0,ראשונה,92.71,3100000,,,1999.0,,2.0,3662892210,1,342726,False,63% ב 5 שנים,בית שמש,נחל דולב,12.6,34272-6-7,34272/6,33437.60112177759,31.7153525319,34.997757033,2022
2022-10-03,2022-03-10,"רבי ינאי 20, בית שמש",רבי ינאי 20,5231-26-10,דירה בבית קומות,4.0,קומה ‎2‏,90.4,2030000,,,2010.0,,7.0,3662825100,1,523126,False,113% ב 11.7 שנים,בית שמש,רבי ינאי,9.66,5231-26-10,5231/26,22455.75221238938,31.7373230289,34.9863412756,2022
2022-10-03,2022-03-10,"נחל דולב 66, בית שמש",נחל דולב 66,34269-12-65,דירה בבית קומות,2.0,ראשונה,51.0,1290000,,,2018.0,,6.0,3662439000,1,3426912,False,,בית שמש,נחל דולב,,34269-12-65,34269/12,25294.117647058825,31.7126929757,34.9998540068,2022
2022-10-03,2022-03-10,"גור אריה 4, בית שמש",גור אריה 4,5210-13-6,דירה בבית קומות,3.0,שניה,54.7,1170000,,,1980.0,,4.0,3662067030,1,521013,False,283% ב 14 שנים,בית שמש,גור אריה,20.21,5210-13-6,5210/13,21389.39670932358,31.7515717613,34.9848868581,2022
2022-10-03,2022-03-10,"השלושה 7, ",השלושה 7,34574-21-34,דירה בבית קומות,4.0,ראשונה,106.0,2380000,,,2020.0,,9.0,3662199930,1,3457421,False,,בית שמש,כסליו,,34574-21-34,34574/21,22452.830188679247,31.7029572887,35.0041907,2022
2022-10-03,2022-03-10,"יהודה המכבי 13, בית שמש",יהודה המכבי 13,5211-156-16,דירה בבית קומות,3.0,רביעית,66.0,370000,,,1970.0,,4.0,3663571050,1,5211156,False,,בית שמש,יהודה המכבי,,5211-156-16,5211/156,5606.060606060606,31.7490911633,34.982635392,2022
2022-10-02,2022-02-10,"בן ציון אבא שאול 2, בית שמש",בן ציון אבא שאול 2,5935-18-49,דירה בבית קומות,4.0,ראשונה,85.0,1715000,,,2008.0,,6.0,3662027400,1,593518,False,,בית שמש,בן ציון אבא שאול,,5935-18-49,5935/18,20176.470588235294,31.7469787939,35.0000903465,2022
2022-10-02,2022-02-10,"מרים הנביאה 20, בית שמש",מרים הנביאה 20,34517-23-2,דירה בבית קומות,3.0,רביעית,74.0,1610000,,,2020.0,,5.0,3661395810,1,3451723,False,,בית שמש,מרים הנביאה,,34517-23-2,34517/23,21756.75675675676,31.7007523169,34.9942674283,2022
2022-10-02,2022-02-10,"העונות 7, ",העונות 7,34574-11-31,דירה בבית קומות,3.0,שניה,76.0,1600000,,,2020.0,,8.0,3661530420,1,3457411,False,,בית שמש,העונות,,34574-11-31,34574/11,21052.63157894737,31.7022174347,35.0063147086,2022
2022-10-02,2022-02-10,"נחל נחשון 7, בית שמש",נחל נחשון 7,34274-22-68,דירה בבית קומות,4.0,שלישית,103.5,2110000,,,2000.0,,4.0,3661350240,1,3427422,False,49% ב 4.1 שנים,בית שמש,נחל נחשון,11.95,34274-22-68,34274/22,20386.47342995169,31.7137832999,34.9935094477,2022
2022-10-02,2022-02-10,"קלמן מגן 3, בית שמש",קלמן מגן 3,5239-24-2,דירה בבית קומות,3.0,קרקע,67.0,1565000,,,1993.0,,1.0,3661490370,1,523924,False,63% ב 6.4 שנים,בית שמש,מגן קלמן,9.84,5239-24-2,5239/24,23358.20895522388,31.7421383834,34.9902364278,2022
2022-10-01,2022-01-10,"נחום הנביא 7, בית שמש",נחום הנביא 7,34357-6-30,דירה בבית קומות,6.0,"רביעית, חמישית",178.4,2900000,,,2012.0,,4.0,3661042170,1,343576,False,,בית שמש,נחום הנביא,,34357-6-30,34357/6,16255.60538116592,31.7051664242,34.9843379458,2022
2022-10-01,2022-01-10,"החלוצים 2, בית שמש",החלוצים 2,5204-35-2,דירה בבית קומות,4.0,ראשונה,65.0,842000,,,1960.0,,1.0,3661502970,1,520435,False,,בית שמש,החלוצים,,5204-35-2,5204/35,12953.846153846154,31.753577134,34.9874224404,2022
2022-10-01,2022-01-10,"התמרים 14, בית שמש",התמרים 14,5204-7-1,דירה בבית קומות,2.0,ראשונה,29.5,2750000,,,1960.0,,1.0,3660409770,1,52047,False,83% ב 5 שנים,בית שמש,התמרים,16.6,5204-7-1,5204/7,93220.33898305084,31.7546504821,34.9873546994,2022
2022-10-01,2022-01-10,"העונות 9, ",העונות 9,34574-12-10,דירה בבית קומות,3.0,שלישית,90.0,1037000,,,2022.0,,5.0,3660324120,1,3457412,False,,בית שמש,העונות,,34574-12-10,34574/12,11522.222222222224,31.7018716598,35.0063516135,2022
2022-10-01,2022-01-10,"העונות 9, ",העונות 9,34574-12-11,דירה בבית קומות,3.0,שניה,90.0,1040000,,,2022.0,,5.0,3660372360,1,3457412,False,,בית שמש,העונות,,34574-12-11,34574/12,11555.555555555557,31.7018716598,35.0063516135,2022
2022-10-01,2022-01-10,"ריב""ל 3, בית שמש","ריב""ל 3",5940-17-40,דירה בבית קומות,4.0,חמישית,82.3,1590000,,,1990.0,,6.0,3661134450,1,594017,False,,בית שמש,"ריב""ל",,5940-17-40,5940/17,19319.56257594168,31.7237655035,34.9935808668,2022
2022-09-30,2022-09-30,"נחל נחשון 6, בית שמש",נחל נחשון 6,34274-21-17,דירה בבית קומות,5.0,קרקע,100.95,3500000,,,2000.0,,3.0,3667988430,1,3427421,False,123% ב 10 שנים,בית שמש,נחל נחשון,12.3,34274-21-17,34274/21,34670.62902426944,31.7143094418,34.993202879,2022
2022-09-29,2022-09-29,"נחל דולב 29, בית שמש",נחל דולב 29,34272-14-30,בית בודד,4.0,חמישית,91.2,3500000,,,1998.0,,5.0,3667999140,1,3427214,False,,בית שמש,נחל דולב,,34272-14-30,34272/14,38377.19298245614,31.7116945559,34.9980607625,2022
2022-09-29,2022-09-29,"הרצל 28, בית שמש",הרצל 28,5208-73-21,דירה בבית קומות,4.0,שלישית,89.0,1657000,,,1960.0,2025.0,4.0,3667875600,1,520873,False,,בית שמש,הרצל,,5208-73-21,5208/73,18617.977528089887,31.7493054561,34.9920530959,2022
2022-09-29,2022-09-29,"בן איש חי 65, בית שמש",בן איש חי 65,5934-19-43,דירה בבית קומות,3.0,שלישית,101.0,1500000,,,2012.0,,7.0,3668338200,1,593419,False,,בית שמש,בן איש חי,,5934-19-43,5934/19,14851.485148514852,31.7509836575,34.9988520653,2022
2022-09-28,2022-09-28,"הרצל 5, בית שמש",הרצל 5,5213-38-11,חנות,,ראשונה,65.6,812000,,,1960.0,,6.0,3667967400,1,521338,False,,בית שמש,הרצל,,5213-38-11,5213/38,12378.048780487808,31.7491653545,34.9871197089,2022
2022-09-25,2022-09-25,"אהבת שלום 3, בית שמש",אהבת שלום 3,34515-100-1,דירה בבית קומות,5.0,ראשונה,90.0,1570000,,,2015.0,,1.0,3667759500,1,34515100,False,,בית שמש,אהבת שלום,,34515-100-1,34515/100,17444.444444444445,31.7068013732,34.98807654,2022
2022-09-22,2022-09-22,"הרצל 28, בית שמש",הרצל 28,5208-73-22,דירה בבית קומות,5.0,שלישית,111.0,1832000,,,1960.0,2025.0,4.0,3667596420,1,520873,False,,בית שמש,הרצל,,5208-73-22,5208/73,16504.504504504504,31.7493054561,34.9920530959,2022
2022-09-22,2022-09-22,,,5151-34-3,מסחרי + מגורים,,,3426.0,107000000,,,,,,3667825860,2,515134,False,,בית שמש,נהר הירדן,,5151-34-3,5151/34,31231.757151196733,31.7364907489,34.9920181415,2022
2022-09-22,2022-09-22,"דליה 5, בית שמש",דליה 5,5213-57-1,קרקע למגורים,,ראשונה,82.1,3200000,,,1970.0,,1.0,3667716450,1,521357,False,,בית שמש,דליה,,5213-57-1,5213/57,38976.8574908648,31.7477948483,34.9870090073,2022
2022-09-22,2022-09-22,"השלושה 5, ",השלושה 5,34574-22-38,דירה בבית קומות,4.0,,106.0,2681000,,,2020.0,,10.0,3667474620,1,3457422,False,,בית שמש,כסליו,,34574-22-38,34574/22,25292.45283018868,31.7027149905,35.004605672,2022
2022-09-22,2022-09-22,"הרצל 33, בית שמש",הרצל 33,5208-81-10,דירה בבית קומות,3.0,שניה,44.75,1445000,,,1970.0,,4.0,3667481580,1,520881,False,112% ב 7.5 שנים,בית שמש,הרצל,14.93,5208-81-10,5208/81,32290.50279329609,31.7488310627,34.9923577057,2022
2022-09-21,2022-09-21,"נחל רמות 5, בית שמש",נחל רמות 5,34271-31-34,דירה בבית קומות,4.0,רביעית,107.5,2300000,,,2000.0,,5.0,3668607990,1,3427131,False,,בית שמש,נחל רמות,,34271-31-34,34271/31,21395.3488372093,31.7110749321,34.993599117,2022
2022-09-21,2022-09-21,"הרצל 30, בית שמש",הרצל 30,5208-74-22,דירה בבית קומות,5.0,שלישית,111.0,1894000,,,1970.0,2026.0,4.0,3667778580,1,520874,False,,בית שמש,הרצל,,5208-74-22,5208/74,17063.063063063062,31.7492682352,34.9924197417,2022
2022-09-21,2022-09-21,"בר-אילן 2, בית שמש",בר-אילן 2,5239-33-11,דירה בבית קומות,3.0,שניה,63.2,1700000,,,1990.0,,4.0,3667734810,1,523933,False,,בית שמש,בר אילן,,5239-33-11,5239/33,26898.73417721519,31.7422980459,34.992764191,2022
2022-09-21,2022-09-21,"הרצל 28, בית שמש",הרצל 28,5208-73-23,דירה בבית קומות,5.0,שלישית,111.0,1810000,,,1960.0,2025.0,4.0,3667768200,1,520873,False,,בית שמש,הרצל,,5208-73-23,5208/73,16306.306306306304,31.7493054561,34.9920530959,2022
2022-09-20,2022-09-20,"מרים הנביאה 21, בית שמש",מרים הנביאה 21,34518-31-21,דירה בבית קומות,4.0,קומה ‎1‏,90.6,1800000,,,2018.0,,7.0,3668092680,1,3451831,False,,בית שמש,מרים הנביאה,,34518-31-21,34518/31,19867.549668874173,31.7011571312,34.9937866436,2022
2022-09-20,2022-09-20,"הנורית 45, בית שמש",הנורית 45,5219-37-4,דירה בבית קומות,4.0,קרקע,71.2,1935000,,,1970.0,,1.0,3667369200,1,521937,False,109% ב 9.5 שנים,בית שמש,הנורית,11.47,5219-37-4,5219/37,27176.96629213483,31.7391764087,34.9769081321,2022
2022-09-20,2022-09-20,"הרצל 26, בית שמש",הרצל 26,5208-72-23,דירה בבית קומות,5.0,חמישית,111.0,1964000,,,1960.0,2026.0,4.0,3667713720,1,520872,False,,בית שמש,הרצל,,5208-72-23,5208/72,17693.693693693695,31.7494679403,34.9917056493,2022
2022-09-19,2022-09-19,"הרצל 30, בית שמש",הרצל 30,5208-74-23,דירה בבית קומות,5.0,ראשונה,111.0,1800000,,,1970.0,2026.0,4.0,3667612500,1,520874,False,,בית שמש,הרצל,,5208-74-23,5208/74,16216.216216216217,31.7492682352,34.9924197417,2022
2022-09-19,2022-09-19,"נחל הקישון 14, בית שמש",נחל הקישון 14,34278-24-21,דירה בבית קומות,5.0,קרקע + ראשונה,116.6,3300000,,,2000.0,,2.0,3667737000,1,3427824,False,91% ב 8.9 שנים,בית שמש,נחל הקישון,10.22,34278-24-21,34278/24,28301.88679245283,31.7174850805,34.9897334747,2022
2022-09-19,2022-09-19,"נחל לכיש 40, בית שמש",נחל לכיש 40,34274-13-43,דירה בבית קומות,5.0,ראשונה,109.8,2850000,,,2000.0,,5.0,3667609320,1,3427413,False,18% ב 1.1 שנים,בית שמש,נחל לכיש,16.36,34274-13-43,34274/13,25956.284153005465,31.7129454798,34.9937534389,2022
2022-09-19,2022-09-19,"הנרקיס 20, בית שמש",הנרקיס 20,5219-17-17,דירה בבית קומות,2.0,קרקע,54.0,539000,,,1970.0,,3.0,3667389270,1,521917,False,,בית שמש,הנרקיס,,5219-17-17,5219/17,9981.481481481482,31.7368324967,34.9781484592,2022
2022-09-19,2022-09-19,"אהבת ישראל 6, בית שמש",אהבת ישראל 6,5240-22-10,דירה בבית קומות,3.0,שלישית,61.6,1350000,,,1980.0,,7.0,3667313790,1,524022,False,,בית שמש,אהבת ישראל,,5240-22-10,5240/22,21915.584415584413,31.7425198304,34.9809722577,2022
2022-09-19,2022-09-19,"חיד""א 8, בית שמש","חיד""א 8",5934-20-83,דירה בבית קומות,6.0,ראשונה+שניה,173.75,2325000,,,2009.0,,6.0,3667552860,1,593420,False,114% ב 13.5 שנים,בית שמש,"חיד""א",8.44,5934-20-83,5934/20,13381.294964028775,31.7491465451,34.9992394854,2022
2022-09-19,2022-09-19,"הרצל 28, בית שמש",הרצל 28,5208-73-24,דירה בבית קומות,5.0,חמישית,111.0,1904000,,,1960.0,2025.0,4.0,3667611030,1,520873,False,,בית שמש,הרצל,,5208-73-24,5208/73,17153.153153153155,31.7493054561,34.9920530959,2022
2022-09-19,2022-09-19,"בן-אליעזר 16, בית שמש",בן-אליעזר 16,5240-56-17,דירה בבית קומות,3.0,רביעית,64.8,1600000,,,1980.0,,7.0,3667497930,1,524056,False,,בית שמש,בן אליעזר,,5240-56-17,5240/56,24691.35802469136,31.7404099497,34.9828247049,2022
2022-09-19,2022-09-19,"נחל שורק 31, בית שמש",נחל שורק 31,34278-37-29,דירה בבית קומות,3.0,שניה,82.58,1735000,,,2000.0,,4.0,3667312320,1,3427837,False,203% ב 15.8 שנים,בית שמש,נחל שורק,12.85,34278-37-29,34278/37,21009.92976507629,31.7144694701,34.9887319219,2022
2022-09-19,2022-09-19,"ירמיהו הנביא 20, בית שמש",ירמיהו הנביא 20,34357-4-26,דירה בבית קומות,5.0,שישית,95.0,2340000,,,2011.0,,5.0,3667855350,1,343574,False,159% ב 11 שנים,בית שמש,ירמיהו הנביא,14.45,34357-4-26,34357/4,24631.57894736842,31.7016818975,34.9842440431,2022
2022-09-15,2022-09-15,"מרים הנביאה 28, בית שמש",מרים הנביאה 28,34518-66-2,דירה בבית קומות,4.0,ראשונה,95.0,2660000,,,2018.0,,2.0,3667284090,1,3451866,False,,בית שמש,מרים הנביאה,,34518-66-2,34518/66,28000.0,31.702118558,34.9951601383,2022
2022-09-15,2022-09-15,"בן-עזאי 15, בית שמש",בן-עזאי 15,5943-28-55,דירה בבית קומות,3.0,שלישית,72.2,1800000,,,1980.0,,4.0,3668299350,1,594328,False,,בית שמש,בן עזאי,,5943-28-55,5943/28,24930.747922437677,31.7370923334,34.9986335269,2022
2022-09-14,2022-09-14,"רמב""ם 44, בית שמש","רמב""ם 44",5208-8-4,דירה בבית קומות,2.0,שניה,25.6,1325000,,,1970.0,,2.0,3667668690,1,52088,False,,בית שמש,"רמב""ם",,5208-8-4,5208/8,51757.8125,31.7515260038,34.9934468677,2022
2022-09-14,2022-09-14,"לוין אריה 1, בית שמש",לוין אריה 1,5239-9-11,דירה בבית קומות,4.0,שניה,90.43,1850000,,,1990.0,,3.0,3667251180,1,52399,False,,בית שמש,לוין אריה,,5239-9-11,5239/9,20457.812672785574,31.7424226074,34.9875282053,2022
2022-09-14,2022-09-14,"בן איש חי 67, בית שמש",בן איש חי 67,5934-19-42,דירה בבית קומות,3.0,חמישית,87.0,1840000,,,2012.0,,7.0,3667228890,1,593419,False,,בית שמש,בן איש חי,,5934-19-42,5934/19,21149.42528735632,31.7509836575,34.9988520653,2022
2022-09-14,2022-09-14,"נחל רביבים 14, בית שמש",נחל רביבים 14,34271-31-22,דירה בבית קומות,1.0,רביעית,84.6,750000,,,2000.0,,5.0,3668679270,1,3427131,False,,בית שמש,נחל רביבים,,34271-31-22,34271/31,8865.248226950354,31.7110749321,34.993599117,2022
2022-09-14,2022-09-14,"המעפילים 10, בית שמש",המעפילים 10,5210-87-25,דירה בבית קומות,3.0,קומה ‎6‏,54.1,1355000,,,1970.0,,7.0,3667292700,1,521087,False,276% ב 14.1 שנים,בית שמש,המעפילים,19.57,5210-87-25,5210/87,25046.210720887244,31.7507116921,34.9855608055,2022
2022-09-14,2022-09-14,"הגפן 24, בית שמש",הגפן 24,5213-120-4,דירה בבית קומות,3.0,שניה,67.6,1585000,,,1980.0,,4.0,3667409580,1,5213120,False,64% ב 1.9 שנים,בית שמש,הגפן,33.68,5213-120-4,5213/120,23446.745562130174,31.7464769113,34.9854220994,2022
2022-09-14,2022-09-14,"ירמיהו הנביא 32, בית שמש",ירמיהו הנביא 32,34357-15-19,,3.0,קרקע,74.0,1950000,,,2012.0,,4.0,3667262760,1,3435715,False,107% ב 10 שנים,בית שמש,ירמיהו הנביא,10.7,34357-15-19,34357/15,26351.35135135135,31.7025751195,34.9846108921,2022
2022-09-13,2022-09-13,"רפאל אלנקווה 13, בית שמש",רפאל אלנקווה 13,5213-114-16,דירה בבית קומות,4.0,רביעית,79.6,1600000,,,1970.0,,4.0,3667459320,1,5213114,False,84% ב 5.2 שנים,בית שמש,אלנקוה רפאל,16.15,5213-114-16,5213/114,20100.502512562816,31.7473301642,34.9862641487,2022
2022-09-13,2022-09-13,"מרים הנביאה 17, בית שמש",מרים הנביאה 17,34518-29-31,דירה בבית קומות,4.0,קומה ‎4‏,99.1,2220000,,,2017.0,,7.0,3667300890,1,3451829,False,,בית שמש,מרים הנביאה,,34518-29-31,34518/29,22401.614530776995,31.7014821576,34.9932798552,2022
2022-09-11,2022-11-09,"ריב""ל 9, בית שמש","ריב""ל 9",5940-17-56,דירה בבית קומות,4.0,קרקע,90.1,1800000,,,1996.0,,3.0,3668310450,1,594017,False,,בית שמש,"ריב""ל",,5940-17-56,5940/17,19977.80244173141,31.7237655035,34.9935808668,2022
2022-09-11,2022-11-09,"הברוש 12, בית שמש",הברוש 12,5218-74-2,דירה בבית קומות,7.0,ראשונה,286.0,3640000,,,1984.0,,1.0,3668368890,1,521874,False,,בית שמש,הברוש,,5218-74-2,5218/74,12727.272727272728,31.7421787215,34.979205198,2022
2022-09-08,2022-08-09,"הל""ה 22, בית שמש","הל""ה 22",5207-26-4,דירה בבית קומות,5.0,ראשונה,200.0,3750000,,,1992.0,,1.0,3666630390,1,520726,False,,בית שמש,"הל""ה",,5207-26-4,5207/26,18750.0,31.749028167,34.9966001242,2022
2022-09-08,2022-08-09,"האמוראים 19, ",האמוראים 19,34583-43-20,דירה בבית קומות,3.0,שלישית,79.0,1600000,,,2022.0,,5.0,3667057560,1,3458343,False,,בית שמש,האמוראים,,34583-43-20,34583/43,20253.164556962027,31.7062957379,34.97062227,2022
2022-09-08,2022-08-09,"נחל דולב 60, בית שמש",נחל דולב 60,34270-32-10,דירה בבית קומות,4.0,שלישית,96.15,2600000,,,1998.0,,4.0,3666649980,1,3427032,False,,בית שמש,נחל דולב,,34270-32-10,34270/32,27041.08164326573,31.7114944734,34.9997320231,2022
2022-09-08,2022-08-09,"נחל נחשון 14, בית שמש",נחל נחשון 14,34274-21-54,דירה בבית קומות,4.0,שניה,85.1,2020000,,,2002.0,,3.0,3666735600,1,3427421,False,65% ב 8.5 שנים,בית שמש,נחל נחשון,7.65,34274-21-54,34274/21,23736.78025851939,31.7143094418,34.993202879,2022
2022-09-08,2022-08-09,"בן איש חי 37, בית שמש",בן איש חי 37,5935-18-38,דירה בבית קומות,5.0,רביעית,120.0,2200000,,,2008.0,,6.0,3666270780,1,593518,False,,בית שמש,בן איש חי,,5935-18-38,5935/18,18333.33333333333,31.7469787939,35.0000903465,2022
2022-09-08,2022-08-09,"העלייה 5, בית שמש",העלייה 5,5203-10-80,דירה בבית קומות,5.0,קומה ‎6‏,126.49,2550000,,,2012.0,,15.0,3667017570,1,520310,False,70% ב 6 שנים,בית שמש,העליה,11.67,5203-10-80,5203/10,20159.696418689226,31.7557246239,34.9873893367,2022
2022-09-08,2022-08-09,"רבי יהודה צדקה 2, בית שמש",רבי יהודה צדקה 2,5935-22-70,דירה בבית קומות,3.0,ראשונה,80.0,1820000,,,2004.0,,7.0,3666271770,1,593522,False,,בית שמש,רבי צדקה יהודה,,5935-22-70,5935/22,22750.0,31.74448978,34.9986599105,2022
2022-09-06,2022-06-09,"נהר הירקון 24, בית שמש",נהר הירקון 24,34271-26-25,דירה בבית קומות,4.0,ראשונה,91.2,3100000,,,2000.0,,4.0,3664605630,1,3427126,False,60% ב 2.3 שנים,בית שמש,נהר הירקון,26.09,34271-26-25,34271/26,33991.228070175435,31.7085681981,34.9965530066,2022
2022-09-06,2022-06-09,"יהודה המכבי 15, בית שמש",יהודה המכבי 15,5211-155-13,דירה בבית קומות,3.0,שלישית,66.0,367000,,,1970.0,,4.0,3664607640,1,5211155,False,,בית שמש,יהודה המכבי,,5211-155-13,5211/155,5560.606060606061,31.7492380569,34.9829373953,2022
2022-09-05,2022-05-09,"הכלנית 9, בית שמש",הכלנית 9,5220-67-1,קוטג' חד משפחתי,8.0,ראשונה,814.0,6560000,,,1984.0,,1.0,3663873510,1,522067,False,,בית שמש,הכלנית,,5220-67-1,5220/67,8058.968058968059,31.7390497666,34.9804069431,2022
2022-09-05,2022-05-09,"ביאליק 7, בית שמש",ביאליק 7,5210-16-3,דירה בבית קומות,3.0,שלישית,45.4,1300000,,,1960.0,,3.0,3663900480,1,521016,False,36% ב 3.6 שנים,בית שמש,ביאליק,10.0,5210-16-3,5210/16,28634.361233480176,31.7519707364,34.9846590266,2022
2022-09-05,2022-05-09,"חזון איש 28, בית שמש",חזון איש 28,5380-33-14,דירה בבית קומות,5.0,רביעית,100.1,3500000,,,1995.0,,4.0,3663816840,1,538033,False,37% ב 7 שנים,בית שמש,חזון איש,5.29,5380-33-14,5380/33,34965.03496503497,31.7378122893,34.9933526369,2022
2022-09-05,2022-05-09,"גד 5, בית שמש",גד 5,5546-78-4,דירה בבית קומות,5.0,"קומה ‎2‏, קומה ‎3‏",115.9,2300000,,,2001.0,,2.0,3663850980,1,554678,False,100% ב 8.5 שנים,בית שמש,גד,11.76,5546-78-4,5546/78,19844.693701466786,31.7381713977,34.9915484941,2022
2022-09-05,2022-05-09,"רבי נחוניה 8, בית שמש",רבי נחוניה 8,5152-16-43,דירה בבית קומות,4.0,מרתף ראשון,98.4,2430000,,,2001.0,,3.0,3663708690,1,515216,False,51% ב 3.9 שנים,בית שמש,תכלת מרדכי,13.08,5152-16-43,5152/16,24695.12195121951,31.7334488021,34.9896877636,2022
2022-09-03,2022-03-09,"נחל דולב 66, בית שמש",נחל דולב 66,34269-12-64,,2.0,,51.0,1150000,1.0,הרמוני,2018.0,,6.0,11181217893,1,3426912,False,,בית שמש,נחל דולב,,34269-12-64,34269/12,22549.019607843136,31.7126929757,34.9998540068,2022
2022-09-03,2022-03-09,"נריה הנביא 11, בית שמש",נריה הנביא 11,34356-6-109,דירה בבית קומות,3.0,חמישית,74.8,1615000,,,2014.0,,7.0,3662511300,1,343566,False,111% ב 8 שנים,בית שמש,נריה הנביא,13.88,34356-6-109,34356/6,21590.90909090909,31.7044601028,34.9783921642,2022
2022-09-03,2022-03-09,"האיריס 16, בית שמש",האיריס 16,5220-72-23,דירה בבית קומות,4.0,ראשונה,67.0,1270000,,,1970.0,,2.0,3662168490,1,522072,False,193% ב 19 שנים,בית שמש,האיריס,10.16,5220-72-23,5220/72,18955.223880597016,31.7401136065,34.980900424,2022
2022-09-03,2022-03-09,"מצפה הרש""פ 4, בית שמש","מצפה הרש""פ 4",5152-17-9,דירה בבית קומות,3.0,שניה,82.0,1950000,,,2003.0,,5.0,3662090070,1,515217,False,,בית שמש,"מצפה הרש""פ",,5152-17-9,5152/17,23780.48780487805,31.7300239413,34.9936989793,2022
2022-09-03,2022-03-09,"חבקוק הנביא 33, בית שמש",חבקוק הנביא 33,34355-114-11,דירה בבית קומות,4.0,שלישית,112.0,1900000,,,2012.0,,1.0,3662303910,1,34355114,False,,בית שמש,חבקוק הנביא,,34355-114-11,34355/114,16964.285714285714,31.7088768899,34.9809811523,2022
2022-09-03,2022-03-09,"העונות 7, ",העונות 7,34574-11-32,דירה בבית קומות,4.0,,105.0,2355000,,,2020.0,,8.0,3662196720,1,3457411,False,,בית שמש,העונות,,34574-11-32,34574/11,22428.571428571428,31.7022174347,35.0063147086,2022
2022-09-02,2022-02-09,"נחל עין גדי 22, בית שמש",נחל עין גדי 22,34277-8-20,דירה בבית קומות,5.0,שניה,140.55,2380000,,,1998.0,,2.0,3661345560,1,342778,False,72% ב 8.7 שנים,בית שמש,נחל עין גדי,8.28,34277-8-20,34277/8,16933.475631447884,31.7161099274,34.9826349253,2022
2022-09-02,2022-02-09,"מרים הנביאה 18, בית שמש",מרים הנביאה 18,34517-21-21,דירה בבית קומות,3.0,רביעית,78.0,1610000,,,2017.0,,3.0,3661234440,1,3451721,False,,בית שמש,מרים הנביאה,,34517-21-21,34517/21,20641.02564102564,31.7007219471,34.9936714816,2022
2022-09-02,2022-02-09,"הרצל 22, בית שמש",הרצל 22,5209-94-36,דירה בבית קומות,3.0,רביעית,44.5,1190000,,,1960.0,,3.0,3661147050,1,520994,False,28% ב 4 שנים,בית שמש,הרצל,7.0,5209-94-36,5209/94,26741.573033707864,31.7496594762,34.9908292548,2022
2022-09-02,2022-02-09,"השלושה 5, ",השלושה 5,34574-22-32,דירה בבית קומות,4.0,שמינית,107.0,2400000,,,2020.0,,10.0,3661143060,1,3457422,False,,בית שמש,כסליו,,34574-22-32,34574/22,22429.90654205608,31.7027149905,35.004605672,2022
2022-09-02,2022-02-09,"אריה לוין 8, בית שמש",אריה לוין 8,5239-11-5,דירה בבית קומות,4.0,ראשונה,78.0,1750000,,,1991.0,,4.0,3661337130,1,523911,False,118% ב 10 שנים,בית שמש,לוין אריה,11.8,5239-11-5,5239/11,22435.89743589744,31.7421523508,34.9880744155,2022
2022-09-02,2022-02-09,"משה רבנו 5, בית שמש",משה רבנו 5,34356-23-10,דירה בבית קומות,5.0,רביעית,111.3,2220000,,,2015.0,,8.0,3661223070,1,3435623,False,,בית שמש,משה רבנו,,34356-23-10,34356/23,19946.09164420485,31.7037621563,34.9824594625,2022
2022-09-02,2022-02-09,"בן-אליעזר 16, בית שמש",בן-אליעזר 16,5240-56-29,דירה בבית קומות,3.0,שביעית,64.8,1170000,,,1980.0,2016.0,7.0,3662090310,1,524056,False,41% ב 6 שנים,בית שמש,בן אליעזר,6.83,5240-56-29,5240/56,18055.555555555555,31.7404099497,34.9828247049,2022
2022-09-01,2022-01-09,"שפת אמת 2, בית שמש",שפת אמת 2,5381-5-3,ללא תיכנון,,,,32500000,,,1992.0,,2.0,3691645500,1,53815,False,,בית שמש,שפת אמת,,5381-5-3,5381/5,,31.7415721405,34.9949582877,2022
2022-09-01,2022-01-09,"העונות 9, ",העונות 9,34574-12-9,,3.0,שלישית,90.0,1037728,1.0,,2022.0,,5.0,11181219354,1,3457412,False,,בית שמש,העונות,,34574-12-9,34574/12,11530.31111111111,31.7018716598,35.0063516135,2022
2022-09-01,2022-01-09,"רבנו חיים הלוי 1, בית שמש",רבנו חיים הלוי 1,5381-19-5,דירה בבית קומות,4.0,ראשונה,117.0,1990000,,,1992.0,,2.0,3660230070,1,538119,False,,בית שמש,רבנו חיים הלוי,,5381-19-5,5381/19,17008.547008547008,31.7411923488,34.9962860312,2022
2022-09-01,2022-01-09,"קרן היסוד 9, בית שמש",קרן היסוד 9,5208-159-5,דירה בבית קומות,3.0,שניה,52.0,1195000,,,1970.0,,2.0,3660279810,1,5208159,False,14% ב 1.5 שנים,בית שמש,קרן היסוד,9.33,5208-159-5,5208/159,22980.76923076923,31.7497519987,34.9918797335,2022
2022-09-01,2022-01-09,"ריב""ל 3, בית שמש","ריב""ל 3",5940-17-37,דירה בבית קומות,4.0,רביעית,92.7,1600000,,,1990.0,,6.0,3660527790,1,594017,False,,בית שמש,"ריב""ל",,5940-17-37,5940/17,17259.97842502697,31.7237655035,34.9935808668,2022
2022-08-31,2022-08-31,,,34355-8-1,קרקע למגורים,,,450.0,3500000,,,,,,3667403880,2,343558,False,,בית שמש,חבקוק הנביא,,34355-8-1,34355/8,7777.777777777777,31.7069721364,34.9836821241,2022
2022-08-31,2022-08-31,,,34355-9-1,קרקע למגורים,,,450.0,3500000,,,,,,3667406610,2,343559,False,,בית שמש,חבקוק הנביא,,34355-9-1,34355/9,7777.777777777777,31.7071221762,34.9837546043,2022
2022-08-30,2022-08-30,"בן איש חי 34, בית שמש",בן איש חי 34,5935-19-45,דירה בבית קומות,4.0,קומה ‎0‏,98.61,2440000,,,2010.0,,8.0,3666956910,1,593519,False,,בית שמש,בן איש חי,,5935-19-45,5935/19,24743.940776797484,31.7470632432,35.0009993894,2022
2022-08-30,2022-08-30,"תאשור 7, בית שמש",תאשור 7,5217-98-2,קוטג' דו משפחתי,4.0,קרקע,105.3,200000,,,1988.0,,1.0,3667553100,1,521798,False,,בית שמש,תאשור,,5217-98-2,5217/98,1899.335232668566,31.7433805853,34.977487954,2022
2022-08-30,2022-08-30,"נחל הקישון 19, בית שמש",נחל הקישון 19,34274-20-14,דירה בבית קומות,3.0,שלישית,74.06,1980000,,,2000.0,,4.0,3666876660,1,3427420,False,,בית שמש,נחל הקישון,,34274-20-14,34274/20,26735.07966513637,31.7151571289,34.9899367345,2022
2022-08-30,2022-08-30,"בן איש חי 38, בית שמש",בן איש חי 38,5935-19-96,דירה בבית קומות,4.0,קומה ‎3‏,83.44,2350000,,,2008.0,,7.0,3666842010,1,593519,False,,בית שמש,בן איש חי,,5935-19-96,5935/19,28163.95014381592,31.7470632432,35.0009993894,2022
2022-08-30,2022-08-30,"בן איש חי 9, בית שמש",בן איש חי 9,5935-22-71,דירה בבית קומות,3.0,ראשונה,95.0,1890000,,,2004.0,,7.0,3667472670,1,593522,False,,בית שמש,בן איש חי,,5935-22-71,5935/22,19894.736842105263,31.74448978,34.9986599105,2022
2022-08-30,2022-08-30,"תאשור 7, בית שמש",תאשור 7,5217-98-3,קוטג' דו משפחתי,3.0,ראשונה,54.1,750000,,,1988.0,,1.0,3667556370,1,521798,False,,בית שמש,תאשור,,5217-98-3,5217/98,13863.216266173751,31.7433805853,34.977487954,2022
2022-08-29,2022-08-29,"רבי טרפון 7, בית שמש",רבי טרפון 7,5941-7-25,דירה בבית קומות,3.0,רביעית,70.1,2200000,,,1999.0,,4.0,3692133300,1,59417,False,,בית שמש,רבי טרפון,,5941-7-25,5941/7,31383.737517831672,31.7249229475,34.9954949255,2022
2022-08-28,2022-08-28,"בן איש חי 31, בית שמש",בן איש חי 31,5935-18-39,דירה בבית קומות,3.0,רביעית,70.0,1800000,,,2008.0,,6.0,3667225470,1,593518,False,,בית שמש,בן איש חי,,5935-18-39,5935/18,25714.285714285717,31.7469787939,35.0000903465,2022
2022-08-28,2022-08-28,"יגאל ידין 3, בית שמש",יגאל ידין 3,5240-45-10,דירה בבית קומות,4.0,שניה,88.6,1750000,,,1991.0,,3.0,3666739560,1,524045,False,94% ב 7.9 שנים,בית שמש,ידין יגאל,11.9,5240-45-10,5240/45,19751.693002257336,31.7428388002,34.9848467347,2022
2022-08-25,2022-08-25,"רשב""ג 1, בית שמש","רשב""ג 1",5942-11-20,דירה בבית קומות,5.0,קרקע,116.5,3100000,,,1993.0,,3.0,3667036110,1,594211,False,,בית שמש,"רשב""ג",,5942-11-20,5942/11,26609.44206008584,31.7289199158,34.9911143037,2022
2022-08-25,2022-08-25,"חבקוק הנביא 2, בית שמש",חבקוק הנביא 2,34357-5-25,דירה בבית קומות,3.0,שלישית,82.85,1850000,,,2013.0,,4.0,3666662340,1,343575,False,174% ב 9.7 שנים,בית שמש,חבקוק הנביא,17.94,34357-5-25,34357/5,22329.511164755582,31.7050527476,34.9834724662,2022
2022-08-24,2022-08-24,"יהודה המכבי 15, בית שמש",יהודה המכבי 15,5211-155-14,דירה בבית קומות,3.0,שלישית,66.0,380000,,,1970.0,,4.0,3666720990,1,5211155,False,,בית שמש,יהודה המכבי,,5211-155-14,5211/155,5757.575757575758,31.7492380569,34.9829373953,2022
2022-08-24,2022-08-24,"נחל הקישון 13, בית שמש",נחל הקישון 13,34276-19-10,דירה בבית קומות,3.0,שניה,73.15,3270000,,,2002.0,,4.0,3666974970,1,3427619,False,136% ב 7 שנים,בית שמש,נחל הקישון,19.43,34276-19-10,34276/19,44702.66575529733,31.7163392127,34.9903359819,2022
2022-08-23,2022-08-23,"רש""י 11, בית שמש","רש""י 11",5545-5-8,דירה בבית קומות,3.0,ראשונה,100.0,1720000,,,1993.0,,4.0,3666601470,1,55455,False,,בית שמש,"רש""י",,5545-5-8,5545/5,17200.0,31.7409102268,34.9884805093,2022
2022-08-23,2022-08-23,"בן-אליעזר 2, בית שמש",בן-אליעזר 2,5240-52-18,דירה בבית קומות,3.5,רביעית,64.8,1460000,,,1980.0,,7.0,3666997710,1,524052,False,119% ב 8.2 שנים,בית שמש,בן אליעזר,14.51,5240-52-18,5240/52,22530.864197530864,31.741865293,34.9837844478,2022
2022-08-22,2022-08-22,"נריה הנביא 5, בית שמש",נריה הנביא 5,34356-6-35,דירה בבית קומות,3.0,קרקע,66.6,1450000,,,2014.0,,6.0,3667417950,1,343566,False,102% ב 8.3 שנים,בית שמש,נריה הנביא,12.29,34356-6-35,34356/6,21771.77177177177,31.7044601028,34.9783921642,2022
2022-08-21,2022-08-21,"האמוראים 43, ",האמוראים 43,34281-384-41,דירה בבית קומות,3.0,רביעית,76.0,1775000,,,2020.0,,7.0,3667413510,1,34281384,False,,בית שמש,האמוראים,,34281-384-41,34281/384,23355.263157894737,31.7025491182,34.9672639746,2022
2022-08-18,2022-08-18,"רמב""ם 68, בית שמש","רמב""ם 68",5208-19-3,דירה בבית קומות,2.0,שניה,25.6,1377000,,,1960.0,,2.0,3667165050,1,520819,False,57% ב 5 שנים,בית שמש,"רמב""ם",11.4,5208-19-3,5208/19,53789.0625,31.7497512636,34.9957368145,2022
2022-08-18,2022-08-18,"הרצל 31, בית שמש",הרצל 31,5208-82-24,דירה בבית קומות,3.0,חמישית,44.75,1000000,,,1960.0,,4.0,3666491790,1,520882,False,,בית שמש,הרצל,,5208-82-24,5208/82,22346.3687150838,31.7487854647,34.9915660917,2022
2022-08-17,2022-08-17,"רבי נחוניה 4, בית שמש",רבי נחוניה 4,5152-16-3,דירה בבית קומות,4.5,מרתף ראשון,98.4,1900000,,,2002.0,,3.0,3667327620,1,515216,False,185% ב 19.3 שנים,בית שמש,תכלת מרדכי,9.59,5152-16-3,5152/16,19308.943089430893,31.7334488021,34.9896877636,2022
2022-08-17,2022-08-17,"הנרקיס 34, בית שמש",הנרקיס 34,5219-21-17,דירה בבית קומות,3.0,שניה,93.0,1190000,,,1970.0,,3.0,3666754410,1,521921,False,,בית שמש,הנרקיס,,5219-21-17,5219/21,12795.698924731185,31.7366261628,34.9792956462,2022
2022-08-17,2022-08-17,"שפת אמת 13, בית שמש",שפת אמת 13,5381-18-2,דירה בבית קומות,4.0,רביעית,91.0,3400000,,,1992.0,,2.0,3666439140,1,538118,False,,בית שמש,שפת אמת,,5381-18-2,5381/18,37362.63736263736,31.7404418947,34.9960504803,2022
2022-08-16,2022-08-16,"בר-אילן 7, בית שמש",בר-אילן 7,5239-37-21,דירה בבית קומות,3.0,שלישית,62.8,1740000,,,1992.0,,3.0,3666405930,1,523937,False,,בית שמש,בר אילן,,5239-37-21,5239/37,27707.006369426752,31.741370095,34.989855538,2022
2022-08-16,2022-08-16,"יואל הנביא 26, בית שמש",יואל הנביא 26,34355-84-25,דירה בבית קומות,5.0,שניה,105.75,2490000,,,2013.0,,5.0,3666584880,1,3435584,False,101% ב 8.7 שנים,בית שמש,יואל הנביא,11.61,34355-84-25,34355/84,23546.09929078014,31.7055436939,34.9790670686,2022
2022-08-16,2022-08-16,"רבי יוסי בן-קיסמא 9, בית שמש",רבי יוסי בן-קיסמא 9,5943-45-4,דירה בבית קומות,4.0,ראשונה,83.2,2200000,,,2003.0,,4.0,3666843750,1,594345,False,,בית שמש,רבי יוסי בן קיסמא,,5943-45-4,5943/45,26442.30769230769,31.7357035791,34.9978739037,2022
2022-08-15,2022-08-15,"נחל עין גדי 34, בית שמש",נחל עין גדי 34,34279-72-16,דירה בבית קומות,4.0,חמישית,93.25,2450000,,,2007.0,,5.0,3666657180,1,3427972,False,127% ב 12.9 שנים,בית שמש,נחל עין גדי,9.84,34279-72-16,34279/72,26273.45844504021,31.7143130822,34.9828564343,2022
2022-08-15,2022-08-15,"הגולן 7, בית שמש",הגולן 7,5216-6-7,דירה בבית קומות,4.0,קרקע,81.2,2155000,,,1995.0,,2.0,3666721230,1,52166,False,,בית שמש,הגולן,,5216-6-7,5216/6,26539.408866995072,31.7438625269,34.9927094614,2022
2022-08-14,2022-08-14,"משה רבנו 9, בית שמש",משה רבנו 9,34356-23-26,מחסנים,,שניה,111.0,2500000,,,2016.0,,8.0,3667147470,1,3435623,False,43% ב 2 שנים,בית שמש,משה רבנו,21.5,34356-23-26,34356/23,22522.52252252252,31.7037621563,34.9824594625,2022
2022-08-14,2022-08-14,"העונות 5, ",העונות 5,34574-10-24,דירה בבית קומות,3.0,רביעית,87.0,2170000,,,2020.0,,7.0,3666428430,1,3457410,False,,בית שמש,העונות,,34574-10-24,34574/10,24942.528735632182,31.7025632095,35.0062778034,2022
2022-08-12,2022-12-08,"בר-אילן 3, בית שמש",בר-אילן 3,5239-35-20,דירה בבית קומות,3.0,שלישית,63.2,1800000,,,1991.0,,3.0,3668891610,1,523935,False,,בית שמש,בר אילן,,5239-35-20,5239/35,28481.012658227846,31.7414380949,34.9914064165,2022
2022-08-12,2022-12-08,"ברכת אברהם 2, בית שמש",ברכת אברהם 2,5379-34-7,דירה בבית קומות,3.0,שלישית,71.0,2300000,,,1990.0,,3.0,3668941350,1,537934,False,,בית שמש,ברכת אברהם,,5379-34-7,5379/34,32394.3661971831,31.7389349131,34.9931131204,2022
2022-08-12,2022-12-08,"מרים הנביאה 22, בית שמש",מרים הנביאה 22,34518-13-25,דירה בבית קומות,3.0,רביעית,74.0,2085000,,,2020.0,,5.0,3669162300,1,3451813,False,,בית שמש,מרים הנביאה,,34518-13-25,34518/13,28175.67567567568,31.7009577293,34.9946936961,2022
2022-08-12,2022-12-08,"הרצל 35, בית שמש",הרצל 35,5208-80-14,דירה בבית קומות,3.0,רביעית,44.75,1410000,,,1960.0,,4.0,3669017790,1,520880,False,118% ב 8.5 שנים,בית שמש,הרצל,13.88,5208-80-14,5208/80,31508.379888268155,31.7489691545,34.9931912535,2022
2022-08-11,2022-11-08,"האמוראים 92, ",האמוראים 92,34281-310-18,דירה בבית קומות,3.0,שניה,77.0,1917000,,,2020.0,,4.0,3668830980,1,34281310,False,,בית שמש,האמוראים,,34281-310-18,34281/310,24896.103896103898,31.6999442031,34.9748164122,2022
2022-08-11,2022-11-08,"יצחק רבין 22, בית שמש",יצחק רבין 22,5232-15-16,דירה בבית קומות,4.0,ראשונה,85.7,1800000,,,1995.0,,3.0,3668320140,1,523215,False,56% ב 2 שנים,בית שמש,רבין יצחק,28.0,5232-15-16,5232/15,21003.50058343057,31.744417244,34.9933906462,2022
2022-08-09,2022-09-08,"המעפילים 9, בית שמש",המעפילים 9,5210-63-11,דירה בבית קומות,3.0,שלישית,46.8,1415000,,,1960.0,,3.0,3667010850,1,521063,False,49% ב 2.9 שנים,בית שמש,המעפילים,16.9,5210-63-11,5210/63,30235.042735042734,31.7504891943,34.9866243024,2022
2022-08-09,2022-09-08,"הרצל 26, בית שמש",הרצל 26,5208-72-25,דירה בבית קומות,5.0,רביעית,111.0,1810000,,,1960.0,2026.0,4.0,3667231110,1,520872,False,,בית שמש,הרצל,,5208-72-25,5208/72,16306.306306306304,31.7494679403,34.9917056493,2022
2022-08-09,2022-09-08,"מרים הנביאה 20, בית שמש",מרים הנביאה 20,34517-23-3,דירה בבית קומות,3.0,שניה,85.0,2000000,,,2020.0,,5.0,3667076160,1,3451723,False,,בית שמש,מרים הנביאה,,34517-23-3,34517/23,23529.41176470588,31.7007523169,34.9942674283,2022
2022-08-09,2022-09-08,"נחל עין גדי 25, בית שמש",נחל עין גדי 25,34277-7-29,מחסנים,,שניה,112.55,234000,,,1995.0,,2.0,3667656810,1,342777,False,112% ב 7.1 שנים,בית שמש,נחל עין גדי,15.77,34277-7-29,34277/7,2079.075966237228,31.7156473317,34.9820971004,2022
2022-08-09,2022-09-08,"בן איש חי 40, בית שמש",בן איש חי 40,5935-19-123,דירה בבית קומות,3.0,קומה ‎4‏,67.08,1800000,,,2009.0,,8.0,3667222200,1,593519,False,190% ב 13.4 שנים,בית שמש,בן איש חי,14.18,5935-19-123,5935/19,26833.63148479428,31.7470632432,35.0009993894,2022
2022-08-08,2022-08-08,"בן איש חי 61, בית שמש",בן איש חי 61,5934-19-41,דירה בבית קומות,3.0,ראשונה,82.0,1875000,,,2012.0,,7.0,3666263880,1,593419,False,,בית שמש,בן איש חי,,5934-19-41,5934/19,22865.853658536584,31.7509836575,34.9988520653,2022
2022-08-08,2022-08-08,"בן איש חי 20, בית שמש",בן איש חי 20,5935-20-10,דירה בבית קומות,4.0,,104.0,2030000,,,2008.0,,3.0,3666488820,1,593520,False,,בית שמש,בן איש חי,,5935-20-10,5935/20,19519.23076923077,31.7453733352,34.9999734692,2022
2022-08-08,2022-08-08,"נחל דולב 11, בית שמש",נחל דולב 11,34272-6-6,דירה בבית קומות,4.0,ראשונה,92.36,2880000,,,1999.0,,2.0,3666444060,1,342726,False,63% ב 4 שנים,בית שמש,נחל דולב,15.75,34272-6-6,34272/6,31182.33001299264,31.7153525319,34.997757033,2022
2022-08-08,2022-08-08,"נחל עין גדי 47, בית שמש",נחל עין גדי 47,34279-67-3,דירה בבית קומות,8.0,"קרקע, ראשונה, שניה, שלישית",233.15,4000000,,,2007.0,,,3666235650,1,3427967,False,,בית שמש,נחל עין גדי,,34279-67-3,34279/67,17156.337122024448,31.7142886401,34.9858037122,2022
2022-08-08,2022-08-08,"יהודה המכבי 9, בית שמש",יהודה המכבי 9,5211-158-10,דירה בבית קומות,3.0,ראשונה,66.0,228000,,,1970.0,,4.0,3666488340,1,5211158,False,,בית שמש,יהודה המכבי,,5211-158-10,5211/158,3454.5454545454545,31.7488926356,34.9818793098,2022
2022-08-06,2022-06-08,"רש""י 5, בית שמש","רש""י 5",5546-2-4,דירה בבית קומות,4.0,שניה,123.0,1750000,,,1994.0,,2.0,3664512300,1,55462,False,,בית שמש,"רש""י",,5546-2-4,5546/2,14227.642276422765,31.7407147708,34.9899752442,2022
2022-08-06,2022-06-08,"בר-אילן 6, בית שמש",בר-אילן 6,5239-30-19,דירה בבית קומות,2.0,חמישית,45.6,1380000,,,1993.0,,6.0,3665073390,1,523930,False,54% ב 4 שנים,בית שמש,בר אילן,13.5,5239-30-19,5239/30,30263.15789473684,31.7420162876,34.9916869179,2022
2022-08-06,2022-06-08,"היצירה 1, בית שמש",היצירה 1,5084-5-7,משרד,,,2453.0,25641000,,,1996.0,,1.0,3665627820,1,50845,False,,בית שמש,היצירה,,5084-5-7,5084/5,10452.91479820628,31.7336726713,34.9566889571,2022
2022-08-06,2022-06-08,"העונות 16, ",העונות 16,34574-30-2,דירה בבית קומות,4.0,שלישית,100.0,2080000,,,2022.0,,1.0,3664821480,1,3457430,False,,בית שמש,העונות,,34574-30-2,34574/30,20800.0,31.6998642202,35.0058087113,2022
2022-08-05,2022-05-08,"נחל רביבים 23, בית שמש",נחל רביבים 23,34271-30-36,דירה בבית קומות,4.0,שניה,90.0,1905000,,,1998.0,,4.0,3663680220,1,3427130,False,292% ב 23.9 שנים,בית שמש,נחל רביבים,12.22,34271-30-36,34271/30,21166.666666666668,31.7100185661,34.992601298,2022
2022-08-03,2022-03-08,"רבי צדוק 7, בית שמש",רבי צדוק 7,5941-5-23,דירה בבית קומות,3.0,שניה,72.4,1400000,,,1997.0,,2.0,3661994010,1,59415,False,8% ב 4.7 שנים,בית שמש,רבי צדוק,1.7,5941-5-23,5941/5,19337.016574585632,31.7232695296,34.9954984501,2022
2022-08-03,2022-03-08,"מרים הנביאה 17, בית שמש",מרים הנביאה 17,34518-29-8,דירה בבית קומות,3.0,קומה ‎3‏,90.4,2000000,,,2017.0,,7.0,3662163570,1,3451829,False,,בית שמש,מרים הנביאה,,34518-29-8,34518/29,22123.893805309734,31.7014821576,34.9932798552,2022
2022-08-03,2022-03-08,"העונות 3, ",העונות 3,34574-9-28,דירה בבית קומות,4.0,שביעית,129.0,2699000,,,2020.0,,8.0,3662364570,1,345749,False,,בית שמש,העונות,,34574-9-28,34574/9,20922.48062015504,31.7029172642,35.0062333917,2022
2022-08-03,2022-03-08,"נהר הירקון 11, בית שמש",נהר הירקון 11,34294-117-7,קוטג' דו משפחתי,6.0,"קומה ‎1‏, קומה ‎2‏, קומה ‎3‏, קומה ‎4‏",232.28,4200000,,,2017.0,,2.0,3662847930,1,34294117,False,,בית שמש,נהר הירקון,,34294-117-7,34294/117,18081.6256242466,31.7081553965,34.9939072597,2022
2022-08-03,2022-03-08,"דוד רזיאל 16, בית שמש",דוד רזיאל 16,5240-30-7,דירה בבית קומות,4.0,שלישית,77.9,1450000,,,1990.0,,3.0,3661986060,1,524030,False,20% ב 3 שנים,בית שמש,רזיאל דוד,6.67,5240-30-7,5240/30,18613.607188703463,31.7423513093,34.9838624923,2022
2022-08-02,2022-02-08,"יקותיאל אדם 1, בית שמש",יקותיאל אדם 1,5239-17-16,דירה בבית קומות,3.0,שלישית,62.9,1400000,,,1990.0,,3.0,3661143840,1,523917,False,,בית שמש,אדם יקותיאל,,5239-17-16,5239/17,22257.551669316377,31.7421326332,34.9890741961,2022
2022-08-02,2022-02-08,"העונות 3, ",העונות 3,34574-9-27,דירה בבית קומות,4.0,שביעית,107.0,2295000,,,2020.0,,8.0,3661238880,1,345749,False,,בית שמש,העונות,,34574-9-27,34574/9,21448.59813084112,31.7029172642,35.0062333917,2022
2022-08-02,2022-02-08,"חגי הנביא 1, בית שמש",חגי הנביא 1,34356-12-8,דירה בבית קומות,5.0,רביעית,99.4,2060000,,,2012.0,,5.0,3661886880,1,3435612,False,73% ב 8.1 שנים,בית שמש,חגי הנביא,9.01,34356-12-8,34356/12,20724.34607645875,31.702868043,34.9822321797,2022
2022-08-02,2022-02-08,"מרים הנביאה 20, בית שמש",מרים הנביאה 20,34517-23-1,דירה בבית קומות,3.0,שביעית,73.0,1600000,,,2020.0,,5.0,3661092870,1,3451723,False,,בית שמש,מרים הנביאה,,34517-23-1,34517/23,21917.80821917808,31.7007523169,34.9942674283,2022
2022-08-02,2022-02-08,"נחל לכיש 13, בית שמש",נחל לכיש 13,34274-17-70,דירה בבית קומות,4.0,שניה,83.3,1800000,,,2002.0,,7.0,3661326990,1,3427417,False,,בית שמש,נחל לכיש,,34274-17-70,34274/17,21608.643457382957,31.714421942,34.9925932314,2022
2022-08-02,2022-02-08,"בר-אילן 5, בית שמש",בר-אילן 5,5239-36-18,,3.0,שניה,63.2,1570000,,,1990.0,,3.0,3661534410,1,523936,False,,בית שמש,בר אילן,,5239-36-18,5239/36,24841.77215189873,31.7413046048,34.9906724483,2022
2022-08-02,2022-02-08,"נחל מיכה 17, בית שמש",נחל מיכה 17,34276-13-46,דירה בבית קומות,4.0,רביעית,98.2,2100000,,,2000.0,,4.0,3661499520,1,3427613,False,147% ב 12.5 שנים,בית שמש,נחל מיכה,11.76,34276-13-46,34276/13,21384.92871690428,31.7180830158,34.9933578246,2022
2022-08-02,2022-02-08,"העונות 5, ",העונות 5,34574-10-22,דירה בבית קומות,5.0,שלישית,119.0,2650000,,,2020.0,,7.0,3661426230,1,3457410,False,,בית שמש,העונות,,34574-10-22,34574/10,22268.90756302521,31.7025632095,35.0062778034,2022
2022-07-29,2022-07-29,"העונות 19, ",העונות 19,34574-87-59,דירה בבית קומות,5.0,שביעית,,2650000,,,2020.0,,7.0,3666968250,1,3457487,False,,בית שמש,העונות,,34574-87-59,34574/87,,31.7000154758,35.0065502338,2022
2022-07-28,2022-07-28,"נחל דולב 28, בית שמש",נחל דולב 28,34273-38-28,דירה בבית קומות,5.0,ראשונה,150.0,3500000,,,1999.0,,4.0,3666303210,1,3427338,False,175% ב 12.4 שנים,בית שמש,נחל דולב,14.11,34273-38-28,34273/38,23333.33333333333,31.7138363278,34.9970590693,2022
2022-07-28,2022-07-28,"העונות 19, ",העונות 19,34574-87-60,דירה בבית קומות,5.0,שביעית,,2850000,,,2020.0,,7.0,3666936300,1,3457487,False,,בית שמש,העונות,,34574-87-60,34574/87,,31.7000154758,35.0065502338,2022
2022-07-28,2022-07-28,"רבן יוחנן בן-זכאי 10, בית שמש",רבן יוחנן בן-זכאי 10,5940-16-24,דירה בבית קומות,7.0,ראשונה,89.0,2750000,,,2000.0,,4.0,3690900990,1,594016,False,,בית שמש,רבן יוחנן בן זכאי,,5940-16-24,5940/16,30898.876404494385,31.723402886,34.9926924729,2022
2022-07-28,2022-07-28,"החלוצים 26, בית שמש",החלוצים 26,5204-88-10,דירה בבית קומות,6.0,ראשונה,83.0,2800000,,,1993.0,,1.0,3666629190,1,520488,False,,בית שמש,החלוצים,,5204-88-10,5204/88,33734.93975903615,31.7535775103,34.9903800846,2022
2022-07-28,2022-07-28,"האצ""ל 5, בית שמש","האצ""ל 5",5201-43-5,דירה בבית קומות,4.0,ראשונה,82.0,1800000,,,1960.0,,2.0,3666008940,1,520143,False,24% ב 3.2 שנים,בית שמש,"האצ""ל",7.5,5201-43-5,5201/43,21951.219512195123,31.7513375858,34.9820770124,2022
2022-07-27,2022-07-27,"בן איש חי 61, בית שמש",בן איש חי 61,5934-19-40,דירה בבית קומות,4.0,שניה,96.0,1900000,,,2012.0,,7.0,3666004200,1,593419,False,,בית שמש,בן איש חי,,5934-19-40,5934/19,19791.666666666668,31.7509836575,34.9988520653,2022
2022-07-27,2022-07-27,"נחל הקישון 11, בית שמש",נחל הקישון 11,34276-18-33,ללא תיכנון,4.0,שניה,81.0,1812000,,,2000.0,,5.0,3665985240,1,3427618,False,,בית שמש,נחל הקישון,,34276-18-33,34276/18,22370.37037037037,31.7176322999,34.9905807229,2022
2022-07-27,2022-07-27,"נחל דולב 50, בית שמש",נחל דולב 50,34270-30-2,דירה בבית קומות,5.0,קרקע,129.6,3390000,,,1998.0,,4.0,3666058200,1,3427030,False,171% ב 12.4 שנים,בית שמש,נחל דולב,13.79,34270-30-2,34270/30,26157.40740740741,31.7101500901,34.9988279583,2022
2022-07-27,2022-07-27,"רפאל אלנקווה 3, בית שמש",רפאל אלנקווה 3,5213-122-16,דירה בבית קומות,3.0,רביעית,54.8,1290000,,,1970.0,,4.0,3666635850,1,5213122,False,,בית שמש,אלנקוה רפאל,,5213-122-16,5213/122,23540.14598540146,31.7466396624,34.9858475318,2022
2022-07-26,2022-07-26,"מחזיקי הדת 3, בית שמש",מחזיקי הדת 3,5152-13-2,דירה בבית קומות,3.0,ראשונה,70.0,1400000,,,1997.0,,3.0,3666620760,1,515213,False,,בית שמש,מחזיקי הדת,,5152-13-2,5152/13,20000.0,31.7312996575,34.9913689339,2022
2022-07-26,2022-07-26,"האמוראים 37, ",האמוראים 37,34281-382-34,דירה בבית קומות,3.0,חמישית,75.0,1580000,,,2019.0,,6.0,3666796230,1,34281382,False,,בית שמש,האמוראים,,34281-382-34,34281/382,21066.666666666668,31.7032480137,34.9657712098,2022
2022-07-26,2022-07-26,"רפאל אלנקווה 15, בית שמש",רפאל אלנקווה 15,5213-115-14,דירה בבית קומות,4.0,שלישית,79.6,919000,,,1970.0,,4.0,3667095960,1,5213115,False,,בית שמש,אלנקוה רפאל,,5213-115-14,5213/115,11545.226130653267,31.7473712189,34.9867690591,2022
2022-07-25,2022-07-25,"יבנה 2, בית שמש",יבנה 2,34279-69-17,דירה בבית קומות,7.0,"מרתף, קרקע, ראשונה, שניה",177.4,3690000,,,2000.0,,,3666734640,1,3427969,False,,בית שמש,יבנה,,34279-69-17,34279/69,20800.45095828636,31.7136251926,34.9846132197,2022
2022-07-25,2022-07-25,"נחל צאלים 1, בית שמש",נחל צאלים 1,34294-62-88,דירה בבית קומות,3.0,קומה ‎6‏,68.9,1985000,,,2016.0,,7.0,3666647730,1,3429462,False,56% ב 5.1 שנים,בית שמש,נחל צאלים,10.98,34294-62-88,34294/62,28809.86937590711,31.7121730599,34.9883530771,2022
2022-07-25,2022-07-25,"בן-עזאי 9, בית שמש",בן-עזאי 9,5943-29-65,דירה בבית קומות,3.0,קרקע,74.7,1595000,,,1996.0,,3.0,3666374250,1,594329,False,,בית שמש,בן עזאי,,5943-29-65,5943/29,21352.0749665328,31.7366336231,34.9992936497,2022
2022-07-25,2022-07-25,"רבי יהושע 3, בית שמש",רבי יהושע 3,5152-40-5,דירה בבית קומות,7.0,שלישית,111.0,2780000,,,2010.0,,4.0,3665844900,1,515240,False,,בית שמש,רבי יהושע,,5152-40-5,5152/40,25045.045045045044,31.7307389499,34.9931306028,2022
2022-07-24,2022-07-24,"האמוראים 62, ",האמוראים 62,34281-386-45,דירה בבית קומות,5.0,שביעית,123.0,2500000,,,2020.0,,7.0,3666754170,1,34281386,False,,בית שמש,האמוראים,,34281-386-45,34281/386,20325.20325203252,31.7017886754,34.9675668669,2022
2022-07-24,2022-07-24,"העונות 3, ",העונות 3,34574-9-31,דירה בבית קומות,5.0,שמינית,140.0,3850000,,,2020.0,,8.0,3666399510,1,345749,False,,בית שמש,העונות,,34574-9-31,34574/9,27500.0,31.7029172642,35.0062333917,2022
2022-07-24,2022-07-24,"הגולן 9, בית שמש",הגולן 9,5216-4-10,דירה בבית קומות,4.0,ראשונה,82.3,1750000,,,1995.0,,2.0,3665784000,1,52164,False,30% ב 4.2 שנים,בית שמש,הגולן,7.14,5216-4-10,5216/4,21263.6695018226,31.7440150556,34.9921805536,2022
2022-07-24,2022-07-24,"יגאל ידין 7, בית שמש",יגאל ידין 7,5240-43-7,דירה בבית קומות,4.0,ראשונה,96.4,1850000,,,1990.0,,4.0,3665758290,1,524043,False,43% ב 6.2 שנים,בית שמש,ידין יגאל,6.94,5240-43-7,5240/43,19190.871369294604,31.7426999761,34.9843340593,2022
2022-07-21,2022-07-21,"העונות 9, ",העונות 9,34574-12-37,דירה בבית קומות,4.0,שישית,103.0,1800000,,,2022.0,,5.0,3665852280,1,3457412,False,,בית שמש,העונות,,34574-12-37,34574/12,17475.728155339806,31.7018716598,35.0063516135,2022
2022-07-21,2022-07-21,"העונות 5, ",העונות 5,34574-10-25,דירה בבית קומות,3.0,שניה,88.0,2167000,,,2020.0,,7.0,3666376230,1,3457410,False,,בית שמש,העונות,,34574-10-25,34574/10,24625.0,31.7025632095,35.0062778034,2022
2022-07-21,2022-07-21,"מרים הנביאה 4, בית שמש",מרים הנביאה 4,34518-9-10,דירה בבית קומות,4.0,קומה ‎3‏,82.8,2050000,,,2018.0,,5.0,3665975790,1,345189,False,,בית שמש,מרים הנביאה,,34518-9-10,34518/9,24758.454106280195,31.7041516719,34.9933651805,2022
2022-07-21,2022-07-21,"הנרקיס 26, בית שמש",הנרקיס 26,5219-23-20,דירה בבית קומות,4.0,ראשונה,78.0,1140000,,,1970.0,,3.0,3666367080,1,521923,False,197% ב 22.7 שנים,בית שמש,הנרקיס,8.68,5219-23-20,5219/23,14615.384615384615,31.7371784227,34.98023862,2022
2022-07-21,2022-07-21,"נחל נחשון 2, בית שמש",נחל נחשון 2,34274-21-71,מגורים,,,,500000,,,,,,3665760480,1,3427421,False,,בית שמש,נחל נחשון,,34274-21-71,34274/21,,31.7143094418,34.993202879,2022
2022-07-19,2022-07-19,"הסביון 8, בית שמש",הסביון 8,5220-83-23,דירה בבית קומות,2.0,שלישית,44.7,322000,,,1980.0,,3.0,3665739210,1,522083,False,,בית שמש,הסביון,,5220-83-23,5220/83,7203.579418344519,31.7380571582,34.982108355,2022
2022-07-19,2022-07-19,"רש""י 21, בית שמש","רש""י 21",5545-1-3,דירה בבית קומות,3.0,שניה,78.0,1890000,,,1991.0,,2.0,3666104220,1,55451,False,,בית שמש,"רש""י",,5545-1-3,5545/1,24230.76923076923,31.7412398403,34.9869608672,2022
2022-07-19,2022-07-19,"העונות 9, ",העונות 9,34574-12-38,דירה בבית קומות,4.0,שביעית,101.0,2405000,,,2022.0,,5.0,3665937720,1,3457412,False,,בית שמש,העונות,,34574-12-38,34574/12,23811.88118811881,31.7018716598,35.0063516135,2022
2022-07-19,2022-07-19,,,5209-14-1,דירה בבית קומות,1.0,ראשונה,32.7,133000,,,1970.0,,,3666091800,2,520914,False,,בית שמש,"רמב""ם",,5209-14-1,5209/14,4067.278287461773,31.7527805597,34.9904112938,2022
2022-07-18,2022-07-18,"נהר הירקון 11, בית שמש",נהר הירקון 11,34294-117-14,קוטג' דו משפחתי,6.0,"מרתף ‎-1‏, קומה ‎0‏, קומה ‎1‏, קומה ‎2‏",226.89,5010000,,,2019.0,,1.0,3666418560,1,34294117,False,,בית שמש,נהר הירקון,,34294-117-14,34294/117,22081.184715060164,31.7081553965,34.9939072597,2022
2022-07-18,2022-07-18,"רמב""ם 59, בית שמש","רמב""ם 59",5207-15-4,דירה בבית קומות,3.0,שניה,75.0,1580000,,,1970.0,,2.0,3665625090,1,520715,False,,בית שמש,"רמב""ם",,5207-15-4,5207/15,21066.666666666668,31.750173133,34.9961724827,2022
2022-07-18,2022-07-18,"העונות 7, ",העונות 7,34574-11-39,חניה,,,,81000,,,2020.0,,8.0,3665645880,1,3457411,False,,בית שמש,העונות,,34574-11-39,34574/11,,31.7022174347,35.0063147086,2022
2022-07-18,2022-07-18,"בן-אליעזר 4, בית שמש",בן-אליעזר 4,5240-51-3,דירה בבית קומות,3.0,קרקע,63.3,1600000,,,1980.0,,7.0,3665749140,1,524051,False,64% ב 5 שנים,בית שמש,בן אליעזר,12.8,5240-51-3,5240/51,25276.46129541864,31.7419832975,34.9832128937,2022
2022-07-17,2022-07-17,"תלמוד בבלי 13, ",תלמוד בבלי 13,34281-333-2,דירה בבית קומות,5.0,ראשונה,128.0,2400000,,,2019.0,,,3666310170,1,34281333,False,,בית שמש,תלמוד בבלי,,34281-333-2,34281/333,18750.0,31.6993680358,34.9705107128,2022
2022-07-15,2022-07-15,"חזון איש 22, בית שמש",חזון איש 22,5379-24-4,דירה בבית קומות,3.0,ראשונה,71.0,2580000,,,1991.0,,3.0,3665599590,1,537924,False,200% ב 12.5 שנים,בית שמש,חזון איש,16.0,5379-24-4,5379/24,36338.02816901408,31.7382149203,34.9929877965,2022
2022-07-14,2022-07-14,"נחל דולב 48, בית שמש",נחל דולב 48,34270-22-42,קוטג' דו משפחתי,6.0,קרקע+ראשונה,150.55,4300000,,,1999.0,,5.0,3665661990,1,3427022,False,121% ב 11.9 שנים,בית שמש,נחל דולב,10.17,34270-22-42,34270/22,28561.939554965127,31.7108824738,34.9975080459,2022
2022-07-14,2022-07-14,"נחל דולב 66, בית שמש",נחל דולב 66,34269-12-75,דירה בבית קומות,2.0,שניה,52.0,1400000,,,2018.0,,6.0,3665536020,1,3426912,False,,בית שמש,נחל דולב,,34269-12-75,34269/12,26923.07692307692,31.7126929757,34.9998540068,2022
2022-07-14,2022-07-14,"נחל מיכה 2, בית שמש",נחל מיכה 2,34276-8-17,דירה בבית קומות,4.0,קרקע,101.6,2945000,,,1996.0,,3.0,3665760960,1,342768,False,,בית שמש,נחל מיכה,,34276-8-17,34276/8,28986.220472440946,31.7165161026,34.9928973381,2022
2022-07-14,2022-07-14,"רבי צדוק 8, בית שמש",רבי צדוק 8,5941-4-43,דירה בבית קומות,4.0,שניה,86.5,1830000,,,2005.0,,5.0,3665875110,1,59414,False,,בית שמש,רבי צדוק,,5941-4-43,5941/4,21156.06936416185,31.7231587057,34.9949358806,2022
2022-07-14,2022-07-14,"נחל לכיש 40, בית שמש",נחל לכיש 40,34274-13-42,דירה בבית קומות,5.0,ראשונה,109.8,3200000,,,2000.0,,5.0,3665527560,1,3427413,False,135% ב 11 שנים,בית שמש,נחל לכיש,12.27,34274-13-42,34274/13,29143.897996357013,31.7129454798,34.9937534389,2022
2022-07-13,2022-07-13,"קדושת אהרון 11, בית שמש",קדושת אהרון 11,5151-13-146,דירה בבית קומות,4.0,שלישית,92.0,2000000,,,2010.0,,7.0,3666067800,1,515113,False,,בית שמש,קדושת אהרון,,5151-13-146,5151/13,21739.130434782608,31.7358300036,34.9890737065,2022
2022-07-13,2022-07-13,"הרטוב 10, בית שמש",הרטוב 10,5232-17-16,חנות,,קרקע+ גלריה,81.2,1410000,,,1995.0,,3.0,3665652840,1,523217,False,,בית שמש,הרטוב,,5232-17-16,5232/17,17364.53201970443,31.7473173076,34.9945103686,2022
2022-07-13,2022-07-13,"בן-צבי 28, בית שמש",בן-צבי 28,5212-15-4,דירה בבית קומות,7.0,שניה,174.0,2025000,,,1950.0,,2.0,3665609280,1,521215,False,170% ב 11.9 שנים,בית שמש,בן צבי,14.29,5212-15-4,5212/15,11637.93103448276,31.7489586868,34.9898193225,2022
2022-07-12,2022-12-07,"המשלט 16, בית שמש",המשלט 16,5208-151-47,דירה בבית קומות,2.0,רביעית,41.0,1025000,,,1960.0,,4.0,3669069780,1,5208151,False,0% ב 0.6 שנים,בית שמש,המשלט,0.0,5208-151-47,5208/151,25000.0,31.7503494953,34.9928931784,2022
2022-07-12,2022-12-07,"יחזקאל הנביא 6, בית שמש",יחזקאל הנביא 6,34356-9-29,דירה בבית קומות,4.0,שלישית,89.8,2335000,,,2015.0,,6.0,3668936160,1,343569,False,,בית שמש,יחזקאל הנביא,,34356-9-29,34356/9,26002.227171492206,31.7035331049,34.9816469904,2022
2022-07-12,2022-12-07,"חזון איש 30, בית שמש",חזון איש 30,5380-32-17,דירה בבית קומות,4.0,קרקע,99.4,3000000,,,1994.0,,4.0,3690319620,1,538032,False,,בית שמש,חזון איש,,5380-32-17,5380/32,30181.086519114688,31.7375643511,34.9939415429,2022
2022-07-12,2022-12-07,"ירמיהו הנביא 20, בית שמש",ירמיהו הנביא 20,34357-4-2,דירה בבית קומות,5.0,"קרקע, ראשונה",116.7,3400000,,,2011.0,,5.0,3668951730,1,343574,False,119% ב 8 שנים,בית שמש,ירמיהו הנביא,14.88,34357-4-2,34357/4,29134.53299057412,31.7016818975,34.9842440431,2022
2022-07-11,2022-11-07,"העלייה 9, בית שמש",העלייה 9,5203-10-213,דירה בבית קומות,5.0,קומה ‎5‏,122.35,2370000,,,2012.0,,15.0,3668186250,1,520310,False,95% ב 9.4 שנים,בית שמש,העליה,10.11,5203-10-213,5203/10,19370.65794850838,31.7557246239,34.9873893367,2022
2022-07-10,2022-10-07,"קהילת יעקב 5, בית שמש",קהילת יעקב 5,5380-21-2,דירה בבית קומות,7.0,קרקע,97.1,4500000,,,1995.0,,2.0,3668415660,1,538021,False,,בית שמש,קהילת יעקב,,5380-21-2,5380/21,46343.97528321319,31.7379688939,34.9966149439,2022
2022-07-09,2022-09-07,"שפת אמת 30, בית שמש",שפת אמת 30,5380-8-1,דירה בבית קומות,4.0,ראשונה,97.0,2200000,,,1990.0,,3.0,3667594470,1,53808,False,,בית שמש,שפת אמת,,5380-8-1,5380/8,22680.41237113402,31.7384650663,34.9958490667,2022
2022-07-09,2022-09-07,"בן איש חי 54, בית שמש",בן איש חי 54,5934-22-144,דירה בבית קומות,4.0,ראשונה,125.0,2700000,,,2011.0,,8.0,3666979440,1,593422,False,,בית שמש,בן איש חי,,5934-22-144,5934/22,21600.0,31.7499127764,35.0004093718,2022
2022-07-07,2022-07-07,"בן איש חי 30, בית שמש",בן איש חי 30,5935-19-20,דירה בבית קומות,4.0,קומה ‎6‏,112.14,2900000,,,2008.0,,8.0,3665446440,1,593519,False,173% ב 8.8 שנים,בית שמש,בן איש חי,19.66,5935-19-20,5935/19,25860.531478509005,31.7470632432,35.0009993894,2022
2022-07-07,2022-07-07,"נחל שחם 27, בית שמש",נחל שחם 27,34357-14-29,דירה בבית קומות,3.0,קומה ‎3‏,76.5,1725000,,,2014.0,,5.0,3665539230,1,3435714,False,,בית שמש,נחל שחם,,34357-14-29,34357/14,22549.019607843136,31.7038199995,34.9864927498,2022
2022-07-07,2022-07-07,"חיד""א 1, בית שמש","חיד""א 1",5934-21-69,דירה בבית קומות,5.0,ראשונה,130.0,2700000,,,2009.0,,5.0,3665350590,1,593421,False,,בית שמש,"חיד""א",,5934-21-69,5934/21,20769.23076923077,31.749617221,34.9998631122,2022
2022-07-06,2022-06-07,"ביאליק 19, בית שמש",ביאליק 19,5201-51-7,דירה בבית קומות,3.0,שניה,40.7,1345000,,,1960.0,,2.0,3664554180,1,520151,False,101% ב 7.8 שנים,בית שמש,ביאליק,12.95,5201-51-7,5201/51,33046.68304668304,31.7516902066,34.9825806707,2022
2022-07-06,2022-06-07,"רבי יהושע 11, בית שמש",רבי יהושע 11,5152-12-2,דירה בבית קומות,4.0,קרקע,80.0,2500000,,,2000.0,,4.0,3665163990,1,515212,False,127% ב 9.9 שנים,בית שמש,רבי יהושע,12.83,5152-12-2,5152/12,31250.0,31.7308203008,34.991781651,2022
2022-07-06,2022-06-07,"חבקוק הנביא 16, בית שמש",חבקוק הנביא 16,34355-117-1,קוטג' דו משפחתי,5.0,ראשונה,200.0,4900000,,,2020.0,,1.0,3665425860,1,34355117,False,,בית שמש,חבקוק הנביא,,34355-117-1,34355/117,24500.0,31.7076569011,34.9841786788,2022
2022-07-06,2022-06-07,"נחל עין גדי 33, בית שמש",נחל עין גדי 33,34277-5-11,דירה בבית קומות,4.0,ראשונה + שניה,104.5,2495000,,,1998.0,,3.0,3664574970,1,342775,False,76% ב 7.7 שנים,בית שמש,נחל עין גדי,9.87,34277-5-11,34277/5,23875.5980861244,31.715406885,34.9815776704,2022
2022-07-06,2022-06-07,"הרצל 26, בית שמש",הרצל 26,5208-72-2,דירה בבית קומות,3.0,ראשונה,44.75,1635000,,,1960.0,,4.0,3664842270,1,520872,False,99% ב 5.3 שנים,בית שמש,הרצל,18.68,5208-72-2,5208/72,36536.31284916201,31.7494679403,34.9917056493,2022
2022-07-06,2022-06-07,"שמעון 25, בית שמש",שמעון 25,5545-52-2,בית בודד,6.0,ראשונה,190.0,4962000,,,1998.0,,2.0,3664854390,1,554552,False,,בית שמש,שמעון,,5545-52-2,5545/52,26115.78947368421,31.7389778473,34.9883672197,2022
2022-07-06,2022-06-07,"אמרי אמת 2, בית שמש",אמרי אמת 2,5379-19-16,דירה בבית קומות,3.0,שלישית,71.0,2950000,,,1991.0,,3.0,3664596720,1,537919,False,,בית שמש,אמרי אמת,,5379-19-16,5379/19,41549.295774647886,31.7403682576,34.9925617215,2022
2022-07-04,2022-04-07,"נחל נחשון 5, בית שמש",נחל נחשון 5,34274-22-42,דירה בבית קומות,4.0,רביעית,101.65,2300000,,,2000.0,,5.0,3663106020,1,3427422,False,55% ב 5.2 שנים,בית שמש,נחל נחשון,10.58,34274-22-42,34274/22,22626.66010821446,31.7137832999,34.9935094477,2022
2022-07-04,2022-04-07,"הנרקיס 22, בית שמש",הנרקיס 22,5219-19-24,דירה בבית קומות,3.0,שלישית,70.0,1190000,,,1970.0,,4.0,3662881500,1,521919,False,275% ב 15.5 שנים,בית שמש,הנרקיס,17.74,5219-19-24,5219/19,17000.0,31.7368229177,34.9787255705,2022
2022-07-04,2022-04-07,"נחל שורק 38, בית שמש",נחל שורק 38,34278-26-19,מחסנים,,רביעית,84.5,80000,,,2000.0,,4.0,3663893820,1,3427826,False,,בית שמש,נחל שורק,,34278-26-19,34278/26,946.7455621301776,31.7149843396,34.9889243603,2022
2022-07-04,2022-04-07,"המשלט 18, בית שמש",המשלט 18,5208-152-8,דירה בבית קומות,3.0,שניה,62.0,1325000,,,1980.0,,4.0,3662995920,1,5208152,False,,בית שמש,המשלט,,5208-152-8,5208/152,21370.967741935485,31.7500959835,34.9934710284,2022
2022-07-03,2022-03-07,"חגי הנביא 14, בית שמש",חגי הנביא 14,34356-15-10,דירה בבית קומות,3.0,חמישית,65.4,1765000,,,2013.0,,4.0,3661970250,1,3435615,False,149% ב 8.5 שנים,בית שמש,חגי הנביא,17.53,34356-15-10,34356/15,26987.76758409785,31.7013413362,34.9807909671,2022
2022-07-03,2022-03-07,"נהר הירדן 51, בית שמש",נהר הירדן 51,5941-8-8,דירה בבית קומות,4.0,קרקע,74.7,1830000,,,1996.0,,2.0,3662006670,1,59418,False,229% ב 18.5 שנים,בית שמש,נהר הירדן,12.38,5941-8-8,5941/8,24497.991967871483,31.7259769256,34.9961005525,2022
2022-07-02,2022-02-07,"נחל הבשור 10, בית שמש",נחל הבשור 10,34270-33-5,דירה בבית קומות,4.0,ראשונה,108.05,2500000,,,1999.0,,4.0,3661583160,1,3427033,False,,בית שמש,נחל הבשור,,34270-33-5,34270/33,23137.43637204998,31.7095171089,34.9996160545,2022
2022-07-02,2022-02-07,"נחום הנביא 3, בית שמש",נחום הנביא 3,34357-6-10,דירה בבית קומות,6.0,"רביעית, חמישית",178.4,2910000,,,2012.0,,4.0,3661245840,1,343576,False,35% ב 2.4 שנים,בית שמש,נחום הנביא,14.58,34357-6-10,34357/6,16311.659192825113,31.7051664242,34.9843379458,2022
2022-06-30,2022-06-30,"הרצל 35, בית שמש",הרצל 35,5208-80-19,דירה בבית קומות,3.0,שלישית,44.75,1410000,,,1960.0,,4.0,3665353560,1,520880,False,47% ב 3.7 שנים,בית שמש,הרצל,12.7,5208-80-19,5208/80,31508.379888268155,31.7489691545,34.9931912535,2022
2022-06-30,2022-06-30,"החלוצים 26, בית שמש",החלוצים 26,5204-88-9,דירה בבית קומות,6.0,ראשונה,83.0,2373000,,,1993.0,,1.0,3665387250,1,520488,False,,בית שמש,החלוצים,,5204-88-9,5204/88,28590.36144578313,31.7535775103,34.9903800846,2022
2022-06-30,2022-06-30,"ראובן 14, בית שמש",ראובן 14,5545-8-4,דירה בבית קומות,4.0,שניה,110.0,2250000,,,1999.0,,,3665295660,1,55458,False,,בית שמש,ראובן,,5545-8-4,5545/8,20454.545454545456,31.7402149031,34.9871515029,2022
2022-06-30,2022-06-30,"ריב""ל 46, בית שמש","ריב""ל 46",5940-8-4,דירה בבית קומות,5.0,ראשונה,124.0,1900000,,,1999.0,,,3665166480,1,59408,False,,בית שמש,"ריב""ל",,5940-8-4,5940/8,15322.58064516129,31.7237272139,34.9898155098,2022
2022-06-30,2022-06-30,"המשלט 16, בית שמש",המשלט 16,5208-151-7,דירה בבית קומות,2.0,רביעית,41.0,546000,,,1960.0,,4.0,3665240730,1,5208151,False,,בית שמש,המשלט,,5208-151-7,5208/151,13317.073170731708,31.7503494953,34.9928931784,2022
2022-06-30,2022-06-30,"בר-אילן 19, בית שמש",בר-אילן 19,5239-41-9,דירה בבית קומות,3.0,שניה,66.0,1470000,,,1991.0,,4.0,3665247210,1,523941,False,,בית שמש,בר אילן,,5239-41-9,5239/41,22272.727272727272,31.7417355426,34.9876928998,2022
2022-06-30,2022-06-30,"שפת אמת 17, בית שמש",שפת אמת 17,5381-24-5,דירה בבית קומות,4.0,שניה,98.0,1990000,,,1995.0,,3.0,3665803530,1,538124,False,,בית שמש,שפת אמת,,5381-24-5,5381/24,20306.122448979597,31.7399075188,34.9963226347,2022
2022-06-29,2022-06-29,"הרצל 24, בית שמש",הרצל 24,5208-70-19,דירה בבית קומות,3.0,שניה,44.5,1425000,,,1960.0,,3.0,3666063600,1,520870,False,51% ב 4.7 שנים,בית שמש,הרצל,10.85,5208-70-19,5208/70,32022.47191011236,31.7493031793,34.9912394055,2022
2022-06-29,2022-06-29,"הנרקיס 38, בית שמש",הנרקיס 38,5219-15-1,דירה בבית קומות,3.0,קרקע,70.0,1200000,,,1970.0,,3.0,3665176410,1,521915,False,20% ב 3.6 שנים,בית שמש,הנרקיס,5.56,5219-15-1,5219/15,17142.85714285714,31.7367972289,34.9774732936,2022
2022-06-28,2022-06-28,"נחל דולב 42, בית שמש",נחל דולב 42,34270-22-16,דירה בבית קומות,5.0,שלישית,101.65,2650000,,,1998.0,,4.0,3665198910,1,3427022,False,,בית שמש,נחל דולב,,34270-22-16,34270/22,26069.847515986225,31.7108824738,34.9975080459,2022
2022-06-28,2022-06-28,"נחל רפאים 40, בית שמש",נחל רפאים 40,34270-28-6,דירה בבית קומות,4.0,שלישית,94.2,2250000,,,1996.0,,5.0,3665159580,1,3427028,False,45% ב 5.4 שנים,בית שמש,נחל רפאים,8.33,34270-28-6,34270/28,23885.350318471337,31.7125046399,34.9972112279,2022
2022-06-28,2022-06-28,"ריב""ל 5, בית שמש","ריב""ל 5",5940-17-51,דירה בבית קומות,4.0,שניה,90.1,1760000,,,1999.0,,3.0,3665029140,1,594017,False,,בית שמש,"ריב""ל",,5940-17-51,5940/17,19533.8512763596,31.7237655035,34.9935808668,2022
2022-06-27,2022-06-27,"האיריס 12, בית שמש",האיריס 12,5220-74-5,דירה בבית קומות,4.0,קרקע,67.0,1795000,,,1967.0,,1.0,3665208300,1,522074,False,38% ב 2.6 שנים,בית שמש,האיריס,14.62,5220-74-5,5220/74,26791.044776119405,31.739993993,34.98161785,2022
2022-06-26,2022-06-26,"נחל מאור 18, בית שמש",נחל מאור 18,34270-37-34,דירה בבית קומות,5.0,רביעית,121.05,2550000,,,1997.0,,5.0,3665236290,1,3427037,False,59% ב 7.5 שנים,בית שמש,נחל מאור,7.87,34270-37-34,34270/37,21065.67534076828,31.708073567,35.0002783256,2022
2022-06-23,2022-06-23,"השושן 10, בית שמש",השושן 10,5964-9-1,דירה בבית קומות,6.0,קרקע ראשונה,170.7,3850000,,,1995.0,,,3665466930,1,59649,False,,בית שמש,השושן,,5964-9-1,5964/9,22554.18863503222,31.7368450153,34.9831311019,2022
2022-06-23,2022-06-23,"הגליל 16, בית שמש",הגליל 16,5232-5-17,דירה בבית קומות,4.0,שניה,82.0,1715000,,,1995.0,,3.0,3664882380,1,52325,False,58% ב 1.6 שנים,בית שמש,הגליל,36.25,5232-5-17,5232/5,20914.634146341465,31.745742622,34.9924289646,2022
2022-06-23,2022-06-23,"הנרקיס 32, בית שמש",הנרקיס 32,5219-22-7,דירה בבית קומות,4.0,שלישית,70.0,1350000,,,1980.0,,3.0,3664889550,1,521922,False,,בית שמש,הנרקיס,,5219-22-7,5219/22,19285.714285714286,31.736756151,34.9799497239,2022
2022-06-22,2022-06-22,"נחל דולב 35, בית שמש",נחל דולב 35,34272-13-67,דירה בבית קומות,4.0,רביעית,82.67,2090000,,,1998.0,,5.0,3664858830,1,3427213,False,,בית שמש,נחל דולב,,34272-13-67,34272/13,25281.23865973146,31.7115234437,34.9990559648,2022
2022-06-21,2022-06-21,"רפאל אלנקווה 5, בית שמש",רפאל אלנקווה 5,5213-121-5,דירה בבית קומות,3.0,שניה,62.7,1435000,,,1970.0,,4.0,3665221440,1,5213121,False,63% ב 4.5 שנים,בית שמש,אלנקוה רפאל,14.0,5213-121-5,5213/121,22886.76236044657,31.7468175405,34.9856854038,2022
