DEALDATE,DEALDATETIME,FULLADRESS,DISPLAYADRESS,GUSH,DEALNATUREDESCRIPTION,ASSETROOMNUM,FLOORNO,DEALNATURE,DEALAMOUNT,NEWPROJECTTEXT,PROJECTNAME,BUILDINGYEAR,YEARBUILT,BUILDINGFLOORS,KEYVALUE,TYPE,POLYGON_ID,TREND_IS_NEGATIVE,TREND_FORMAT,city_name,street,presentage per year,GUSH - Copy,Gush_Helka,Price per sqm,lat,lon,Year
2023-12-31,2023-12-31,"יציאת אירופה 5, רעננה",יציאת אירופה 5,7652-218-1,קרקע למגורים,,ראשונה,63.0,3653000,,,,,1.0,9177014910,1,7652218,False,,רעננה,יציאת אירופה,,7652-218-1,7652/218,57984.12698412698,32.196266847,34.8556489199,2023
2023-12-31,2023-12-31,"קרן היסוד 30, רעננה",קרן היסוד 30,6580-1095-11,דירה בבית קומות,5.0,שישית,144.0,3800000,1.0,,1970.0,2015.0,4.0,9176333592,1,65801095,False,,רעננה,קרן היסוד,,6580-1095-11,6580/1095,26388.88888888889,32.1857277966,34.8720600865,2023
2023-12-31,2023-12-31,"עגנון 4, רעננה",עגנון 4,6583-601-9,דירה בבית קומות,5.0,שלישית,115.0,3000000,,,1987.0,,6.0,9176646094,1,6583601,False,,רעננה,עגנון,,6583-601-9,6583/601,26086.95652173913,32.1776391741,34.8703473146,2023
2023-12-30,2023-12-30,,,7661-150-1,,4.0,תשיעית,103.0,2899262,1.0,,,,,11181298821,2,7661150,False,,רעננה,נעמי שמר,,7661-150-1,7661/150,28148.174757281555,32.1958104774,34.8644412582,2023
2023-12-28,2023-12-28,"דוד רזיאל 1, רעננה",דוד רזיאל 1,6583-429-15,דירה בבית קומות,4.0,שישית,100.0,3450000,,,2026.0,,4.0,9177170606,1,6583429,False,,רעננה,רזיאל דוד,,6583-429-15,6583/429,34500.0,32.1799042413,34.8737504125,2023
2023-12-28,2023-12-28,"ברנר 19, רעננה",ברנר 19,6586-551-15,דירה בבית קומות,3.0,ראשונה,77.0,2680000,,,2028.0,,3.0,9177028378,1,6586551,False,,רעננה,ברנר,,6586-551-15,6586/551,34805.194805194806,32.1771441612,34.87776808,2023
2023-12-28,2023-12-28,"התבור 4, רעננה",התבור 4,7649-265-10,דירה בבית קומות,4.0,שלישית,72.42,2720000,,,1998.0,,5.0,9121436174,1,7649265,False,159% ב 14.5 שנים,רעננה,התבור,10.97,7649-265-10,7649/265,37558.68544600939,32.1962388721,34.8511770308,2023
2023-12-27,2023-12-27,"התחייה 3, רעננה",התחייה 3,8573-2-3,דירה בבית קומות,4.0,שניה,82.2,2560000,,,1990.0,,4.0,9121472286,1,85732,False,73% ב 10 שנים,רעננה,התחיה,7.3,8573-2-3,8573/2,31143.552311435524,32.1946405619,34.8528747741,2023
2023-12-27,2023-12-27,"ביל""ו 40, רעננה","ביל""ו 40",6582-209-3,קוטג' דו משפחתי,5.0,קרקע ראשונה,128.82,654000,,,1980.0,,,9176449994,1,6582209,False,,רעננה,"ביל""ו",,6582-209-3,6582/209,5076.851420586866,32.1803216921,34.864098076,2023
2023-12-27,2023-12-27,"גאולה 7, רעננה",גאולה 7,7649-140-32,דירה בבית קומות,3.0,שלישית,39.5,2712000,,,2023.0,,3.0,9176601546,1,7649140,True,-3% ב 0.9 שנים,רעננה,גאולה,-3.33,7649-140-32,7649/140,68658.22784810126,32.194438498,34.8554493122,2023
2023-12-27,2023-12-27,"תל חי 13, רעננה",תל חי 13,6580-434-2,דירה בבית קומות,5.0,ראשונה,117.5,3260000,,,2021.0,,3.0,9121362322,1,6580434,False,,רעננה,תל חי,,6580-434-2,6580/434,27744.68085106383,32.1835726776,34.8731693123,2023
2023-12-27,2023-12-27,"השקד 3, רעננה",השקד 3,6578-486-34,דירה בבית קומות,5.0,רביעית,123.59,3585000,,,1997.0,,5.0,9176212084,1,6578486,False,88% ב 16.1 שנים,רעננה,השקד,5.47,6578-486-34,6578/486,29007.201229872968,32.1890145211,34.8847231936,2023
2023-12-26,2023-12-26,"כינרת 3, רעננה",כינרת 3,7655-311-48,דירה בבית קומות,4.0,חמישית,105.0,4020000,,,2025.0,,8.0,9176853146,1,7655311,False,,רעננה,כנרת,,7655-311-48,7655/311,38285.71428571428,32.190545093,34.8788961247,2023
2023-12-26,2023-12-26,"המחתרות 6, רעננה",המחתרות 6,7654-447-3,דירה בבית קומות,5.0,ראשונה,121.09,3450000,,,1995.0,,3.0,9176400044,1,7654447,False,144% ב 25.2 שנים,רעננה,המחתרות,5.71,7654-447-3,7654/447,28491.204888925597,32.1900249093,34.8645204943,2023
2023-12-26,2023-12-26,"ארלוזורוב 4, רעננה",ארלוזורוב 4,6586-932-9,דירה בבית קומות,4.0,חמישית,83.0,3100000,,,2004.0,,6.0,9121294686,1,6586932,False,,רעננה,ארלוזורוב,,6586-932-9,6586/932,37349.39759036145,32.1789675476,34.8785990671,2023
2023-12-26,2023-12-26,"ביאליק 21, רעננה",ביאליק 21,6586-686-0,קומבינציה,,,483.0,13969000,,,1980.0,,3.0,9176088726,1,6586686,False,,רעננה,ביאליק,,6586-686-0,6586/686,28921.325051759835,32.1772348835,34.8798414791,2023
2023-12-26,2023-12-26,"אשכול 24, רעננה",אשכול 24,6586-616-2,דירה בבית קומות,4.0,ראשונה,94.0,3200000,,,2022.0,,2.0,9177189920,1,6586616,False,,רעננה,אשכול לוי,,6586-616-2,6586/616,34042.55319148936,32.1749489691,34.878029893,2023
2023-12-26,2023-12-26,"קזן 3, רעננה",קזן 3,6586-755-5,דירה בבית קומות,4.0,שניה,98.5,2300000,,,1970.0,,5.0,9121452750,1,6586755,False,188% ב 25.2 שנים,רעננה,קזן,7.46,6586-755-5,6586/755,23350.2538071066,32.1784597862,34.8814026306,2023
2023-12-25,2023-12-25,"משה וילנסקי 33, רעננה",משה וילנסקי 33,7661-137-5,דירה בבית קומות,5.0,קומה ‎2‏,149.4,4520000,,,2020.0,,7.0,9176108780,1,7661137,False,,רעננה,משה וילנסקי,,7661-137-5,7661/137,30254.350736278448,32.1944731474,34.8648048111,2023
2023-12-24,2023-12-24,"האשד 5, רעננה",האשד 5,7651-487-1,קוטג' דו משפחתי,7.0,מרתף+קרקע+ראשונה,215.0,7800000,,,1997.0,,,9177098604,1,7651487,False,39% ב 4 שנים,רעננה,האשד,9.75,7651-487-1,7651/487,36279.06976744186,32.1824817183,34.854762434,2023
2023-12-24,2023-12-24,"ההגנה 95, רעננה",ההגנה 95,7654-111-70,דירה בבית קומות,4.0,שישית,110.0,3760000,1.0,ההגנה 95-97 רעננה,1970.0,,6.0,9121265234,1,7654111,False,,רעננה,ההגנה,,7654-111-70,7654/111,34181.818181818184,32.1888717056,34.8668030242,2023
2023-12-24,2023-12-24,"היובל 7, רעננה",היובל 7,6580-863-26,דירה בבית קומות,4.0,שלישית,98.86,2400000,,,1980.0,,5.0,9121341528,1,6580863,False,40% ב 10 שנים,רעננה,היובל,4.0,6580-863-26,6580/863,24276.75500708072,32.1823447889,34.8715839164,2023
2023-12-24,2023-12-24,"אוסטרובסקי 6, רעננה",אוסטרובסקי 6,6586-316-3,דירה בבית קומות,5.0,שניה,88.3,3200000,,,1970.0,2012.0,3.0,9121217726,1,6586316,False,52% ב 6.5 שנים,רעננה,אוסטרובסקי,8.0,6586-316-3,6586/316,36240.0906002265,32.1769147309,34.8769134113,2023
2023-12-24,2023-12-24,"משה סנה 5, רעננה",משה סנה 5,7649-207-1,דירה בבית קומות,5.0,קרקע,107.6,4020000,,,1994.0,,4.0,9177276648,1,7649207,False,,רעננה,סנה משה,,7649-207-1,7649/207,37360.59479553904,32.1945536426,34.851414615,2023
2023-12-20,2023-12-20,"גאולה 7, רעננה",גאולה 7,7649-140-3,דירה בבית קומות,4.0,ראשונה,89.0,3113000,,,2023.0,,3.0,9176275576,1,7649140,False,0% ב 0.8 שנים,רעננה,גאולה,0.0,7649-140-3,7649/140,34977.52808988764,32.194438498,34.8554493122,2023
2023-12-19,2023-12-19,"ויצמן 224, רעננה",ויצמן 224,7649-195-7,דירה בבית קומות,3.0,שניה,81.02,2500000,,,1995.0,,3.0,9176455026,1,7649195,False,65% ב 10.9 שנים,רעננה,ויצמן,5.96,7649-195-7,7649/195,30856.57862256233,32.1927647408,34.8501073837,2023
2023-12-19,2023-12-19,"דרור 12, רעננה",דרור 12,8573-7-3,מחסנים,,שניה,93.0,150000,,,1991.0,,3.0,9176489140,1,85737,True,-9% ב 0.7 שנים,רעננה,דרור,-12.86,8573-7-3,8573/7,1612.9032258064517,32.1974827508,34.8547720297,2023
2023-12-18,2023-12-18,"הפלמ""ח 12, רעננה","הפלמ""ח 12",7655-379-13,דירה בבית קומות,5.0,קרקע,122.39,4490000,,,1995.0,,2.0,9120894642,1,7655379,False,196% ב 19.5 שנים,רעננה,"הפלמ""ח",10.05,7655-379-13,7655/379,36686.003758477,32.1905140856,34.8739776358,2023
2023-12-17,2023-12-17,"גאולה 9, רעננה",גאולה 9,7649-139-42,דירה בבית קומות,3.0,שלישית,50.6,3008000,,,2023.0,,4.0,9176249898,1,7649139,False,104% ב 4.2 שנים,רעננה,גאולה,24.76,7649-139-42,7649/139,59446.64031620553,32.1947592611,34.855487259,2023
2023-12-17,2023-12-17,"גאולה 7, רעננה",גאולה 7,7649-140-18,דירה בבית קומות,4.0,שניה,103.0,3503000,,,2023.0,,3.0,9176250490,1,7649140,False,,רעננה,גאולה,,7649-140-18,7649/140,34009.70873786408,32.194438498,34.8554493122,2023
2023-12-17,2023-12-17,"גאולה 11, רעננה",גאולה 11,7649-138-43,דירה בבית קומות,3.0,רביעית,50.6,3017000,,,2023.0,,4.0,9176257816,1,7649138,False,7% ב 0.5 שנים,רעננה,גאולה,14.0,7649-138-43,7649/138,59624.50592885375,32.1950726485,34.8554969896,2023
2023-12-17,2023-12-17,"גאולה 11, רעננה",גאולה 11,7649-138-35,דירה בבית קומות,3.0,שלישית,39.5,3026000,,,2023.0,,4.0,9176257224,1,7649138,False,24% ב 0.8 שנים,רעננה,גאולה,30.0,7649-138-35,7649/138,76607.59493670886,32.1950726485,34.8554969896,2023
2023-12-17,2023-12-17,"גאולה 9, רעננה",גאולה 9,7649-139-34,דירה בבית קומות,3.0,שלישית,39.5,2972000,,,2023.0,,4.0,9176249306,1,7649139,False,,רעננה,גאולה,,7649-139-34,7649/139,75240.50632911392,32.1947592611,34.855487259,2023
2023-12-17,2023-12-17,"ריינס 14, רעננה",ריינס 14,6583-464-2,קוטג' דו משפחתי,6.0,קרקע +ראשונה,164.0,6465000,,,1979.0,,2.0,9176770044,1,6583464,False,,רעננה,ריינס,,6583-464-2,6583/464,39420.73170731707,32.1767670934,34.8665629921,2023
2023-12-17,2023-12-17,"מוצקין 6, רעננה",מוצקין 6,6580-1114-1,דירה בבית קומות,5.0,קומה ‎1‏,121.5,4100000,,,2021.0,,4.0,9121264642,1,65801114,False,,רעננה,מוצקין,,6580-1114-1,6580/1114,33744.85596707819,32.1828339155,34.8685571829,2023
2023-12-17,2023-12-17,"הכרמל 2, רעננה",הכרמל 2,7649-263-10,דירה בבית קומות,4.0,שלישית,84.56,2670000,,,1998.0,,4.0,9121184056,1,7649263,False,83% ב 11 שנים,רעננה,הכרמל,7.55,7649-263-10,7649/263,31575.212866603597,32.1960204575,34.8519377675,2023
2023-12-17,2023-12-17,"ברנר 19, רעננה",ברנר 19,6586-551-12,דירה בבית קומות,6.0,ג',141.0,4350000,,,2028.0,,3.0,9176176046,1,6586551,False,148% ב 8 שנים,רעננה,ברנר,18.5,6586-551-12,6586/551,30851.06382978724,32.1771441612,34.87776808,2023
2023-12-15,2023-12-15,"משה סנה 5, רעננה",משה סנה 5,7649-207-5,דירה בבית קומות,5.0,ראשונה,104.1,3100000,,,1994.0,,4.0,9120801180,1,7649207,False,,רעננה,סנה משה,,7649-207-5,7649/207,29779.058597502404,32.1945536426,34.851414615,2023
2023-12-15,2023-12-15,"בורוכוב 27, רעננה",בורוכוב 27,6580-33-5,דירה בבית קומות,4.0,שניה,95.25,2850000,,,1988.0,,5.0,9176220002,1,658033,False,64% ב 13.5 שנים,רעננה,בורוכוב,4.74,6580-33-5,6580/33,29921.259842519685,32.1830370473,34.8766041447,2023
2023-12-14,2023-12-14,"ארלוזורוב 45, רעננה",ארלוזורוב 45,6586-291-3,דירה בבית קומות,5.0,שניה+גג,165.0,454000,,,2005.0,,2.0,9120964794,1,6586291,False,,רעננה,ארלוזורוב,,6586-291-3,6586/291,2751.5151515151515,32.1755729192,34.8779619613,2023
2023-12-13,2023-12-13,"גאולה 9, רעננה",גאולה 9,7649-139-44,דירה בבית קומות,3.0,רביעית,50.6,2702000,,,2023.0,,4.0,9120977152,1,7649139,False,,רעננה,גאולה,,7649-139-44,7649/139,53399.20948616601,32.1947592611,34.855487259,2023
2023-12-13,2023-12-13,"גאולה 9, רעננה",גאולה 9,7649-139-17,דירה בבית קומות,3.0,שניה,39.5,2542000,,,2023.0,,4.0,9121016816,1,7649139,True,-11% ב 0.5 שנים,רעננה,גאולה,-22.0,7649-139-17,7649/139,64354.43037974684,32.1947592611,34.855487259,2023
2023-12-13,2023-12-13,"התבור 7, רעננה",התבור 7,7649-274-9,דירה בבית קומות,4.0,שלישית,73.0,2750000,,,1998.0,,4.0,9120999648,1,7649274,False,81% ב 12 שנים,רעננה,התבור,6.75,7649-274-9,7649/274,37671.232876712325,32.1966179311,34.8504862661,2023
2023-12-13,2023-12-13,"אחד העם 39, רעננה",אחד העם 39,6581-565-4,קרקע למגורים,,,495.0,16600000,,,1985.0,,1.0,9176017834,1,6581565,False,,רעננה,אחד העם,,6581-565-4,6581/565,33535.35353535353,32.1827222632,34.8836360673,2023
2023-12-12,2023-12-12,"נחשון 11, רעננה",נחשון 11,6581-11-2,קוטג' חד משפחתי,5.0,ראשונה,,4974000,,,1970.0,,1.0,9176537314,1,658111,False,,רעננה,נחשון,,6581-11-2,6581/11,,32.1852009487,34.8812474571,2023
2023-12-12,2023-12-12,"גאולה 9, רעננה",גאולה 9,7649-139-7,דירה בבית קומות,3.0,ראשונה,39.5,2502000,,,2023.0,,4.0,9120963610,1,7649139,False,,רעננה,גאולה,,7649-139-7,7649/139,63341.77215189873,32.1947592611,34.855487259,2023
2023-12-10,2023-10-12,"אחוזה 51, רעננה",אחוזה 51,6587-412-3,דירה בבית קומות,3.0,קומה ‎1‏,78.0,2735000,,,2018.0,,7.0,9118013008,1,6587412,False,63% ב 5.3 שנים,רעננה,אחוזה,11.89,6587-412-3,6587/412,35064.10256410256,32.178396945,34.882759165,2023
2023-12-10,2023-10-12,"היובל 14, רעננה",היובל 14,6580-825-27,דירה בבית קומות,4.0,שניה,99.58,3350000,,,1984.0,,6.0,9118329950,1,6580825,False,62% ב 3 שנים,רעננה,היובל,20.67,6580-825-27,6580/825,33641.29343241615,32.1836838073,34.8727599617,2023
2023-12-09,2023-09-12,"יהודה הלוי 37, רעננה",יהודה הלוי 37,6583-542-3,קוטג' דו משפחתי,7.0,ראשונה,331.0,6800000,,,1990.0,,2.0,9117050860,1,6583542,False,,רעננה,יהודה הלוי,,6583-542-3,6583/542,20543.80664652568,32.1788886603,34.8658360671,2023
2023-12-09,2023-09-12,"בר אילן 43, רעננה",בר אילן 43,6580-712-11,דירה בבית קומות,5.0,שלישית+גג,95.03,3800000,,,1970.0,2021.0,5.0,9117893498,1,6580712,False,,רעננה,בר אילן,,6580-712-11,6580/712,39987.37240871304,32.1848569839,34.8743968825,2023
2023-12-09,2023-09-12,"התעשיה 15, רעננה",התעשיה 15,7656-243-33,משרד,,שניה,1096.1,10000000,,,1988.0,,3.0,9117854944,1,7656243,False,,רעננה,התעשיה,,7656-243-33,7656/243,9123.255177447314,32.196079528,34.8791504697,2023
2023-12-09,2023-09-12,"הגדוד העברי 12, רעננה",הגדוד העברי 12,6579-404-10,דירה בבית קומות,3.0,שניה,102.5,2927000,,,2023.0,,3.0,9117727960,1,6579404,False,,רעננה,הגדוד העברי,,6579-404-10,6579/404,28556.09756097561,32.1846565037,34.8661980052,2023
2023-12-09,2023-09-12,"גאולה 7, רעננה",גאולה 7,7649-140-2,דירה בבית קומות,3.0,ראשונה,39.5,3052000,,,2023.0,,3.0,9117859828,1,7649140,False,12% ב 0.5 שנים,רעננה,גאולה,24.0,7649-140-2,7649/140,77265.82278481012,32.194438498,34.8554493122,2023
2023-12-09,2023-09-12,"גאולה 11, רעננה",גאולה 11,7649-138-46,דירה בבית קומות,3.0,רביעית,50.6,2552000,,,2023.0,,4.0,9117853094,1,7649138,False,,רעננה,גאולה,,7649-138-46,7649/138,50434.78260869565,32.1950726485,34.8554969896,2023
2023-12-09,2023-09-12,"גאולה 11, רעננה",גאולה 11,7649-138-38,דירה בבית קומות,3.0,שלישית,39.5,2522000,,,2023.0,,4.0,9117854426,1,7649138,False,,רעננה,גאולה,,7649-138-38,7649/138,63848.10126582279,32.1950726485,34.8554969896,2023
2023-12-07,2023-07-12,"לוי אשכול 24, רעננה",לוי אשכול 24,6586-616-6,דירה בבית קומות,4.0,ראשונה,92.0,3130000,,,2022.0,,2.0,9114380052,1,6586616,False,4% ב 1.5 שנים,רעננה,אשכול לוי,2.67,6586-616-6,6586/616,34021.739130434784,32.1749489691,34.878029893,2023
2023-12-06,2023-06-12,"יצחק גרציאני 7, רעננה",יצחק גרציאני 7,7661-122-12,דירה בבית קומות,5.0,ראשונה,109.4,4000000,,,2018.0,,5.0,9111482508,1,7661122,False,,רעננה,יצחק גרציאני,,7661-122-12,7661/122,36563.07129798903,32.1955185379,34.8667132329,2023
2023-12-06,2023-06-12,"בר-אילן 36, רעננה",בר-אילן 36,6580-1082-5,דירה בבית קומות,5.0,רביעית,125.0,2075000,,,2014.0,,4.0,9111917850,1,65801082,False,,רעננה,בר אילן,,6580-1082-5,6580/1082,16600.0,32.1837665925,34.8748483214,2023
2023-12-06,2023-06-12,"משה דיין 3, רעננה",משה דיין 3,6582-199-17,דירה בבית קומות,4.0,חמישית,116.66,4400000,,,1985.0,,5.0,9111648046,1,6582199,False,226% ב 22.2 שנים,רעננה,דיין משה,10.18,6582-199-17,6582/199,37716.44093948226,32.1815686655,34.8638050086,2023
2023-12-06,2023-06-12,"בר-אילן 36, רעננה",בר-אילן 36,6580-1082-4,דירה בבית קומות,5.0,רביעית,125.0,1875000,,,2014.0,,4.0,9111920884,1,65801082,False,,רעננה,בר אילן,,6580-1082-4,6580/1082,15000.0,32.1837665925,34.8748483214,2023
2023-12-03,2023-03-12,"החרמון 7, רעננה",החרמון 7,7649-272-18,דירה בבית קומות,3.5,שניה,75.45,2725000,,,1996.0,,4.0,9107253778,1,7649272,False,44% ב 3.5 שנים,רעננה,החרמון,12.57,7649-272-18,7649/272,36116.63353214049,32.1964242191,34.8491912185,2023
2023-12-03,2023-03-12,"חנקין 22, רעננה",חנקין 22,6580-152-2,דירה בבית קומות,5.0,ראשונה,97.3,6000000,,,2023.0,,3.0,9107394748,1,6580152,False,,רעננה,חנקין,,6580-152-2,6580/152,61664.95375128469,32.1817873003,34.8776312186,2023
2023-12-03,2023-03-12,"יערה 10, רעננה",יערה 10,6578-552-19,דירה בבית קומות,4.0,חמישית,124.0,3300000,,,2008.0,,15.0,9106783656,1,6578552,False,,רעננה,יערה,,6578-552-19,6578/552,26612.90322580645,32.1851755826,34.88823354,2023
2023-12-03,2023-03-12,"פרדס משותף 25, רעננה",פרדס משותף 25,6584-69-2,קוטג' דו משפחתי,5.0,ראשונה,211.0,5750000,,,1984.0,,1.0,9107304320,1,658469,False,,רעננה,פרדס משותף,,6584-69-2,6584/69,27251.18483412322,32.1742768474,34.8697856012,2023
2023-12-03,2023-03-12,"הסחלב 8, רעננה",הסחלב 8,7651-513-8,דירת גן,3.0,קרקע,74.5,3250000,,,2001.0,,3.0,9106561360,1,7651513,False,,רעננה,הסחלב,,7651-513-8,7651/513,43624.161073825504,32.1792534149,34.8583738314,2023
2023-12-03,2023-03-12,"נעמי שמר 17, רעננה",נעמי שמר 17,7661-143-33,דירה בבית קומות,5.0,רביעית,122.0,3820000,,,2018.0,,6.0,9106946086,1,7661143,False,,רעננה,נעמי שמר,,7661-143-33,7661/143,31311.475409836065,32.1958167432,34.8633674105,2023
2023-12-02,2023-02-12,"גאולה 7, רעננה",גאולה 7,7649-140-0,קרקע למגורים,,,3103.0,58712000,,,2023.0,,3.0,9106431342,1,7649140,False,,רעננה,גאולה,,7649-140-0,7649/140,18921.044150821785,32.194438498,34.8554493122,2023
2023-12-02,2023-02-12,"גאולה 9, רעננה",גאולה 9,7649-139-0,ללא תיכנון,,,3362.0,63687000,,,2023.0,,4.0,9106471672,1,7649139,False,,רעננה,גאולה,,7649-139-0,7649/139,18943.188578227247,32.1947592611,34.855487259,2023
2023-12-02,2023-02-12,"גאולה 11, רעננה",גאולה 11,7649-138-0,ללא תיכנון,,,2835.0,53704000,,,2023.0,,4.0,9106510744,1,7649138,False,,רעננה,גאולה,,7649-138-0,7649/138,18943.20987654321,32.1950726485,34.8554969896,2023
2023-12-01,2023-01-12,,,6578-555-8,דירה בבית קומות,4.0,רביעית,107.0,4450000,,,2027.0,,,9103634586,2,6578555,False,,רעננה,החורש,,6578-555-8,6578/555,41588.785046728975,,,2023
2023-11-30,2023-11-30,"ברנר 20, רעננה",ברנר 20,6586-308-19,דירה בבית קומות,4.0,שישית,99.0,3170000,,,2025.0,,3.0,9120025956,1,6586308,False,,רעננה,ברנר,,6586-308-19,6586/308,32020.20202020202,32.1778410247,34.8775809676,2023
2023-11-30,2023-11-30,"קזן 10, רעננה",קזן 10,6586-564-18,דירה בבית קומות,4.0,שלישית,81.0,3350000,,,2019.0,,3.0,9120067988,1,6586564,False,284% ב 16.5 שנים,רעננה,קזן,17.21,6586-564-18,6586/564,41358.02469135803,32.1777738645,34.8804325818,2023
2023-11-29,2023-11-29,"התמר 12, רעננה",התמר 12,7651-136-3,קוטג' חד משפחתי,9.0,ראשונה,1029.0,24200000,,,1975.0,2014.0,1.0,9120987512,1,7651136,False,,רעננה,התמר,,7651-136-3,7651/136,23517.97862001944,32.1905369438,34.8582340703,2023
2023-11-29,2023-11-29,"ברנר 20, רעננה",ברנר 20,6586-308-16,,4.0,,99.0,3170000,1.0,,2025.0,,3.0,11181281521,1,6586308,False,,רעננה,ברנר,,6586-308-16,6586/308,32020.20202020202,32.1778410247,34.8775809676,2023
2023-11-28,2023-11-28,"הפרחים 13, רעננה",הפרחים 13,7651-623-99,דירה בבית קומות,2.5,רביעית,67.0,2500000,,,2000.0,,7.0,9120925796,1,7651623,False,237% ב 24.9 שנים,רעננה,הפרחים,9.52,7651-623-99,7651/623,37313.432835820895,32.1799646053,34.8536566781,2023
2023-11-28,2023-11-28,"תל חי 26, רעננה",תל חי 26,6580-444-9,דירה בבית קומות,5.0,שלישית,94.72,3076000,,,1970.0,,3.0,9119823270,1,6580444,False,,רעננה,תל חי,,6580-444-9,6580/444,32474.662162162163,32.185521044,34.8741688113,2023
2023-11-28,2023-11-28,"היובל 6, רעננה",היובל 6,6580-975-7,דירה בבית קומות,5.0,רביעית,122.0,3750000,,,1989.0,,6.0,9119820236,1,6580975,False,,רעננה,היובל,,6580-975-7,6580/975,30737.70491803279,32.182390132,34.8722179361,2023
2023-11-27,2023-11-27,"ברנר 20, רעננה",ברנר 20,6586-308-20,דירה בבית קומות,4.0,חמישית,102.0,3230000,,,2025.0,,3.0,9120083972,1,6586308,False,,רעננה,ברנר,,6586-308-20,6586/308,31666.666666666668,32.1778410247,34.8775809676,2023
2023-11-27,2023-11-27,"מסדה 6, רעננה",מסדה 6,7655-116-1,קרקע למגורים,6.0,ראשונה,250.0,574000,,,1983.0,,1.0,9121308746,1,7655116,False,,רעננה,מסדה,,7655-116-1,7655/116,2296.0,32.1858635732,34.8754319235,2023
2023-11-26,2023-11-26,"ברנר 22, רעננה",ברנר 22,6586-309-11,,4.0,,99.0,3230000,1.0,,1974.0,,3.0,11181281526,1,6586309,False,,רעננה,ברנר,,6586-309-11,6586/309,32626.262626262625,32.1776783217,34.8775312084,2023
2023-11-26,2023-11-26,"שושנה דמארי 12, רעננה",שושנה דמארי 12,7661-107-54,דירת גן,6.0,קומה ‎0‏,130.0,10800000,,,2016.0,,8.0,9120154124,1,7661107,False,,רעננה,שושנה דמארי,,7661-107-54,7661/107,83076.92307692308,32.1949064548,34.8719575945,2023
2023-11-26,2023-11-26,"ארלוזורוב 4, רעננה",ארלוזורוב 4,6586-932-4,דירה בבית קומות,3.0,שניה,73.0,2680000,,,2004.0,,6.0,9119728624,1,6586932,False,,רעננה,ארלוזורוב,,6586-932-4,6586/932,36712.32876712329,32.1789675476,34.8785990671,2023
2023-11-22,2023-11-22,"אנילביץ 5, רעננה",אנילביץ 5,7654-152-19,דירת גג,3.0,שישית,72.0,2842000,,,1970.0,2026.0,3.0,9119875144,1,7654152,False,,רעננה,אנילביץ,,7654-152-19,7654/152,39472.22222222222,32.1874215913,34.8679130858,2023
2023-11-22,2023-11-22,"עקיבא 39, רעננה",עקיבא 39,6581-357-1,קרקע למגורים,,,53.8,4000000,,,,,,9120978262,1,6581357,False,,רעננה,עקיבא,,6581-357-1,6581/357,74349.44237918216,32.1835015178,34.8814063254,2023
2023-11-21,2023-11-21,"מבצע קדש 7, רעננה",מבצע קדש 7,7654-118-20,דירה בבית קומות,6.0,חמישית,211.0,4500000,1.0,,2016.0,,3.0,9120455082,1,7654118,False,,רעננה,מבצע קדש,,7654-118-20,7654/118,21327.01421800948,32.1875800846,34.8663883506,2023
2023-11-21,2023-11-21,"ביאליק 35, רעננה",ביאליק 35,6586-1013-11,חניה,,,,75000,,,2023.0,,6.0,9119606598,1,65861013,False,,רעננה,ביאליק,,6586-1013-11,6586/1013,,32.1759951403,34.8794624006,2023
2023-11-20,2023-11-20,"גאולה 9, רעננה",גאולה 9,7649-139-41,דירה בבית קומות,3.0,שלישית,50.6,2612000,,,2023.0,,4.0,9119550284,1,7649139,False,,רעננה,גאולה,,7649-139-41,7649/139,51620.55335968379,32.1947592611,34.855487259,2023
2023-11-20,2023-11-20,"גאולה 11, רעננה",גאולה 11,7649-138-39,דירה בבית קומות,3.0,שלישית,50.6,2672000,,,2023.0,,4.0,9119561310,1,7649138,True,-3% ב 0.8 שנים,רעננה,גאולה,-3.75,7649-138-39,7649/138,52806.324110671936,32.1950726485,34.8554969896,2023
2023-11-20,2023-11-20,"אחוזה 17, רעננה",אחוזה 17,6587-285-1,קרקע למגורים,,,19309.0,143057000,,,,,,9120218134,1,6587285,False,,רעננה,אחוזה,,6587-285-1,6587/285,7408.824900305557,32.1775055352,34.8865871278,2023
2023-11-16,2023-11-16,"הלוטוס 6, רעננה",הלוטוס 6,7651-542-6,דירה בבית קומות,3.0,שניה,74.0,2520000,,,1997.0,,3.0,9119414790,1,7651542,False,,רעננה,הלוטוס,,7651-542-6,7651/542,34054.05405405405,32.1810648755,34.8562700013,2023
2023-11-16,2023-11-16,"אנילביץ 5, רעננה",אנילביץ 5,7654-152-20,דירה בבית קומות,4.0,שישית,91.0,3355000,,,1970.0,2026.0,3.0,9119791524,1,7654152,False,,רעננה,אנילביץ,,7654-152-20,7654/152,36868.131868131866,32.1874215913,34.8679130858,2023
2023-11-16,2023-11-16,"גאולה 7, רעננה",גאולה 7,7649-140-5,דירה בבית קומות,3.0,ראשונה,39.5,2462000,,,2023.0,,3.0,9119515578,1,7649140,False,,רעננה,גאולה,,7649-140-5,7649/140,62329.11392405063,32.194438498,34.8554493122,2023
2023-11-16,2023-11-16,"רבוצקי 83, רעננה",רבוצקי 83,6578-496-24,דירה בבית קומות,5.0,שלישית +גג,123.9,3650000,,,2000.0,,4.0,9119469106,1,6578496,False,44% ב 11.2 שנים,רעננה,רבוצקי,3.93,6578-496-24,6578/496,29459.2413236481,32.188788919,34.8866699141,2023
2023-11-15,2023-11-15,"ברנר 18, רעננה",ברנר 18,6586-307-1,דירה בבית קומות,3.0,ראשונה,58.4,1800000,,,1970.0,,3.0,9119147428,1,6586307,False,,רעננה,ברנר,,6586-307-1,6586/307,30821.91780821918,32.1779995079,34.8776289071,2023
2023-11-15,2023-11-15,"אנילביץ 5, רעננה",אנילביץ 5,7654-152-6,דירה בבית קומות,2.0,שלישית,45.9,3178000,,,1970.0,2026.0,3.0,9119874626,1,7654152,False,106% ב 4.9 שנים,רעננה,אנילביץ,21.63,7654-152-6,7654/152,69237.47276688453,32.1874215913,34.8679130858,2023
2023-11-14,2023-11-14,"רמב""ם 19, רעננה","רמב""ם 19",6586-610-3,דירה בבית קומות,4.0,ראשונה,61.75,2250000,,,1970.0,,3.0,9119191976,1,6586610,False,30% ב 5 שנים,רעננה,"רמב""ם",6.0,6586-610-3,6586/610,36437.24696356275,32.178166877,34.8772260667,2023
2023-11-14,2023-11-14,"אחוזה 49, רעננה",אחוזה 49,6587-94-13,דירה בבית קומות,3.0,חמישית,65.0,2250000,,,1970.0,2028.0,3.0,9120629204,1,658794,False,,רעננה,אחוזה,,6587-94-13,6587/94,34615.38461538462,32.1783416288,34.8829572266,2023
2023-11-14,2023-11-14,"הגדוד העברי 12, רעננה",הגדוד העברי 12,6579-404-8,דירה בבית קומות,5.0,ראשונה,84.5,4725000,,,2023.0,,3.0,9120448348,1,6579404,False,,רעננה,הגדוד העברי,,6579-404-8,6579/404,55917.15976331361,32.1846565037,34.8661980052,2023
2023-11-14,2023-11-14,"היובל 17, רעננה",היובל 17,6580-758-4,דירה בבית קומות,5.0,ראשונה,113.07,2925000,,,1980.0,,5.0,9119121158,1,6580758,False,207% ב 21.9 שנים,רעננה,היובל,9.45,6580-758-4,6580/758,25868.9307508623,32.1836647535,34.8720019787,2023
2023-11-13,2023-11-13,"בן-יהודה 14, רעננה",בן-יהודה 14,6578-94-2,,3.0,חמישית,65.0,2250000,1.0,,1980.0,,2.0,11181281145,1,657894,False,,רעננה,בן יהודה,,6578-94-2,6578/94,34615.38461538462,32.1867556851,34.8849238388,2023
2023-11-09,2023-09-11,"ברנדייס 20, רעננה",ברנדייס 20,6583-742-3,דירה בבית קומות,4.0,ראשונה,101.0,2500000,,,1995.0,,5.0,9118268308,1,6583742,False,16% ב 4.3 שנים,רעננה,ברנדיס,3.72,6583-742-3,6583/742,24752.47524752475,32.1793655823,34.872093316,2023
2023-11-09,2023-09-11,"הגדוד העברי 26, רעננה",הגדוד העברי 26,6579-412-0,קרקע למגורים,,,3579.0,43752000,,,2026.0,,3.0,9118449534,1,6579412,False,,רעננה,הגדוד העברי,,6579-412-0,6579/412,12224.643755238894,32.1863177722,34.8666822873,2023
2023-11-09,2023-09-11,"כינרת 3, רעננה",כינרת 3,7655-311-62,דירה בבית קומות,4.0,שביעית,105.0,3680000,,,2025.0,,8.0,9116877552,1,7655311,False,,רעננה,כנרת,,7655-311-62,7655/311,35047.619047619046,32.190545093,34.8788961247,2023
2023-11-09,2023-09-11,"התעשייה 8, רעננה",התעשייה 8,8981-58-17,משרד,,קומה ‎3‏,66.0,1300000,,,2021.0,,7.0,9117722484,1,898158,False,,רעננה,התעשיה,,8981-58-17,8981/58,19696.969696969696,32.196993658,34.8819092107,2023
2023-11-06,2023-06-11,"לוי אשכול 24, רעננה",לוי אשכול 24,6586-616-7,דירה בבית קומות,4.0,ראשונה,92.0,3060000,,,2022.0,,2.0,9112798228,1,6586616,False,0% ב 1.4 שנים,רעננה,אשכול לוי,0.0,6586-616-7,6586/616,33260.86956521739,32.1749489691,34.878029893,2023
2023-11-06,2023-06-11,"יעקב חזן 12, רעננה",יעקב חזן 12,6579-769-4,קרקע למגורים,,,503.0,22652000,,,2007.0,,1.0,9113028294,1,6579769,False,,רעננה,חזן יעקב,,6579-769-4,6579/769,45033.7972166998,32.1896392186,34.861399789,2023
2023-11-05,2023-05-11,"הנשר 80, רעננה",הנשר 80,7650-301-14,דירה בבית קומות,4.0,ראשונה,105.37,3350000,,,1994.0,,2.0,9110043652,1,7650301,False,155% ב 16.3 שנים,רעננה,הנשר,9.51,7650-301-14,7650/301,31792.73037866565,32.1915107169,34.8514727929,2023
2023-11-05,2023-05-11,"גאולה 7, רעננה",גאולה 7,7649-140-33,דירה בבית קומות,5.0,שלישית,118.0,4075000,,,2023.0,,3.0,9110202382,1,7649140,False,145% ב 2.3 שנים,רעננה,גאולה,63.04,7649-140-33,7649/140,34533.898305084746,32.194438498,34.8554493122,2023
2023-11-05,2023-05-11,"שלום עליכם 6, רעננה",שלום עליכם 6,6586-839-4,דירה בבית קומות,2.0,ראשונה,42.72,1900000,,,1970.0,,4.0,9111201826,1,6586839,False,58% ב 1.9 שנים,רעננה,שלום עליכם,30.53,6586-839-4,6586/839,44475.65543071161,32.1767749608,34.8738327989,2023
2023-11-05,2023-05-11,"בורוכוב 41, רעננה",בורוכוב 41,6580-952-22,דירה בבית קומות,4.0,ראשונה,122.0,2956000,,,2022.0,,5.0,9109834232,1,6580952,False,,רעננה,בורוכוב,,6580-952-22,6580/952,24229.508196721312,32.1846931048,34.8770543748,2023
2023-11-05,2023-05-11,"הסחלב 14, רעננה",הסחלב 14,7651-510-2,דירת גן,4.0,קרקע,83.0,4200000,,,2000.0,,5.0,9109806704,1,7651510,False,58% ב 5 שנים,רעננה,הסחלב,11.6,7651-510-2,7651/510,50602.40963855421,32.1800470894,34.8579842878,2023
2023-11-04,2023-04-11,"הסחלב 7, רעננה",הסחלב 7,7651-664-2,דירה בבית קומות,3.0,קרקע,70.0,3100000,,,1999.0,,5.0,9109180368,1,7651664,False,37% ב 5.6 שנים,רעננה,הסחלב,6.61,7651-664-2,7651/664,44285.71428571428,32.1796882076,34.8567304474,2023
2023-11-01,2023-01-11,"אלכסנדר זרחין 6, רעננה",אלכסנדר זרחין 6,7657-144-203,חניה,,,,220000,,,2020.0,,10.0,9103378768,1,7657144,False,,רעננה,זרחין אלכסנדר,,7657-144-203,7657/144,,32.1940818755,34.8834591775,2023
2023-11-01,2023-01-11,"רבקה גובר 7, רעננה",רבקה גובר 7,7649-189-4,דירה בבית קומות,3.5,ראשונה,80.8,2640000,,,1995.0,,3.0,9102663854,1,7649189,False,184% ב 21.3 שנים,רעננה,גובר רבקה,8.64,7649-189-4,7649/189,32673.267326732675,32.1943684051,34.8502286491,2023
2023-11-01,2023-01-11,"משה סנה 19, רעננה",משה סנה 19,7649-186-22,דירה בבית קומות,5.5,שניה+שלישית,121.13,4900000,,,1995.0,,2.0,9103200428,1,7649186,False,67% ב 7 שנים,רעננה,סנה משה,9.57,7649-186-22,7649/186,40452.406505407416,32.194251266,34.8491176183,2023
2023-11-01,2023-01-11,"ברנר 20, רעננה",ברנר 20,6586-308-0,קרקע למגורים,,,500.0,19000000,,,2025.0,,3.0,9102769526,1,6586308,False,,רעננה,ברנר,,6586-308-0,6586/308,38000.0,32.1778410247,34.8775809676,2023
2023-10-30,2023-10-30,"השלום 15, רעננה",השלום 15,6579-322-2,קוטג' דו משפחתי,5.0,קרקע ראשונה,142.54,5800000,,,1970.0,,,9118737690,1,6579322,False,,רעננה,השלום,,6579-322-2,6579/322,40690.332538234885,32.1851865038,34.8599614829,2023
2023-10-30,2023-10-30,"עקיבא 10, רעננה",עקיבא 10,6581-369-22,דירה בבית קומות,4.0,ראשונה,113.0,6675000,,,2021.0,,5.0,9119121750,1,6581369,False,,רעננה,עקיבא,,6581-369-22,6581/369,59070.79646017699,32.1804507941,34.8808142284,2023
2023-10-30,2023-10-30,"ברנר 20, רעננה",ברנר 20,6586-308-1,דירת גן,4.0,ראשונה,84.0,3550000,,,2025.0,,3.0,9118625506,1,6586308,False,,רעננה,ברנר,,6586-308-1,6586/308,42261.90476190476,32.1778410247,34.8775809676,2023
2023-10-29,2023-10-29,"היובל 12, רעננה",היובל 12,6580-825-19,דירה בבית קומות,4.0,חמישית,89.01,2675000,,,1984.0,,6.0,9118510658,1,6580825,False,59% ב 8.4 שנים,רעננה,היובל,7.02,6580-825-19,6580/825,30052.803055836423,32.1836838073,34.8727599617,2023
2023-10-29,2023-10-29,"הגלבוע 6, רעננה",הגלבוע 6,7649-273-1,דירה בבית קומות,4.0,קרקע,84.55,3450000,,,1977.0,,4.0,9119743276,1,7649273,False,110% ב 13.4 שנים,רעננה,הגלבוע,8.21,7649-273-1,7649/273,40804.25783560024,32.1965261763,34.8498412624,2023
2023-10-29,2023-10-29,"ברנר 20, רעננה",ברנר 20,6586-308-14,,4.0,,103.0,3550000,1.0,,2025.0,,3.0,11181281520,1,6586308,False,,רעננה,ברנר,,6586-308-14,6586/308,34466.01941747573,32.1778410247,34.8775809676,2023
2023-10-25,2023-10-25,"עקיבא 9, רעננה",עקיבא 9,6581-503-3,דירה בבית קומות,4.0,ראשונה,94.6,2350000,,,1984.0,,5.0,9118336684,1,6581503,False,20% ב 7.6 שנים,רעננה,עקיבא,2.63,6581-503-3,6581/503,24841.43763213531,32.1804798961,34.880197898,2023
2023-10-24,2023-10-24,"שושנה דמארי 16, רעננה",שושנה דמארי 16,7661-163-19,דירה בבית קומות,5.0,ראשונה,119.27,3950000,,,2014.0,,6.0,9118330542,1,7661163,False,65% ב 8.3 שנים,רעננה,שושנה דמארי,7.83,7661-163-19,7661/163,33118.13532321624,32.1955520357,34.8718946024,2023
2023-10-23,2023-10-23,"אסירי ציון 23, רעננה",אסירי ציון 23,7652-291-17,דירה בבית קומות,4.0,קומה ‎0‏,91.0,2650000,,,1970.0,2024.0,5.0,9118297612,1,7652291,False,,רעננה,אסירי ציון,,7652-291-17,7652/291,29120.879120879123,32.1941047503,34.8574261956,2023
2023-10-19,2023-10-19,"הר סיני 26, רעננה",הר סיני 26,6580-651-10,דירה בבית קומות,4.0,שלישית,92.29,2800000,,,1980.0,,4.0,9119119308,1,6580651,False,,רעננה,הר סיני,,6580-651-10,6580/651,30339.148336764545,32.1856722525,34.8706317337,2023
2023-10-17,2023-10-17,"ההגנה 59, רעננה",ההגנה 59,7654-63-3,דירה בבית קומות,6.0,"מרתף ‎-1‏, קומה ‎0‏, קומה ‎1‏",233.2,6150000,,,2008.0,,1.0,9118801182,1,765463,False,78% ב 13.3 שנים,רעננה,ההגנה,5.86,7654-63-3,7654/63,26372.21269296741,32.1883098141,34.8709834341,2023
2023-10-15,2023-10-15,"אשכול 15, רעננה",אשכול 15,6586-812-8,דירה בבית קומות,4.5,שלישית+גג,101.02,3470000,,,1983.0,,3.0,9118055780,1,6586812,False,85% ב 7.6 שנים,רעננה,אשכול לוי,11.18,6586-812-8,6586/812,34349.63373589388,32.1770851643,34.8791229855,2023
2023-10-12,2023-12-10,"יאיר רוזנבלום 9, רעננה",יאיר רוזנבלום 9,7661-161-15,דירה בבית קומות,4.0,קומה ‎5‏,88.5,3550000,,,2018.0,,7.0,9120723702,1,7661161,False,,רעננה,יאיר רוזנבלום,,7661-161-15,7661/161,40112.99435028248,32.1965967915,34.8653726701,2023
2023-10-12,2023-12-10,"אלכסנדר זרחין 6, רעננה",אלכסנדר זרחין 6,7657-144-187,משרד,,שניה,61.0,740000,,,2020.0,,10.0,9121425222,1,7657144,False,,רעננה,זרחין אלכסנדר,,7657-144-187,7657/144,12131.147540983606,32.1940818755,34.8834591775,2023
2023-10-12,2023-12-10,"התקווה 20, רעננה",התקווה 20,7652-81-2,דירה בבית קומות,3.0,ראשונה,53.4,3696000,,,1960.0,,1.0,9176303548,1,765281,False,,רעננה,התקוה,,7652-81-2,7652/81,69213.48314606742,32.1959164689,34.8556517137,2023
2023-10-09,2023-09-10,"חייקה גרוסמן 5, רעננה",חייקה גרוסמן 5,7649-308-3,דירה בבית קומות,5.0,ראשונה,147.8,4200000,,,2012.0,,5.0,9117009420,1,7649308,False,56% ב 11.4 שנים,רעננה,צביה לובטקין,4.91,7649-308-3,7649/308,28416.77943166441,32.1955212038,34.8466109512,2023
2023-10-09,2023-09-10,"אחוזה 179, רעננה",אחוזה 179,6583-790-8,דירה בבית קומות,3.0,שניה,85.6,3250000,,,2001.0,,3.0,9116375832,1,6583790,False,226% ב 21.7 שנים,רעננה,אחוזה,10.41,6583-790-8,6583/790,37967.28971962617,32.1816943649,34.8674605847,2023
2023-10-09,2023-09-10,"החרצית 7, רעננה",החרצית 7,6582-504-1,דירת גן,4.0,קרקע תחתונה+קרקע עליונה,104.89,4900000,,,2002.0,,4.0,9116423488,1,6582504,False,63% ב 8 שנים,רעננה,החרצית,7.88,6582-504-1,6582/504,46715.60682619888,32.1790375009,34.8588469683,2023
2023-10-08,2023-08-10,"דגניה 11, רעננה",דגניה 11,7655-275-2,קוטג' דו משפחתי,6.0,מרתף+קרקע+ראשונה+שניה,296.0,4001000,,,1953.0,2011.0,3.0,9115826900,1,7655275,True,-19% ב 11 שנים,רעננה,דגניה,-1.73,7655-275-2,7655/275,13516.891891891892,32.1912361178,34.8804602692,2023
2023-10-08,2023-08-10,"התעשייה 8, רעננה",התעשייה 8,8981-58-0,משרד,,ראשונה,1565.0,81000,,,2021.0,,7.0,9115096224,1,898158,False,,רעננה,התעשיה,,8981-58-0,8981/58,51.75718849840256,32.196993658,34.8819092107,2023
2023-10-05,2023-05-10,"ברנר 20, רעננה",ברנר 20,6586-308-3,דירה בבית קומות,4.0,שניה,84.0,2850000,,,2025.0,,3.0,9109754904,1,6586308,False,58% ב 4.4 שנים,רעננה,ברנר,13.18,6586-308-3,6586/308,33928.57142857143,32.1778410247,34.8775809676,2023
2023-10-01,2023-01-10,"שבזי 25, רעננה",שבזי 25,7654-28-2,ללא תיכנון,,,989.0,8200000,,,,,,9104839676,1,765428,False,,רעננה,שבזי,,7654-28-2,7654/28,8291.203235591507,32.190032542,34.8677020843,2023
2023-10-01,2023-01-10,"מכבי 8, רעננה",מכבי 8,6580-140-2,דירה בבית קומות,3.0,א,78.23,1800000,,,2022.0,,3.0,9102962370,1,6580140,False,44% ב 11.6 שנים,רעננה,מכבי,3.79,6580-140-2,6580/140,23009.075802121948,32.1803755905,34.8792498976,2023
2023-10-01,2023-01-10,"הגליל 57, רעננה",הגליל 57,6580-235-23,דירה בבית קומות,5.5,רביעית,220.0,5650000,1.0,הגליל 57 רעננה,2015.0,,2.0,9105311648,1,6580235,False,,רעננה,הגליל,,6580-235-23,6580/235,25681.81818181818,32.1846837656,34.8791620499,2023
2023-10-01,2023-01-10,"אהוד מנור 22, רעננה",אהוד מנור 22,7661-100-19,דירה בבית קומות,6.0,"קומה ‎6‏, קומה ‎7‏",153.38,5300000,,,2019.0,,7.0,9102955784,1,7661100,False,,רעננה,אהוד מנור,,7661-100-19,7661/100,34554.700743252055,32.1963060151,34.8682587222,2023
2023-09-28,2023-09-28,"הגדוד העברי 12, רעננה",הגדוד העברי 12,6579-404-7,דירה בבית קומות,5.0,ראשונה,101.5,5040000,,,2023.0,,3.0,9118266532,1,6579404,False,,רעננה,הגדוד העברי,,6579-404-7,6579/404,49655.1724137931,32.1846565037,34.8661980052,2023
2023-09-28,2023-09-28,,,6578-151-48,דירה בבית קומות,5.0,חמישית,127.0,4180000,,,2022.0,,,9118271934,2,6578151,False,,רעננה,הכלנית,,6578-151-48,6578/151,32913.38582677166,,,2023
2023-09-28,2023-09-28,"מרדכי זעירא 3, רעננה",מרדכי זעירא 3,7661-149-2,דירה בבית קומות,5.0,קומה ‎1‏,128.1,4090000,,,2017.0,,6.0,9117762074,1,7661149,False,,רעננה,מרדכי זעירא,,7661-149-2,7661/149,31928.18110850898,32.1965084441,34.8630478009,2023
2023-09-28,2023-09-28,"בר אילן 24, רעננה",בר אילן 24,6580-319-12,דירה בבית קומות,4.0,ג',128.0,2450000,,,1968.0,2017.0,5.0,9117455640,1,6580319,False,251% ב 19.5 שנים,רעננה,בר אילן,12.87,6580-319-12,6580/319,19140.625,,,2023
2023-09-28,2023-09-28,"החי""ל 1, רעננה","החי""ל 1",6580-722-51,דירה בבית קומות,4.0,חמישית,122.0,3000000,1.0,קרן היסוד 19,2013.0,,8.0,9118259206,1,6580722,False,,רעננה,"החי""ל",,6580-722-51,6580/722,24590.16393442623,32.1842047947,34.870922878,2023
2023-09-28,2023-09-28,"כינרת 3, רעננה",כינרת 3,7655-311-50,דירה בבית קומות,5.0,שמינית,125.0,4062000,,,2025.0,,8.0,9117704798,1,7655311,False,,רעננה,כנרת,,7655-311-50,7655/311,32496.0,32.190545093,34.8788961247,2023
2023-09-28,2023-09-28,"אהוד מנור 11, רעננה",אהוד מנור 11,7661-169-31,דירה בבית קומות,6.0,"חמישית, שישית",167.33,6125000,,,2014.0,,5.0,9117755488,1,7661169,False,,רעננה,אהוד מנור,,7661-169-31,7661/169,36604.314826988586,32.1948996711,34.8674885174,2023
2023-09-28,2023-09-28,"ביאליק 21, רעננה",ביאליק 21,6586-686-9,דירה בבית קומות,4.0,רביעית,108.0,3550000,,,1980.0,2028.0,,9118196306,1,6586686,False,,רעננה,ביאליק,,6586-686-9,6586/686,32870.37037037037,32.1772348835,34.8798414791,2023
2023-09-28,2023-09-28,"גאולה 9, רעננה",גאולה 9,7649-139-36,דירה בבית קומות,3.0,שלישית,39.5,2697000,,,2023.0,,4.0,9117892906,1,7649139,False,,רעננה,גאולה,,7649-139-36,7649/139,68278.48101265823,32.1947592611,34.855487259,2023
2023-09-27,2023-09-27,"שפינוזה 8, רעננה",שפינוזה 8,6579-802-2,דירה בבית קומות,4.0,קרקע,112.11,4250000,,,1996.0,,4.0,9117260946,1,6579802,False,,רעננה,שפינוזה ברוך,,6579-802-2,6579/802,37909.19632503791,32.1880844248,34.8648196327,2023
2023-09-26,2023-09-26,"גאולה 9, רעננה",גאולה 9,7649-139-13,דירה בבית קומות,3.0,ראשונה,50.6,2352000,,,2023.0,,4.0,9117273082,1,7649139,False,7% ב 0.6 שנים,רעננה,גאולה,11.67,7649-139-13,7649/139,46482.213438735176,32.1947592611,34.855487259,2023
2023-09-26,2023-09-26,"מגדל 5, רעננה",מגדל 5,6579-383-1,דירה בבית קומות,4.0,ראשונה,115.6,1800000,,,1940.0,,2.0,9118184022,1,6579383,False,,רעננה,מגדל,,6579-383-1,6579/383,15570.934256055363,32.1837209491,34.8643177224,2023
2023-09-21,2023-09-21,"בר-אילן 42, רעננה",בר-אילן 42,6580-310-2,דירה בבית קומות,5.0,ראשונה,138.6,3450000,,,2016.0,,6.0,9117719450,1,6580310,False,69% ב 7 שנים,רעננה,בר אילן,9.86,6580-310-2,6580/310,24891.77489177489,32.1842085137,34.8749570288,2023
2023-09-21,2023-09-21,"כינרת 3, רעננה",כינרת 3,7655-311-54,דירה בבית קומות,4.0,שלישית,105.0,3500000,,,2025.0,,8.0,9117271898,1,7655311,False,,רעננה,כנרת,,7655-311-54,7655/311,33333.333333333336,32.190545093,34.8788961247,2023
2023-09-21,2023-09-21,"דוד רזיאל 1, רעננה",דוד רזיאל 1,6583-429-16,חניה,,,,117000,,,2026.0,,4.0,9117931830,1,6583429,False,,רעננה,רזיאל דוד,,6583-429-16,6583/429,,32.1799042413,34.8737504125,2023
2023-09-21,2023-09-21,"גאולה 11, רעננה",גאולה 11,7649-138-14,דירה בבית קומות,3.0,ראשונה,36.5,2362000,,,2023.0,,4.0,9118058148,1,7649138,False,,רעננה,גאולה,,7649-138-14,7649/138,64712.32876712329,32.1950726485,34.8554969896,2023
2023-09-21,2023-09-21,"בורוכוב 88, רעננה",בורוכוב 88,7655-291-8,דירה בבית קומות,3.0,שלישית,86.0,2920000,,,2022.0,,2.0,9117212106,1,7655291,False,,רעננה,בורוכוב,,7655-291-8,7655/291,33953.48837209302,32.1906349298,34.8785528621,2023
2023-09-21,2023-09-21,"אלי כהן 16, רעננה",אלי כהן 16,7654-120-27,דירה בבית קומות,4.0,רביעית,116.0,2520000,,,1970.0,,4.0,9117119310,1,7654120,False,153% ב 13.2 שנים,רעננה,אלי כהן,11.59,7654-120-27,7654/120,21724.13793103448,32.1873035556,34.8669370065,2023
2023-09-21,2023-09-21,"אלחריזי 9, רעננה",אלחריזי 9,7654-433-1,קוטג' חד משפחתי,8.0,ראשונה,512.0,19500000,,,2013.0,,1.0,9117939156,1,7654433,False,,רעננה,אלחריזי,,7654-433-1,7654/433,38085.9375,32.1903323171,34.8725647083,2023
2023-09-20,2023-09-20,"מכבי 51, רעננה",מכבי 51,6580-89-0,קרקע למגורים,,,998.0,20483000,,,1977.0,,3.0,9118107062,1,658089,False,,רעננה,מכבי,,6580-89-0,6580/89,20524.048096192382,32.1843205361,34.8798961311,2023
2023-09-20,2023-09-20,"עגנון 18, רעננה",עגנון 18,6583-587-7,דירה בבית קומות,3.0,שניה,88.0,2560000,,,1980.0,,6.0,9116962356,1,6583587,False,146% ב 17.3 שנים,רעננה,עגנון,8.44,6583-587-7,6583/587,29090.90909090909,32.1760578135,34.8698576843,2023
2023-09-19,2023-09-19,,,6582-336-1,ללא תיכנון,,,250.0,3840000,,,,,,9117860420,2,6582336,False,,רעננה,הורד,,6582-336-1,6582/336,15360.0,32.1802578827,34.8597994386,2023
2023-09-19,2023-09-19,"ביאליק 26, רעננה",ביאליק 26,6586-227-3,דירה בבית קומות,4.0,שניה,84.2,2500000,,,1980.0,,3.0,9118086268,1,6586227,False,60% ב 8 שנים,רעננה,ביאליק,7.5,6586-227-3,6586/227,29691.21140142518,32.1769765528,34.8793770259,2023
2023-09-19,2023-09-19,"שושנה דמארי 16, רעננה",שושנה דמארי 16,7661-163-5,דירה בבית קומות,5.0,ראשונה,129.78,3865000,,,2014.0,,6.0,9116856832,1,7661163,False,42% ב 6.2 שנים,רעננה,שושנה דמארי,6.77,7661-163-5,7661/163,29781.16813068269,32.1955520357,34.8718946024,2023
2023-09-19,2023-09-19,"קזן 17, רעננה",קזן 17,6586-873-1,קוטג' חד משפחתי,1.0,מרתף+קרקע+ראשונה,306.0,7000000,,,1987.0,,2.0,9118121714,1,6586873,False,7% ב 2.3 שנים,רעננה,קזן,3.04,6586-873-1,6586/873,22875.816993464054,32.1774923953,34.8811391384,2023
2023-09-18,2023-09-18,"כינרת 3, רעננה",כינרת 3,7655-311-56,דירה בבית קומות,4.0,שביעית,105.0,3331000,,,2025.0,,8.0,9117141880,1,7655311,False,,רעננה,כנרת,,7655-311-56,7655/311,31723.809523809523,32.190545093,34.8788961247,2023
2023-09-18,2023-09-18,"התור 7, רעננה",התור 7,7651-458-3,קוטג' דו משפחתי,5.0,ראשונה,382.0,8813000,,,1996.0,,1.0,9117977710,1,7651458,False,,רעננה,התור,,7651-458-3,7651/458,23070.68062827225,32.1921698231,34.8539092263,2023
2023-09-18,2023-09-18,"החרמון 5, רעננה",החרמון 5,7649-271-23,דירה בבית קומות,4.0,רביעית,87.2,3110000,,,1997.0,,4.0,9116851874,1,7649271,False,60% ב 7.4 שנים,רעננה,החרמון,8.11,7649-271-23,7649/271,35665.1376146789,32.1963344547,34.8485605154,2023
2023-09-14,2023-09-14,"המעפילים 1, רעננה",המעפילים 1,6579-416-3,דירה בבית קומות,5.0,ראשונה,155.0,4050000,,,2018.0,,1.0,9116693884,1,6579416,False,,רעננה,המעפילים,,6579-416-3,6579/416,26129.032258064515,32.1851228336,34.8670548993,2023
2023-09-14,2023-09-14,"ביל""ו 57, רעננה","ביל""ו 57",6582-189-2,קוטג' חד משפחתי,6.0,קרקע+ראשונה,163.28,6650000,,,1986.0,,,9117895274,1,6582189,False,,רעננה,"ביל""ו",,6582-189-2,6582/189,40727.58451739344,32.1803167407,34.8612381797,2023
2023-09-14,2023-09-14,"קלאוזנר 14, רעננה",קלאוזנר 14,6586-519-5,,4.0,ב',90.0,3100000,,,1969.0,2024.0,3.0,9117901416,1,6586519,False,222% ב 16.7 שנים,רעננה,קלאוזנר,13.29,6586-519-5,6586/519,34444.444444444445,32.1785575009,34.8750558404,2023
2023-09-13,2023-09-13,"מרדכי זעירא 5, רעננה",מרדכי זעירא 5,7661-149-22,דירה בבית קומות,4.0,קומה ‎4‏,88.5,3590000,,,2017.0,,6.0,9116622400,1,7661149,False,,רעננה,מרדכי זעירא,,7661-149-22,7661/149,40564.97175141243,32.1965084441,34.8630478009,2023
2023-09-13,2023-09-13,"רמב""ם 28, רעננה","רמב""ם 28",6586-679-12,דירה בבית קומות,4.0,שלישית,108.48,2600000,,,1980.0,,6.0,9116878070,1,6586679,False,,רעננה,"רמב""ם",,6586-679-12,6586/679,23967.55162241888,32.1778916694,34.876379747,2023
2023-09-13,2023-09-13,"התעשייה 8, רעננה",התעשייה 8,8981-58-9,משרד,,קומה ‎2‏,66.0,1400000,,,2021.0,,7.0,9116717786,1,898158,False,,רעננה,התעשיה,,8981-58-9,8981/58,21212.12121212121,32.196993658,34.8819092107,2023
2023-09-11,2023-11-09,"משה שפירא 17, רעננה",משה שפירא 17,7649-197-8,דירה בבית קומות,3.0,קרקע,82.07,3365000,,,1995.0,,2.0,9119168074,1,7649197,False,85% ב 9.9 שנים,רעננה,שפירא משה,8.59,7649-197-8,7649/197,41001.58401364689,32.192946417,34.8494551425,2023
2023-09-11,2023-11-09,"אחוזה 148, רעננה",אחוזה 148,6580-599-14,משרד,,ראשונה,,312000,,,1980.0,,4.0,9119313558,1,6580599,False,48% ב 11.9 שנים,רעננה,אחוזה,4.03,6580-599-14,6580/599,,32.1816803871,34.8709344442,2023
2023-09-10,2023-10-09,"שושנה דמארי 12, רעננה",שושנה דמארי 12,7661-107-24,דירה בבית קומות,5.0,קומה ‎2‏,132.7,4025000,,,2016.0,,8.0,9117758522,1,7661107,False,,רעננה,שושנה דמארי,,7661-107-24,7661/107,30331.57498116052,32.1949064548,34.8719575945,2023
2023-09-10,2023-10-09,"סשה ארגוב 4, רעננה",סשה ארגוב 4,7661-120-38,דירת גן,5.0,קומה ‎0‏,127.5,5900000,,,2007.0,,6.0,9117883138,1,7661120,False,,רעננה,סשה ארגוב,,7661-120-38,7661/120,46274.509803921566,32.1938064692,34.8691848325,2023
2023-09-10,2023-10-09,"החומה 4, רעננה",החומה 4,7654-452-7,דירה בבית קומות,3.0,ראשונה,78.0,2747000,,,1999.0,,3.0,9118593020,1,7654452,False,152% ב 18.4 שנים,רעננה,החומה,8.26,7654-452-7,7654/452,35217.94871794872,32.1905817672,34.8651766886,2023
2023-09-08,2023-08-09,"היובל 10, רעננה",היובל 10,6580-826-21,דירה בבית קומות,4.0,שישית,120.35,3800000,,,1983.0,,6.0,9116254990,1,6580826,False,,רעננה,היובל,,6580-826-21,6580/826,31574.57415870378,32.1831836619,34.8726083625,2023
2023-09-08,2023-08-09,"ביאליק 19, רעננה",ביאליק 19,6586-195-8,דירה בבית קומות,3.0,שישית,72.0,3100000,,,1972.0,2023.0,4.0,9114874002,1,6586195,False,,רעננה,ביאליק,,6586-195-8,6586/195,43055.55555555556,32.1774021461,34.8798881161,2023
2023-09-07,2023-07-09,"הגליל 25, רעננה",הגליל 25,6580-246-14,מחסנים,4.0,קרקע,,58000,,,2021.0,,4.0,9114520430,1,6580246,False,,רעננה,הגליל,,6580-246-14,6580/246,,32.1818604245,34.878283995,2023
2023-09-07,2023-07-09,"חפץ חיים 25, רעננה",חפץ חיים 25,6580-745-15,דירה בבית קומות,2.0,רביעית,44.1,816000,,,1960.0,,4.0,9112859352,1,6580745,False,,רעננה,חפץ חיים,,6580-745-15,6580/745,18503.401360544216,32.1854961708,34.8678812366,2023
2023-09-07,2023-07-09,"הגלים 27, רעננה",הגלים 27,6579-742-2,דירה בבית קומות,6.0,ראשונה,301.0,7400000,,,1997.0,,2.0,9113536378,1,6579742,False,,רעננה,הגלים,,6579-742-2,6579/742,24584.717607973424,32.1880385994,34.8569429131,2023
2023-09-05,2023-05-09,"ברנר 20, רעננה",ברנר 20,6586-308-10,,4.0,,97.0,2850000,1.0,,2025.0,,3.0,11181281518,1,6586308,False,,רעננה,ברנר,,6586-308-10,6586/308,29381.443298969072,32.1778410247,34.8775809676,2023
2023-09-03,2023-03-09,"מגדל 33, רעננה",מגדל 33,6579-375-4,דירת גן,2.0,קרקע,28.5,951000,,,1960.0,,,9107463790,1,6579375,False,,רעננה,מגדל,,6579-375-4,6579/375,33368.42105263158,32.1866762313,34.8652189319,2023
2023-09-03,2023-03-09,"קלאוזנר 12, רעננה",קלאוזנר 12,6586-518-8,דירה בבית קומות,4.0,ג',81.3,3940000,,,1967.0,,3.0,9106367184,1,6586518,False,182% ב 23.3 שנים,רעננה,קלאוזנר,7.81,6586-518-8,6586/518,48462.48462484625,32.1788126395,34.8751331283,2023
2023-09-03,2023-03-09,"חטיבת אלכסנדרוני 29, רעננה",חטיבת אלכסנדרוני 29,6579-640-23,דירה בבית קומות,3.0,ראשונה,100.3,2775000,,,1984.0,,10.0,9106983160,1,6579640,False,51% ב 5.8 שנים,רעננה,חטיבת אלכסנדרוני,8.79,6579-640-23,6579/640,27666.999002991022,32.1837771081,34.8631696484,2023
2023-09-02,2023-02-09,"הקישון 1, רעננה",הקישון 1,6578-518-1,דירת גן,5.0,ראשונה,115.1,4400000,,,1995.0,,3.0,9104704700,1,6578518,False,32% ב 4.7 שנים,רעננה,הקישון,6.81,6578-518-1,6578/518,38227.62814943527,32.1905680993,34.8827546509,2023
2023-09-01,2023-01-09,"ברנר 20, רעננה",ברנר 20,6586-308-22,דירה בבית קומות,4.0,חמישית,97.0,3150000,,,2025.0,,3.0,9102911680,1,6586308,False,,רעננה,ברנר,,6586-308-22,6586/308,32474.22680412371,32.1778410247,34.8775809676,2023
2023-08-31,2023-08-31,"ההגנה 95, רעננה",ההגנה 95,7654-111-3,דירה בבית קומות,4.0,ראשונה,96.0,1220000,,,1970.0,,6.0,9117207148,1,7654111,False,,רעננה,ההגנה,,7654-111-3,7654/111,12708.333333333334,32.1888717056,34.8668030242,2023
2023-08-31,2023-08-31,"יהודה בורלא 7, רעננה",יהודה בורלא 7,7654-442-4,דירה בבית קומות,4.0,ראשונה,97.4,3230000,,,1997.0,,3.0,9116032694,1,7654442,False,46% ב 7.5 שנים,רעננה,בורלא יהודה,6.13,7654-442-4,7654/442,33162.217659137576,32.1913130414,34.8645568833,2023
2023-08-30,2023-08-30,"ברנר 19, רעננה",ברנר 19,6586-551-16,דירה בבית קומות,5.0,שביעית,134.0,5377000,,,2028.0,,3.0,9116306864,1,6586551,False,,רעננה,ברנר,,6586-551-16,6586/551,40126.86567164179,32.1771441612,34.87776808,2023
2023-08-30,2023-08-30,"הגדוד העברי 26, רעננה",הגדוד העברי 26,6579-412-6,דירה בבית קומות,4.0,ראשונה,119.0,3220000,,,2026.0,,3.0,9117300610,1,6579412,False,,רעננה,הגדוד העברי,,6579-412-6,6579/412,27058.82352941177,32.1863177722,34.8666822873,2023
2023-08-30,2023-08-30,"מכבי 30, רעננה",מכבי 30,6580-129-7,דירה בבית קומות,4.0,ראשונה,79.81,3070000,,,1970.0,,4.0,9115758672,1,6580129,False,37% ב 1.7 שנים,רעננה,מכבי,21.76,6580-129-7,6580/129,38466.35759929833,32.1820043412,34.8797491638,2023
2023-08-29,2023-08-29,"רבקה גובר 8, רעננה",רבקה גובר 8,7649-205-8,דירה בבית קומות,5.0,שניה,121.72,3500000,,,1995.0,,3.0,9115875148,1,7649205,False,170% ב 18.4 שנים,רעננה,גובר רבקה,9.24,7649-205-8,7649/205,28754.518567203417,32.1944845883,34.8507363229,2023
2023-08-29,2023-08-29,"יהודה עמיחי 8, רעננה",יהודה עמיחי 8,7661-158-42,דירה בבית קומות,5.0,חמישית,130.0,4250000,,,2019.0,,5.0,9115820906,1,7661158,False,,רעננה,יהודה עמיחי,,7661-158-42,7661/158,32692.30769230769,32.1970022061,34.8645279491,2023
2023-08-28,2023-08-28,"מכבי 1, רעננה",מכבי 1,6580-1071-64,דירה בבית קומות,2.0,שישית,52.45,2000000,,,2001.0,,9.0,9115678752,1,65801071,False,123% ב 17.4 שנים,רעננה,מכבי,7.07,6580-1071-64,6580/1071,38131.55386081983,32.1800820199,34.8783805061,2023
2023-08-28,2023-08-28,"חטיבת הראל 17, רעננה",חטיבת הראל 17,6579-574-1,דירה בבית קומות,7.0,שלישית,225.0,6500000,,,1992.0,,1.0,9117353076,1,6579574,False,,רעננה,חטיבת הראל,,6579-574-1,6579/574,28888.88888888889,32.1880958663,34.8629791263,2023
2023-08-27,2023-08-27,"הפרחים 18, רעננה",הפרחים 18,6582-386-13,דירה בבית קומות,3.5,ראשונה,79.93,2850000,,,2002.0,,3.0,9115632872,1,6582386,False,245% ב 23.3 שנים,רעננה,הפרחים,10.52,6582-386-13,6582/386,35656.19917427749,32.1785825631,34.8582578533,2023
2023-08-24,2023-08-24,"ז'בוטינסקי 15, רעננה",ז'בוטינסקי 15,6583-642-9,דירה בבית קומות,5.0,שלישית,115.2,2790000,,,1980.0,,5.0,9115960692,1,6583642,False,,רעננה,ז'בוטינסקי,,6583-642-9,6583/642,24218.75,32.1785587608,34.873960475,2023
2023-08-23,2023-08-23,"חפץ חיים 54, רעננה",חפץ חיים 54,6580-531-8,קוטג' דו משפחתי,6.0,מרתף+קרקע+ראשונה,186.86,7213000,,,1996.0,,,9115477694,1,6580531,False,188% ב 14.5 שנים,רעננה,חפץ חיים,12.97,6580-531-8,6580/531,38601.0917264262,32.1861138202,34.8687342884,2023
2023-08-22,2023-08-22,"לוי אשכול 16, רעננה",לוי אשכול 16,6586-611-14,דירה בבית קומות,3.0,ראשונה,54.57,2490000,,,1970.0,,4.0,9115374686,1,6586611,False,273% ב 24.5 שנים,רעננה,אשכול לוי,11.14,6586-611-14,6586/611,45629.46673996701,32.176446372,34.8785048014,2023
2023-08-22,2023-08-22,"תל חי 5, רעננה",תל חי 5,6580-976-5,דירה בבית קומות,4.0,שניה,113.0,3550000,,,1997.0,,6.0,9116378200,1,6580976,False,65% ב 12 שנים,רעננה,תל חי,5.42,6580-976-5,6580/976,31415.929203539825,32.1822951046,34.8726063529,2023
2023-08-21,2023-08-21,"אלכסנדר זרחין 6, רעננה",אלכסנדר זרחין 6,7657-144-202,משרד,,שניה,162.0,2744000,,,2020.0,,10.0,9116329434,1,7657144,False,,רעננה,זרחין אלכסנדר,,7657-144-202,7657/144,16938.271604938273,32.1940818755,34.8834591775,2023
2023-08-21,2023-08-21,"ברנר 20, רעננה",ברנר 20,6586-308-4,דירה בבית קומות,4.0,שניה,84.0,3000000,,,2025.0,,3.0,9116237230,1,6586308,False,203% ב 17.4 שנים,רעננה,ברנר,11.67,6586-308-4,6586/308,35714.28571428572,32.1778410247,34.8775809676,2023
2023-08-21,2023-08-21,"הסייפן 5, רעננה",הסייפן 5,7650-326-8,דירה בבית קומות,4.5,ראשונה,104.77,3000000,,,1994.0,,2.0,9116882362,1,7650326,False,48% ב 7.8 שנים,רעננה,הסייפן,6.15,7650-326-8,7650/326,28634.150997422927,32.190911773,34.8501763604,2023
2023-08-20,2023-08-20,"יהודה עמיחי 2, רעננה",יהודה עמיחי 2,7661-160-9,דירה בבית קומות,5.0,רביעית,123.0,4257000,,,2018.0,,4.0,9116770252,1,7661160,False,,רעננה,יהודה עמיחי,,7661-160-9,7661/160,34609.756097560974,32.1970120315,34.8656374986,2023
2023-08-20,2023-08-20,"ברנר 22, רעננה",ברנר 22,6586-309-9,,4.0,,99.0,3000000,1.0,,1974.0,,3.0,11181281527,1,6586309,False,,רעננה,ברנר,,6586-309-9,6586/309,30303.030303030304,32.1776783217,34.8775312084,2023
2023-08-20,2023-08-20,"אלכסנדר זרחין 6, רעננה",אלכסנדר זרחין 6,7657-144-186,,1.0,שניה,162.0,3211596,1.0,בית מנצור,2020.0,,10.0,11181298701,1,7657144,False,,רעננה,זרחין אלכסנדר,,7657-144-186,7657/144,19824.666666666668,32.1940818755,34.8834591775,2023
2023-08-20,2023-08-20,"בורוכוב 20, רעננה",בורוכוב 20,6580-58-10,דירה בבית קומות,4.0,שלישית,103.94,2880000,,,1970.0,,6.0,9115403842,1,658058,False,,רעננה,בורוכוב,,6580-58-10,6580/58,27708.293246103523,32.1825371094,34.8771804269,2023
2023-08-18,2023-08-18,"הר סיני 3, רעננה",הר סיני 3,6580-187-4,דירה בבית קומות,5.0,שניה,102.83,3800000,,,1990.0,,5.0,9115297726,1,6580187,False,,רעננה,הר סיני,,6580-187-4,6580/187,36954.19624623165,32.1820583859,34.8696998052,2023
2023-08-17,2023-08-17,"היובל 7, רעננה",היובל 7,6580-863-32,דירה בבית קומות,5.0,ראשונה,115.0,2975000,,,1980.0,,5.0,9117657734,1,6580863,False,,רעננה,היובל,,6580-863-32,6580/863,25869.565217391304,32.1823447889,34.8715839164,2023
2023-08-17,2023-08-17,"שליט 2, רעננה",שליט 2,6586-1002-2,דירה בבית קומות,6.0,חמישית,254.0,4350000,,,2015.0,,1.0,9116297614,1,65861002,False,,רעננה,שליט,,6586-1002-2,6586/1002,17125.984251968504,32.1787891645,34.8807399616,2023
2023-08-17,2023-08-17,"פינס 1, רעננה",פינס 1,6583-522-2,קוטג' דו משפחתי,9.0,ראשונה,445.0,25000000,,,1980.0,2010.0,1.0,9116316632,1,6583522,False,,רעננה,פינס,,6583-522-2,6583/522,56179.77528089887,32.1769864204,34.8685964133,2023
2023-08-17,2023-08-17,"אוסטרובסקי 23, רעננה",אוסטרובסקי 23,6586-840-7,דירה בבית קומות,5.0,שניה,113.12,3700000,,,1980.0,,4.0,9115557096,1,6586840,False,,רעננה,אוסטרובסקי,,6586-840-7,6586/840,32708.62800565771,32.1771652895,34.8739537788,2023
2023-08-16,2023-08-16,"ביאליק 19, רעננה",ביאליק 19,6586-195-7,דירה בבית קומות,3.0,רביעית,90.0,3040000,,,1972.0,2023.0,4.0,9115249404,1,6586195,False,,רעננה,ביאליק,,6586-195-7,6586/195,33777.77777777778,32.1774021461,34.8798881161,2023
2023-08-15,2023-08-15,"מרדכי זעירא 5, רעננה",מרדכי זעירא 5,7661-149-16,דירה בבית קומות,4.0,קומה ‎2‏,96.1,3580000,,,2017.0,,6.0,9115337316,1,7661149,False,,רעננה,מרדכי זעירא,,7661-149-16,7661/149,37252.8616024974,32.1965084441,34.8630478009,2023
2023-08-15,2023-08-15,"ברנר 22, רעננה",ברנר 22,6586-309-2,דירה בבית קומות,4.0,ראשונה,78.2,2600000,,,1974.0,2023.0,3.0,9115131004,1,6586309,False,203% ב 19.9 שנים,רעננה,ברנר,10.2,6586-309-2,6586/309,33248.08184143222,32.1776783217,34.8775312084,2023
2023-08-14,2023-08-14,"בר-אילן 26, רעננה",בר-אילן 26,6580-1112-18,דירה בבית קומות,3.0,שלישית,59.0,2242000,,,1960.0,,3.0,9115081572,1,65801112,False,,רעננה,בר אילן,,6580-1112-18,6580/1112,38000.0,32.1828093291,34.8745531291,2023
2023-08-14,2023-08-14,"בר אילן 11, רעננה",בר אילן 11,6580-410-1,דירה בבית קומות,4.0,ראשונה,99.0,3100000,,,2021.0,,3.0,9115378904,1,6580410,False,267% ב 19.7 שנים,רעננה,בר אילן,13.55,6580-410-1,6580/410,31313.131313131315,32.1820603896,34.8735606328,2023
2023-08-14,2023-08-14,"ברנר 20, רעננה",ברנר 20,6586-308-12,,3.0,,72.0,2600000,1.0,,2025.0,,3.0,11181281519,1,6586308,False,,רעננה,ברנר,,6586-308-12,6586/308,36111.11111111111,32.1778410247,34.8775809676,2023
2023-08-13,2023-08-13,"פרץ 26, רעננה",פרץ 26,7649-57-1,קרקע למגורים,,,1005.0,1961000,,,,,,9115576706,1,764957,False,,רעננה,פרץ,,7649-57-1,7649/57,1951.2437810945275,32.1932309624,34.8548140137,2023
2023-08-12,2023-12-08,"הסייפן 2, רעננה",הסייפן 2,7650-304-1,דירה בבית קומות,4.0,קרקע,100.87,3497000,,,1994.0,,2.0,9120775724,1,7650304,False,94% ב 15.9 שנים,רעננה,הסייפן,5.91,7650-304-1,7650/304,34668.38505006444,32.1914816953,34.8506414035,2023
2023-08-11,2023-11-08,"לוי אשכול 15, רעננה",לוי אשכול 15,6586-814-4,דירה בבית קומות,4.0,שניה,85.77,2790000,,,1970.0,,3.0,9118827526,1,6586814,False,,רעננה,אשכול לוי,,6586-814-4,6586/814,32528.856243441765,32.1768779441,34.8790625497,2023
2023-08-11,2023-11-08,"יהודה הלוי 1, רעננה",יהודה הלוי 1,6583-899-5,דירה בבית קומות,6.0,שניה+שלישית,135.24,4200000,,,1990.0,,3.0,9118988698,1,6583899,False,,רעננה,יהודה הלוי,,6583-899-5,6583/899,31055.90062111801,32.1818918519,34.8666049337,2023
2023-08-10,2023-10-08,"מגדל 51, רעננה",מגדל 51,6579-366-2,דירה בבית קומות,3.0,ראשונה,53.7,2900000,,,1950.0,,2.0,9117765700,1,6579366,False,,רעננה,מגדל,,6579-366-2,6579/366,54003.72439478584,32.1884436456,34.8657526941,2023
2023-08-08,2023-08-08,"המעלות 6, רעננה",המעלות 6,6586-488-0,קרקע למגורים,,,762.0,16070000,,,2023.0,,2.0,9116118830,1,6586488,False,,רעננה,המעלות,,6586-488-0,6586/488,21089.23884514436,32.1795835872,34.874684246,2023
2023-08-08,2023-08-08,"המלאכה 2, רעננה",המלאכה 2,7656-203-33,משרד,,קומה ‎4‏,81.0,1385000,,,2009.0,,4.0,9116230496,1,7656203,False,,רעננה,המלאכה,,7656-203-33,7656/203,17098.765432098764,32.1982492116,34.8806247718,2023
2023-08-08,2023-08-08,"המלאכה 2, רעננה",המלאכה 2,7656-203-34,משרד,,קומה ‎4‏,85.0,1540000,,,2009.0,,4.0,9116233012,1,7656203,False,,רעננה,המלאכה,,7656-203-34,7656/203,18117.647058823528,32.1982492116,34.8806247718,2023
2023-08-06,2023-06-08,"הנשר 65, רעננה",הנשר 65,7650-302-7,דירה בבית קומות,4.0,שניה,102.87,3100000,,,1994.0,,4.0,9111341538,1,7650302,False,120% ב 17 שנים,רעננה,הנשר,7.06,7650-302-7,7650/302,30135.121998639057,32.1921079894,34.8505349461,2023
2023-08-06,2023-06-08,"רמב""ם 36, רעננה","רמב""ם 36",6586-989-13,דירה בבית קומות,5.0,שישית,139.0,4359000,,,1970.0,2022.0,3.0,9111916666,1,6586989,False,,רעננה,"רמב""ם",,6586-989-13,6586/989,31359.712230215828,32.177544568,34.8762640559,2023
2023-08-06,2023-06-08,"יערה 10, רעננה",יערה 10,6578-552-21,דירה בבית קומות,4.5,שישית,102.0,3150000,,,2008.0,,15.0,9111312234,1,6578552,False,,רעננה,יערה,,6578-552-21,6578/552,30882.352941176472,32.1851755826,34.88823354,2023
2023-08-05,2023-05-08,"המעלות 6, רעננה",המעלות 6,6586-488-2,חניה,,א',100.63,100000,,,2023.0,,2.0,9110146068,1,6586488,False,,רעננה,המעלות,,6586-488-2,6586/488,993.739441518434,32.1795835872,34.874684246,2023
2023-08-05,2023-05-08,"גאולה 10, רעננה",גאולה 10,7652-92-19,דירה בבית קומות,3.0,שישית,72.0,3150000,,,2021.0,,4.0,9109926880,1,765292,False,,רעננה,גאולה,,7652-92-19,7652/92,43750.0,32.1943662325,34.8562989312,2023
2023-08-03,2023-03-08,"ההגנה 87, רעננה",ההגנה 87,7654-113-3,דירה בבית קומות,4.0,ראשונה,126.0,2050000,,,1970.0,,4.0,9106204236,1,7654113,False,,רעננה,ההגנה,,7654-113-3,7654/113,16269.84126984127,32.1886170169,34.8681203309,2023
2023-08-03,2023-03-08,"החרצית 7, רעננה",החרצית 7,6582-504-2,דירה בבית קומות,4.0,קרקע תחתונה+קרקע עליונה,104.89,4150000,,,2002.0,,4.0,9106651122,1,6582504,False,,רעננה,החרצית,,6582-504-2,6582/504,39565.25884259701,32.1790375009,34.8588469683,2023
2023-08-03,2023-03-08,"דוד רזיאל 1, רעננה",דוד רזיאל 1,6583-429-21,דירה בבית קומות,3.5,שישית,81.0,3225000,,,2026.0,,4.0,9107803080,1,6583429,False,,רעננה,רזיאל דוד,,6583-429-21,6583/429,39814.81481481482,32.1799042413,34.8737504125,2023
2023-08-01,2023-01-08,"החורש 16, רעננה",החורש 16,6578-560-37,דירה בבית קומות,6.0,"שישית, שביעית",168.6,7500000,,,2010.0,,6.0,9103450844,1,6578560,False,85% ב 12.1 שנים,רעננה,החורש,7.02,6578-560-37,6578/560,44483.98576512456,32.1857095507,34.8890199576,2023
2023-08-01,2023-01-08,"ברנר 20, רעננה",ברנר 20,6586-308-7,,4.0,,97.0,3150000,1.0,,2025.0,,3.0,11181281523,1,6586308,False,,רעננה,ברנר,,6586-308-7,6586/308,32474.22680412371,32.1778410247,34.8775809676,2023
2023-08-01,2023-01-08,"אחוזה 230, רעננה",אחוזה 230,6579-600-1,דירה בבית קומות,5.0,ראשונה +שניה,135.0,4600000,,,1996.0,,4.0,9102497872,1,6579600,False,64% ב 1.5 שנים,רעננה,אחוזה,42.67,6579-600-1,6579/600,34074.07407407407,32.183726931,34.8618167224,2023
2023-07-31,2023-07-31,"גאולה 7, רעננה",גאולה 7,7649-140-34,דירה בבית קומות,4.0,שלישית,86.0,2933000,,,2023.0,,3.0,9114594282,1,7649140,False,,רעננה,גאולה,,7649-140-34,7649/140,34104.651162790695,32.194438498,34.8554493122,2023
2023-07-31,2023-07-31,"גאולה 7, רעננה",גאולה 7,7649-140-36,דירה בבית קומות,4.0,שלישית,98.0,3293000,,,2023.0,,3.0,9114799558,1,7649140,True,-13% ב 0.5 שנים,רעננה,גאולה,-26.0,7649-140-36,7649/140,33602.04081632653,32.194438498,34.8554493122,2023
2023-07-31,2023-07-31,"הפרחים 54, רעננה",הפרחים 54,7651-591-5,דירה בבית קומות,3.0,שניה,69.4,2875000,,,2000.0,,4.0,9114616260,1,7651591,False,67% ב 13.3 שנים,רעננה,הפרחים,5.04,7651-591-5,7651/591,41426.51296829971,32.1819311244,34.8542706337,2023
2023-07-31,2023-07-31,"היובל 18, רעננה",היובל 18,6580-823-12,דירה בבית קומות,5.0,שלישית,112.2,3050000,,,1987.0,,8.0,9114880588,1,6580823,False,41% ב 6.2 שנים,רעננה,היובל,6.61,6580-823-12,6580/823,27183.60071301248,32.1844536683,34.8729928282,2023
2023-07-30,2023-07-30,"הגליל 51, רעננה",הגליל 51,6580-607-14,דירה בבית קומות,6.0,קרקע,225.0,5354000,,,1970.0,2021.0,3.0,9115115020,1,6580607,False,,רעננה,הגליל,,6580-607-14,6580/607,23795.555555555555,32.1839166701,34.8789017584,2023
2023-07-25,2023-07-25,"גאולה 14, רעננה",גאולה 14,7652-87-3,דירה בבית קומות,5.0,שניה,154.0,2400000,,,1970.0,2020.0,3.0,9114093080,1,765287,False,,רעננה,גאולה,,7652-87-3,7652/87,15584.415584415585,32.1948783372,34.8563659916,2023
2023-07-25,2023-07-25,"שמריהו לוין 23, רעננה",שמריהו לוין 23,6583-388-3,דירה בבית קומות,4.0,ראשונה,88.62,2700000,,,1970.0,,4.0,9114032104,1,6583388,False,24% ב 3.4 שנים,רעננה,שמריהו לוין,7.06,6583-388-3,6583/388,30467.163168584968,32.1771162324,34.8715844617,2023
2023-07-24,2023-07-24,"אלימלך רימלט 8, רעננה",אלימלך רימלט 8,7649-262-21,דירה בבית קומות,4.0,שניה,79.0,3015000,,,1998.0,,3.0,9113980230,1,7649262,False,56% ב 6.1 שנים,רעננה,רימלט אלימלך,9.18,7649-262-21,7649/262,38164.55696202532,32.1959332819,34.8513251362,2023
2023-07-24,2023-07-24,"מנחם בגין 11, רעננה",מנחם בגין 11,7649-193-13,דירה בבית קומות,4.5,קרקע,103.71,4280000,,,1995.0,,6.0,9113980822,1,7649193,False,,רעננה,בגין מנחם,,7649-193-13,7649/193,41268.92295824896,32.1934554225,34.8502698122,2023
2023-07-23,2023-07-23,"חפץ חיים 17, רעננה",חפץ חיים 17,6580-748-48,דירה בבית קומות,5.0,שביעית,164.0,4500000,1.0,חפץ חיים 17 רעננה,1970.0,2020.0,4.0,9115290992,1,6580748,False,,רעננה,חפץ חיים,,6580-748-48,6580/748,27439.024390243903,32.1844321817,34.8674233695,2023
2023-07-20,2023-07-20,"גאולה 9, רעננה",גאולה 9,7649-139-30,דירה בבית קומות,3.0,שלישית,39.5,2522000,,,2023.0,,4.0,9114346530,1,7649139,True,-6% ב 0.5 שנים,רעננה,גאולה,-12.0,7649-139-30,7649/139,63848.10126582279,32.1947592611,34.855487259,2023
2023-07-20,2023-07-20,"בורוכוב 88, רעננה",בורוכוב 88,7655-291-10,דירה בבית קומות,5.0,חמישית,98.0,3380000,,,2022.0,,2.0,9114157238,1,7655291,False,,רעננה,בורוכוב,,7655-291-10,7655/291,34489.795918367345,32.1906349298,34.8785528621,2023
2023-07-19,2023-07-19,"ברל כצנלסון 88, רעננה",ברל כצנלסון 88,7655-192-2,ללא תיכנון,,ראשונה,94.5,3534000,,,,,1.0,9114916108,1,7655192,False,8% ב 1.7 שנים,רעננה,כצנלסון ברל,4.71,7655-192-2,7655/192,37396.8253968254,32.1919245301,34.8748140795,2023
2023-07-19,2023-07-19,"גאולה 9, רעננה",גאולה 9,7649-139-11,דירה בבית קומות,3.0,ראשונה,36.5,2627000,,,2023.0,,4.0,9114530272,1,7649139,False,,רעננה,גאולה,,7649-139-11,7649/139,71972.60273972603,32.1947592611,34.855487259,2023
2023-07-19,2023-07-19,"סאלד 36, רעננה",סאלד 36,6586-383-2,דירה בבית קומות,5.0,ראשונה,276.0,3175000,,,1991.0,,2.0,9114552250,1,6586383,False,,רעננה,סולד,,6586-383-2,6586/383,11503.623188405798,32.1755119569,34.8811102676,2023
2023-07-19,2023-07-19,"הפרחים 28, רעננה",הפרחים 28,7651-616-7,דירה בבית קומות,4.0,שניה,89.75,3520000,,,2000.0,,5.0,9114022262,1,7651616,False,90% ב 10.4 שנים,רעננה,הפרחים,8.65,7651-616-7,7651/616,39220.055710306406,32.1790820194,34.8562382747,2023
2023-07-19,2023-07-19,"עקיבא 13, רעננה",עקיבא 13,6581-351-24,דירה בבית קומות,4.0,שישית,90.2,3325000,,,1970.0,,7.0,9113897720,1,6581351,False,127% ב 16 שנים,רעננה,עקיבא,7.94,6581-351-24,6581/351,36862.527716186254,32.1809250573,34.8802003421,2023
2023-07-19,2023-07-19,"יעקב אורלנד 8, רעננה",יעקב אורלנד 8,7661-167-72,דירה בבית קומות,5.0,שניה,133.27,4148000,,,2014.0,,6.0,9114992920,1,7661167,False,,רעננה,סשה ארגוב,,7661-167-72,7661/167,31124.78427252945,32.1938025935,34.8665569746,2023
2023-07-19,2023-07-19,"גאולה 11, רעננה",גאולה 11,7649-138-9,דירה בבית קומות,3.0,ראשונה,39.5,2487000,,,2023.0,,4.0,9114361034,1,7649138,False,,רעננה,גאולה,,7649-138-9,7649/138,62962.0253164557,32.1950726485,34.8554969896,2023
2023-07-18,2023-07-18,"מגדל 39, רעננה",מגדל 39,6579-372-4,דירה בבית קומות,2.0,קרקע,28.5,951000,,,1960.0,,,9114369618,1,6579372,False,,רעננה,מגדל,,6579-372-4,6579/372,33368.42105263158,32.1871010464,34.8653462293,2023
2023-07-18,2023-07-18,"היובל 7, רעננה",היובל 7,6580-863-27,דירה בבית קומות,5.0,רביעית,115.0,2370000,,,1980.0,,5.0,9114245668,1,6580863,False,,רעננה,היובל,,6580-863-27,6580/863,20608.695652173912,32.1823447889,34.8715839164,2023
2023-07-18,2023-07-18,"אלכסנדר זרחין 4, רעננה",אלכסנדר זרחין 4,7657-153-51,משרד,,שביעית,171.0,3300000,,,2018.0,,8.0,9114109656,1,7657153,False,,רעננה,זרחין אלכסנדר,,7657-153-51,7657/153,19298.245614035088,32.1936553899,34.8834300103,2023
2023-07-18,2023-07-18,"הרצל 37, רעננה",הרצל 37,6583-81-1,קוטג' דו משפחתי,6.0,מרתף+קרקע+ראשונה,255.15,8000000,,,1991.0,,2.0,9114792824,1,658381,False,197% ב 20.1 שנים,רעננה,הרצל,9.8,6583-81-1,6583/81,31354.1054281795,32.1786055824,34.8684435259,2023
2023-07-18,2023-07-18,"אחד העם 2, רעננה",אחד העם 2,6581-365-5,דירה בבית קומות,5.0,"ג,ד,",93.76,3000000,,,1981.0,,3.0,9113508850,1,6581365,False,,רעננה,אחד העם,,6581-365-5,6581/365,31996.58703071672,32.1791868416,34.8830525684,2023
2023-07-17,2023-07-17,"קרן היסוד 7, רעננה",קרן היסוד 7,6580-717-27,דירה בבית קומות,4.0,חמישית,127.0,3500000,1.0,התמר קרן היסוד,1974.0,2021.0,4.0,9114237158,1,6580717,False,,רעננה,קרן היסוד,,6580-717-27,6580/717,27559.055118110235,32.1827198569,34.8703077198,2023
2023-07-17,2023-07-17,"ביאליק 3, רעננה",ביאליק 3,6586-238-1,משרד,3.0,א,72.84,1694000,,,1950.0,,3.0,9114949186,1,6586238,False,92% ב 0.5 שנים,רעננה,ביאליק,184.0,6586-238-1,6586/238,23256.452498627128,32.1788566994,34.880332243,2023
2023-07-17,2023-07-17,"גאולה 9, רעננה",גאולה 9,7649-139-10,דירה בבית קומות,3.0,ראשונה,39.5,2532000,,,2023.0,,4.0,9114266462,1,7649139,False,,רעננה,גאולה,,7649-139-10,7649/139,64101.26582278481,32.1947592611,34.855487259,2023
2023-07-17,2023-07-17,"משה דיין 46, רעננה",משה דיין 46,6582-279-1,דירה בבית קומות,5.0,ראשונה,111.5,4350000,,,1999.0,,4.0,9113384382,1,6582279,False,197% ב 22.2 שנים,רעננה,דיין משה,8.87,6582-279-1,6582/279,39013.4529147982,32.1779624984,34.8620061313,2023
2023-07-16,2023-07-16,"גאולה 7, רעננה",גאולה 7,7649-140-30,דירה בבית קומות,4.0,שלישית,86.0,2803000,,,2023.0,,3.0,9114337280,1,7649140,False,,רעננה,גאולה,,7649-140-30,7649/140,32593.023255813958,32.194438498,34.8554493122,2023
2023-07-16,2023-07-16,"חנקין 30, רעננה",חנקין 30,6580-271-15,דירה בבית קומות,2.0,שביעית,62.0,2250000,,,1979.0,2024.0,5.0,9113452166,1,6580271,False,,רעננה,חנקין,,6580-271-15,6580/271,36290.32258064516,32.1824546195,34.8778352856,2023
2023-07-13,2023-07-13,"גאולה 11, רעננה",גאולה 11,7649-138-45,דירה בבית קומות,3.0,רביעית,50.6,2692000,,,2023.0,,4.0,9113808032,1,7649138,False,,רעננה,גאולה,,7649-138-45,7649/138,53201.581027667984,32.1950726485,34.8554969896,2023
2023-07-13,2023-07-13,"משה סנה 5, רעננה",משה סנה 5,7649-207-9,דירה בבית קומות,5.0,שניה שלישית,126.58,5200000,,,1994.0,,4.0,9113174814,1,7649207,False,126% ב 14.3 שנים,רעננה,סנה משה,8.81,7649-207-9,7649/207,41080.73945331016,32.1945536426,34.851414615,2023
2023-07-13,2023-07-13,"מגדל 38, רעננה",מגדל 38,6579-387-1,דירה בבית קומות,2.0,ראשונה,36.0,763000,,,1950.0,,2.0,9113306830,1,6579387,False,,רעננה,מגדל,,6579-387-1,6579/387,21194.444444444445,32.1865092482,34.8655631916,2023
2023-07-13,2023-07-13,"קזן 7, רעננה",קזן 7,6586-401-2,דירה בבית קומות,3.5,א',71.0,2790000,,,1970.0,,3.0,9113394742,1,6586401,False,64% ב 3 שנים,רעננה,קזן,21.33,6586-401-2,6586/401,39295.77464788732,32.1781968469,34.8815013119,2023
2023-07-11,2023-11-07,"קצין 31, רעננה",קצין 31,6587-131-1,דירה בבית קומות,9.0,ראשונה,634.0,18451000,,,2007.0,,1.0,9119687036,1,6587131,False,,רעננה,קצין,,6587-131-1,6587/131,29102.523659305996,32.1760566873,34.8832118485,2023
2023-07-11,2023-11-07,"הרצוג 16, רעננה",הרצוג 16,6583-371-13,דירה בבית קומות,5.0,שישית,135.0,3250000,,,1970.0,2024.0,4.0,9118795114,1,6583371,False,,רעננה,הרצוג,,6583-371-13,6583/371,24074.074074074077,32.179984112,34.8731846254,2023
2023-07-09,2023-09-07,"לוי אשכול 16, רעננה",לוי אשכול 16,6586-611-20,דירה בבית קומות,4.0,קומה ‎0‏,91.0,3000000,,,1970.0,2025.0,4.0,9117664468,1,6586611,True,-25% ב 0.3 שנים,רעננה,אשכול לוי,-83.33,6586-611-20,6586/611,32967.03296703297,32.176446372,34.8785048014,2023
2023-07-09,2023-09-07,"גאולה 9, רעננה",גאולה 9,7649-139-16,דירה בבית קומות,3.0,שניה,39.5,2823000,,,2023.0,,4.0,9116445984,1,7649139,False,,רעננה,גאולה,,7649-139-16,7649/139,71468.35443037975,32.1947592611,34.855487259,2023
2023-07-09,2023-09-07,"כינרת 3, רעננה",כינרת 3,7655-311-64,דירה בבית קומות,3.0,שלישית,81.0,3000000,,,2025.0,,8.0,9117162082,1,7655311,False,,רעננה,כנרת,,7655-311-64,7655/311,37037.03703703704,32.190545093,34.8788961247,2023
2023-07-09,2023-09-07,"אוסטרובסקי 37, רעננה",אוסטרובסקי 37,6583-386-14,דירה בבית קומות,4.0,רביעית,110.4,2970000,,,1981.0,,5.0,9116573042,1,6583386,False,174% ב 19.5 שנים,רעננה,אוסטרובסקי,8.92,6583-386-14,6583/386,26902.17391304348,32.1775931458,34.8713516151,2023
2023-07-08,2023-08-07,"הכוכב 9, רעננה",הכוכב 9,6579-457-1,קוטג' דו משפחתי,6.0,קרקע וראשונה,172.03,7677000,,,1980.0,,,9114881180,1,6579457,False,,רעננה,הכוכב,,6579-457-1,6579/457,44625.93733651107,32.1850694624,34.8568727401,2023
2023-07-08,2023-08-07,"אלכסנדר זרחין 10, רעננה",אלכסנדר זרחין 10,8981-13-36,משרד,,קומה ‎2‏,52.4,950000,,,1999.0,,5.0,9116063182,1,898113,False,71% ב 12.4 שנים,רעננה,זרחין אלכסנדר,5.73,8981-13-36,8981/13,18129.77099236641,32.1952442064,34.883360127,2023
2023-07-06,2023-06-07,"הרימון 7, רעננה",הרימון 7,7651-173-2,קרקע למגורים,,א',95.0,6300000,,,2000.0,,1.0,9111730408,1,7651173,False,,רעננה,הרמון,,7651-173-2,7651/173,66315.78947368421,32.1897487661,34.8565254149,2023
2023-07-06,2023-06-07,"אחוזה 42, רעננה",אחוזה 42,6581-648-3,ללא תיכנון,,,,1358000,,,,,1.0,9112843368,1,6581648,False,,רעננה,אחוזה,,6581-648-3,6581/648,,32.1788689379,34.8837960561,2023
2023-07-06,2023-06-07,"מרדכי זעירא 5, רעננה",מרדכי זעירא 5,7661-149-23,דירה בבית קומות,5.0,קומה ‎4‏,120.0,4200000,,,2017.0,,6.0,9111546666,1,7661149,False,,רעננה,מרדכי זעירא,,7661-149-23,7661/149,35000.0,32.1965084441,34.8630478009,2023
2023-07-05,2023-05-07,"הל""ה 12, רעננה","הל""ה 12",6579-490-22,דירה בבית קומות,6.0,שישית + גג,135.58,4500000,,,1994.0,,7.0,9109614526,1,6579490,False,,רעננה,"הל""ה",,6579-490-22,6579/490,33190.73609676943,32.1851323895,34.8629054133,2023
2023-07-02,2023-02-07,"תל חי 23, רעננה",תל חי 23,6580-429-5,ללא תיכנון,,שלישית וגג,99.59,300000,,,1970.0,,4.0,9106065116,1,6580429,False,,רעננה,תל חי,,6580-429-5,6580/429,3012.350637614218,32.1852390798,34.8736802742,2023
2023-06-29,2023-06-29,"אחוזה 49, רעננה",אחוזה 49,6587-94-14,דירה בבית קומות,2.5,חמישית,49.0,1960000,,,1970.0,2027.0,3.0,9114244484,1,658794,False,,רעננה,אחוזה,,6587-94-14,6587/94,40000.0,32.1783416288,34.8829572266,2023
2023-06-29,2023-06-29,"גאולה 9, רעננה",גאולה 9,7649-139-45,דירה בבית קומות,3.0,רביעית,50.6,2654000,,,2023.0,,4.0,9113662104,1,7649139,False,268% ב 14.9 שנים,רעננה,גאולה,17.99,7649-139-45,7649/139,52450.592885375496,32.1947592611,34.855487259,2023
2023-06-29,2023-06-29,"הגדוד העברי 12, רעננה",הגדוד העברי 12,6579-404-18,דירה בבית קומות,4.0,שלישית,108.5,4157000,,,2023.0,,3.0,9113822684,1,6579404,False,77% ב 3.8 שנים,רעננה,הגדוד העברי,20.26,6579-404-18,6579/404,38313.36405529954,32.1846565037,34.8661980052,2023
2023-06-29,2023-06-29,"השומר 6, רעננה",השומר 6,7655-144-2,קוטג' חד משפחתי,1.0,ראשונה,591.0,20500000,,,1990.0,,2.0,9113676164,1,7655144,False,,רעננה,השומר,,7655-144-2,7655/144,34686.971235194585,32.1869485366,34.8776277145,2023
2023-06-29,2023-06-29,"החורשה 61, רעננה",החורשה 61,6586-618-4,קוטג' דו משפחתי,6.0,"קרקע,א,ב",142.0,4200000,,,1970.0,,2.0,9112538784,1,6586618,False,,רעננה,החורשה,,6586-618-4,6586/618,29577.464788732395,32.1750171033,34.8762590376,2023
2023-06-28,2023-06-28,"יערה 9, רעננה",יערה 9,6581-662-2,קוטג' דו משפחתי,6.0,מרתף+קרקע+ראשונה,208.6,7550000,,,1985.0,,,9113204858,1,6581662,False,75% ב 6.5 שנים,רעננה,יערה,11.54,6581-662-2,6581/662,36193.67209971237,32.1841779999,34.8881105389,2023
2023-06-28,2023-06-28,"הרצל 73, רעננה",הרצל 73,6583-100-2,קוטג' חד משפחתי,8.0,ראשונה,315.0,14821000,,,1990.0,,2.0,9112407508,1,6583100,False,,רעננה,הרצל,,6583-100-2,6583/100,47050.79365079365,32.1759797155,34.8676363296,2023
2023-06-28,2023-06-28,"רבקה גובר 12, רעננה",רבקה גובר 12,7649-198-15,דירה בבית קומות,3.0,קרקע,82.82,3300000,,,1995.0,,3.0,9112667544,1,7649198,False,214% ב 21.3 שנים,רעננה,גובר רבקה,10.05,7649-198-15,7649/198,39845.447959430094,32.1953011394,34.8505746699,2023
2023-06-27,2023-06-27,"יערה 18, רעננה",יערה 18,6578-659-2,דירה בבית קומות,5.0,שלישית,138.0,5400000,,,2022.0,,,9112748130,1,6578659,False,,רעננה,יערה,,6578-659-2,6578/659,39130.434782608696,32.184990859,34.8869380547,2023
2023-06-26,2023-06-26,"רמב""ם 76, רעננה","רמב""ם 76",6586-44-4,קוטג' דו משפחתי,6.0,ראשונה,438.0,10427000,,,2016.0,,1.0,9113507666,1,658644,False,,רעננה,"רמב""ם",,6586-44-4,6586/44,23805.93607305936,32.1747733077,34.8754318667,2023
2023-06-26,2023-06-26,"עקיבא 13, רעננה",עקיבא 13,6581-351-15,דירה בבית קומות,3.0,רביעית,67.8,2540000,,,1970.0,,7.0,9112709798,1,6581351,False,41% ב 4.9 שנים,רעננה,עקיבא,8.37,6581-351-15,6581/351,37463.12684365782,32.1809250573,34.8802003421,2023
2023-06-25,2023-06-25,"הגדוד העברי 26, רעננה",הגדוד העברי 26,6579-412-9,דירה בבית קומות,3.0,שניה,80.0,2800000,,,2026.0,,3.0,9112797636,1,6579412,True,-8% ב 2.9 שנים,רעננה,הגדוד העברי,-2.76,6579-412-9,6579/412,35000.0,32.1863177722,34.8666822873,2023
2023-06-22,2023-06-22,"עקיבא 49, רעננה",עקיבא 49,6581-787-5,קרקע למגורים,,"מרתף ‎-1‏, קומה ‎0‏, קומה ‎1‏",270.97,6515000,,,1979.0,,2.0,9113555100,1,6581787,True,-27% ב 1.5 שנים,רעננה,עקיבא,-18.0,6581-787-5,6581/787,24043.252020518878,32.1843165226,34.8814539099,2023
2023-06-22,2023-06-22,"התאנה 1, רעננה",התאנה 1,7651-238-2,קוטג' דו משפחתי,6.0,ראשונה,214.0,7000000,,,1988.0,,2.0,9112113802,1,7651238,False,,רעננה,התאנה,,7651-238-2,7651/238,32710.28037383177,32.1926268605,34.8560856332,2023
2023-06-21,2023-06-21,"כינרת 3, רעננה",כינרת 3,7655-311-66,דירה בבית קומות,4.0,רביעית,105.0,3425000,,,2025.0,,8.0,9112414242,1,7655311,False,,רעננה,כנרת,,7655-311-66,7655/311,32619.04761904762,32.190545093,34.8788961247,2023
2023-06-20,2023-06-20,"הגדוד העברי 3, רעננה",הגדוד העברי 3,6579-507-18,דירה בבית קומות,5.0,שניה,113.89,3300000,,,1980.0,,3.0,9112208448,1,6579507,False,46% ב 5.9 שנים,רעננה,הגדוד העברי,7.8,6579-507-18,6579/507,28975.327069979805,32.1830895648,34.8649741071,2023
2023-06-20,2023-06-20,"כינרת 3, רעננה",כינרת 3,7655-311-68,דירה בבית קומות,4.0,שלישית,104.0,3390000,,,2025.0,,8.0,9112350158,1,7655311,False,,רעננה,כנרת,,7655-311-68,7655/311,32596.153846153848,32.190545093,34.8788961247,2023
2023-06-19,2023-06-19,"גאולה 11, רעננה",גאולה 11,7649-138-10,דירה בבית קומות,3.0,ראשונה,39.5,2377000,,,2023.0,,4.0,9112281190,1,7649138,False,53% ב 2.5 שנים,רעננה,גאולה,21.2,7649-138-10,7649/138,60177.215189873416,32.1950726485,34.8554969896,2023
2023-06-19,2023-06-19,"נחמיה 15, רעננה",נחמיה 15,7654-76-1,ללא תיכנון,,ראשונה,40.9,3000000,,,1950.0,,,9113337910,1,765476,True,-34% ב 2.2 שנים,רעננה,נחמיה,-15.45,7654-76-1,7654/76,73349.63325183374,32.1871389578,34.8705925964,2023
2023-06-18,2023-06-18,"אלכסנדר זרחין 4, רעננה",אלכסנדר זרחין 4,7657-153-52,משרד,,תשיעית,3446.0,57500000,,,2018.0,,8.0,9113049088,1,7657153,False,,רעננה,זרחין אלכסנדר,,7657-153-52,7657/153,16686.01276842716,32.1936553899,34.8834300103,2023
2023-06-16,2023-06-16,"מכבי 8, רעננה",מכבי 8,6580-140-0,מחסנים,,ראשונה,999.0,50000,,,2022.0,,3.0,9112107660,1,6580140,False,,רעננה,מכבי,,6580-140-0,6580/140,50.05005005005005,32.1803755905,34.8792498976,2023
2023-06-15,2023-06-15,"יערה 8, רעננה",יערה 8,6578-553-18,דירה בבית קומות,6.0,"שלישית, קרקע תחתונה",131.6,4650000,,,2009.0,,5.0,9113100370,1,6578553,False,,רעננה,יערה,,6578-553-18,6578/553,35334.346504559275,32.1847503564,34.8881623354,2023
2023-06-15,2023-06-15,"ביאליק 41, רעננה",ביאליק 41,6586-184-2,דירה בבית קומות,6.0,"קרקע,א',ב'",223.75,5150000,,,1960.0,,3.0,9111810402,1,6586184,False,110% ב 15.4 שנים,רעננה,ביאליק,7.14,6586-184-2,6586/184,23016.759776536317,32.1755842713,34.8793300298,2023
2023-06-15,2023-06-15,"אוסטרובסקי 10, רעננה",אוסטרובסקי 10,6586-1007-28,דירה בבית קומות,4.0,שישית,102.0,3450000,,,2019.0,,7.0,9112673020,1,65861007,False,,רעננה,אוסטרובסקי,,6586-1007-28,6586/1007,33823.529411764706,32.1771164,34.8761318491,2023
2023-06-15,2023-06-15,"אחד העם 3, רעננה",אחד העם 3,6581-803-40,דירה בבית קומות,4.0,שביעית שמינית,103.5,3180000,,,2002.0,,7.0,9112658960,1,6581803,False,80% ב 20.5 שנים,רעננה,אחד העם,3.9,6581-803-40,6581/803,30724.63768115942,32.1793555109,34.8821482038,2023
2023-06-15,2023-06-15,"יפה אליעזר 15, רעננה",יפה אליעזר 15,6580-285-16,דירה בבית קומות,3.0,ג',59.5,2580000,,,2024.0,,4.0,9112497270,1,6580285,False,169% ב 14.1 שנים,רעננה,יפה אליעזר,11.99,6580-285-16,6580/285,43361.34453781512,32.1819819409,34.874902767,2023
2023-06-15,2023-06-15,"הלוטוס 19, רעננה",הלוטוס 19,7651-615-3,דירת גן,5.0,דירה + מחסן,106.72,5400000,,,2000.0,,5.0,9112781060,1,7651615,False,52% ב 5.2 שנים,רעננה,הלוטוס,10.0,7651-615-3,7651/615,50599.70014992504,32.1792932585,34.8563775879,2023
2023-06-13,2023-06-13,"החורשה 43, רעננה",החורשה 43,6586-910-2,קוטג' חד משפחתי,6.0,מרתף+קרקע+ראשונה,237.0,6585000,,,2001.0,,3.0,9112091824,1,6586910,False,209% ב 19.3 שנים,רעננה,החורשה,10.83,6586-910-2,6586/910,27784.81012658228,32.1744784521,34.8778824397,2023
2023-06-13,2023-06-13,"ביאליק 6, רעננה",ביאליק 6,6586-590-11,דירה בבית קומות,5.0,3,119.0,3230000,,,1974.0,,3.0,9111607790,1,6586590,False,277% ב 14.2 שנים,רעננה,ביאליק,19.51,6586-590-11,6586/590,27142.85714285714,32.1785365443,34.8798510455,2023
2023-06-13,2023-06-13,"הדס 3, רעננה",הדס 3,6578-484-23,דירה בבית קומות,4.0,שניה + קרקע,92.08,2820000,,,1997.0,,,9112203638,1,6578484,False,47% ב 7.7 שנים,רעננה,הדס,6.1,6578-484-23,6578/484,30625.54300608167,32.1896802121,34.8848158509,2023
2023-06-13,2023-06-13,"ביל""ו 44, רעננה","ביל""ו 44",6582-207-1,קוטג' דו משפחתי,6.0,"קרקע,ראשונה+גג",149.87,5585000,,,1983.0,,,9112455090,1,6582207,False,,רעננה,"ביל""ו",,6582-207-1,6582/207,37265.63021285114,32.1804282047,34.8636166489,2023
2023-06-11,2023-11-06,"ההגנה 33, רעננה",ההגנה 33,7655-40-3,קרקע למגורים,,,291.0,820000,,,2021.0,,1.0,9119953880,1,765540,False,,רעננה,ההגנה,,7655-40-3,7655/40,2817.86941580756,32.1879988361,34.8743262348,2023
2023-06-11,2023-11-06,"קזן 5, רעננה",קזן 5,6586-402-3,דירה בבית קומות,3.0,ראשונה,68.0,2700000,,,1970.0,,3.0,9119161488,1,6586402,False,53% ב 8.2 שנים,רעננה,קזן,6.46,6586-402-3,6586/402,39705.882352941175,32.1782184272,34.881178818,2023
2023-06-09,2023-09-06,"רבוצקי 45, רעננה",רבוצקי 45,6581-745-2,קוטג' דו משפחתי,6.0,קרקע+ראשונה,163.0,5240000,,,1994.0,,2.0,9116251882,1,6581745,False,,רעננה,רבוצקי,,6581-745-2,6581/745,32147.23926380368,32.182603402,34.8854055186,2023
2023-06-08,2023-08-06,"הגדוד העברי 22, רעננה",הגדוד העברי 22,6579-401-10,דירה בבית קומות,2.0,שניה,68.0,2020000,,,2022.0,,3.0,9116087010,1,6579401,False,,רעננה,הגדוד העברי,,6579-401-10,6579/401,29705.88235294117,32.1857967937,34.8665524765,2023
2023-06-08,2023-08-06,"חנקין 17, רעננה",חנקין 17,6580-892-14,ללא תיכנון,4.0,רביעית,102.0,75000,,,1980.0,,5.0,9115462598,1,6580892,False,,רעננה,חנקין,,6580-892-14,6580/892,735.2941176470588,32.1820083332,34.8770159482,2023
2023-06-08,2023-08-06,"משה וילנסקי 46, רעננה",משה וילנסקי 46,7661-175-19,דירת גן,5.0,קומה ‎0‏,123.0,5130000,,,2016.0,,7.0,9114889838,1,7661175,False,,רעננה,משה וילנסקי,,7661-175-19,7661/175,41707.31707317073,32.1951885221,34.8652642681,2023
2023-06-07,2023-07-06,,,6578-151-47,משרד,,ראשונה,,303000,,,2023.0,,,9112835450,2,6578151,False,,רעננה,הכלנית,,6578-151-47,6578/151,,,,2023
2023-06-06,2023-06-06,"ברוך שפינוזה 4, רעננה",ברוך שפינוזה 4,6579-798-6,דירה בבית קומות,4.0,קרקע תחתונה+ ראשונה,102.0,3460000,,,2001.0,,4.0,9111223212,1,6579798,False,60% ב 11 שנים,רעננה,שפינוזה ברוך,5.45,6579-798-6,6579/798,33921.56862745098,32.1888034631,34.8650414804,2023
2023-06-06,2023-06-06,"היובל 18, רעננה",היובל 18,6580-823-31,דירה בבית קומות,4.0,שלישית,80.8,2520000,,,1987.0,,8.0,9111224322,1,6580823,False,207% ב 23.4 שנים,רעננה,היובל,8.85,6580-823-31,6580/823,31188.118811881188,32.1844536683,34.8729928282,2023
2023-06-03,2023-03-06,"אחוזה 148, רעננה",אחוזה 148,6580-599-4,חנות,,קרקע+ביניים,51.5,1040000,,,1980.0,,4.0,9108213484,1,6580599,False,20% ב 7.1 שנים,רעננה,אחוזה,2.82,6580-599-4,6580/599,20194.174757281555,32.1816803871,34.8709344442,2023
2023-06-02,2023-02-06,"העיט 1, רעננה",העיט 1,7650-328-6,דירה בבית קומות,4.0,שלישית,82.5,3200000,,,2006.0,,,9105375806,1,7650328,False,65% ב 10.9 שנים,רעננה,העיט,5.96,7650-328-6,7650/328,38787.878787878784,32.1903767879,34.8498261839,2023
2023-06-02,2023-02-06,"גאולה 10, רעננה",גאולה 10,7652-92-4,דירה בבית קומות,1.0,ראשונה,22.6,784000,,,2021.0,,4.0,9104618712,1,765292,False,,רעננה,גאולה,,7652-92-4,7652/92,34690.265486725664,32.1943662325,34.8562989312,2023
2023-05-31,2023-05-31,"הגדוד העברי 26, רעננה",הגדוד העברי 26,6579-412-4,דירה בבית קומות,3.0,ראשונה,82.0,2370000,,,2026.0,,3.0,9111123534,1,6579412,False,,רעננה,הגדוד העברי,,6579-412-4,6579/412,28902.439024390245,32.1863177722,34.8666822873,2023
2023-05-31,2023-05-31,"אוסטרובסקי 31, רעננה",אוסטרובסקי 31,6583-392-0,קרקע למגורים,,,1402.0,20960000,,,1970.0,,4.0,9111967356,1,6583392,False,,רעננה,אוסטרובסקי,,6583-392-0,6583/392,14950.071326676178,32.1774059911,34.8726679682,2023
2023-05-30,2023-05-30,,,6582-207-4,קרקע למגורים,,"קרקע,ראשונה",128.82,7500000,,,,,,9112340390,2,6582207,False,,רעננה,"ביל""ו",,6582-207-4,6582/207,58220.77317186773,32.1804282047,34.8636166489,2023
2023-05-30,2023-05-30,"התבור 8, רעננה",התבור 8,7649-275-13,דירה בבית קומות,4.0,קרקע,84.55,3233000,,,1998.0,,4.0,9110822576,1,7649275,False,,רעננה,התבור,,7649-275-13,7649/275,38237.72915434654,32.1965387307,34.8512627308,2023
2023-05-30,2023-05-30,"אחוזה 51, רעננה",אחוזה 51,6587-412-12,דירה בבית קומות,5.0,קומה ‎6‏,137.0,5000000,,,2018.0,,7.0,9111014384,1,6587412,False,,רעננה,אחוזה,,6587-412-12,6587/412,36496.3503649635,32.178396945,34.882759165,2023
2023-05-30,2023-05-30,"מגדל 37, רעננה",מגדל 37,6579-373-1,דירת גן,2.0,קרקע,28.5,1103000,,,1960.0,,,9111764152,1,6579373,False,,רעננה,מגדל,,6579-373-1,6579/373,38701.75438596492,32.1869596708,34.8653024146,2023
2023-05-30,2023-05-30,"מגדל 32, רעננה",מגדל 32,6579-362-1,ללא תיכנון,,,500.0,10668000,,,,,,9115463190,1,6579362,False,,רעננה,מגדל,,6579-362-1,6579/362,21336.0,32.1855059832,34.8652619384,2023
2023-05-30,2023-05-30,"תל חי 24, רעננה",תל חי 24,6580-445-0,ללא תיכנון,,,1002.0,5000000,,,1970.0,,3.0,9112466116,1,6580445,False,,רעננה,תל חי,,6580-445-0,6580/445,4990.0199600798405,32.1851882224,34.8740665264,2023
2023-05-29,2023-05-29,"משה שפירא 1, רעננה",משה שפירא 1,7649-215-12,דירה בבית קומות,3.5,קרקע,84.94,3200000,,,1995.0,,2.0,9110905086,1,7649215,False,80% ב 7.5 שנים,רעננה,שפירא משה,10.67,7649-215-12,7649/215,37673.651989639744,32.1931156259,34.8519025421,2023
2023-05-24,2023-05-24,"מרדכי זעירא 5, רעננה",מרדכי זעירא 5,7661-149-14,דירה בבית קומות,5.0,קומה ‎1‏,127.9,4050000,,,2017.0,,6.0,9110524652,1,7661149,False,,רעננה,מרדכי זעירא,,7661-149-14,7661/149,31665.363565285377,32.1965084441,34.8630478009,2023
2023-05-24,2023-05-24,"מרדכי זעירא 5, רעננה",מרדכי זעירא 5,7661-149-20,דירה בבית קומות,5.0,קומה ‎3‏,127.9,4170000,,,2017.0,,6.0,9110525836,1,7661149,False,,רעננה,מרדכי זעירא,,7661-149-20,7661/149,32603.59655981235,32.1965084441,34.8630478009,2023
2023-05-24,2023-05-24,"רמב""ם 22, רעננה","רמב""ם 22",6586-764-4,דירה בבית קומות,4.0,ראשונה,108.52,2650000,,,1975.0,,7.0,9111206636,1,6586764,False,31% ב 1.7 שנים,רעננה,"רמב""ם",18.24,6586-764-4,6586/764,24419.46185035017,32.1784287303,34.8765393552,2023
2023-05-24,2023-05-24,"ברנר 19, רעננה",ברנר 19,6586-551-17,דירת גן,5.0,ראשונה,108.0,3930000,,,2028.0,,3.0,9111616966,1,6586551,False,,רעננה,ברנר,,6586-551-17,6586/551,36388.88888888889,32.1771441612,34.87776808,2023
2023-05-24,2023-05-24,"המעלות 7, רעננה",המעלות 7,6586-586-2,דירה בבית קומות,4.0,ראשונה,80.0,3200000,,,1970.0,,3.0,9110565500,1,6586586,False,,רעננה,המעלות,,6586-586-2,6586/586,40000.0,32.1791578857,34.8749464889,2023
2023-05-24,2023-05-24,"יהודה הלוי 36, רעננה",יהודה הלוי 36,6583-747-6,קוטג' דו משפחתי,6.0,"מרתף,קרקע,ראשונה",290.0,10400000,,,1980.0,,,9111524096,1,6583747,False,,רעננה,יהודה הלוי,,6583-747-6,6583/747,35862.06896551724,32.1788824548,34.8650652946,2023
2023-05-23,2023-05-23,"אשכול 24, רעננה",אשכול 24,6586-616-1,דירה בבית קומות,4.0,ראשונה,105.0,3300000,,,2022.0,,2.0,9111816026,1,6586616,False,,רעננה,אשכול לוי,,6586-616-1,6586/616,31428.571428571428,32.1749489691,34.878029893,2023
2023-05-23,2023-05-23,"אלי כהן 11, רעננה",אלי כהן 11,7654-123-16,דירה בבית קומות,4.0,ב,121.0,2575000,,,1970.0,,3.0,9111485542,1,7654123,False,,רעננה,אלי כהן,,7654-123-16,7654/123,21280.99173553719,32.1866379678,34.867515306,2023
2023-05-23,2023-05-23,"מרדכי זעירא 5, רעננה",מרדכי זעירא 5,7661-149-17,דירה בבית קומות,5.0,קומה ‎2‏,127.9,4220000,,,2017.0,,6.0,9110527020,1,7661149,False,,רעננה,מרדכי זעירא,,7661-149-17,7661/149,32994.52697419859,32.1965084441,34.8630478009,2023
2023-05-22,2023-05-22,"ביאליק 14, רעננה",ביאליק 14,6586-645-4,דירה בבית קומות,4.0,שניה,80.18,2300000,,,1980.0,,3.0,9110522728,1,6586645,False,181% ב 24.2 שנים,רעננה,ביאליק,7.48,6586-645-4,6586/645,28685.457720129707,32.1778040412,34.879630617,2023
2023-05-21,2023-05-21,"יערה 10, רעננה",יערה 10,6578-552-48,דירה בבית קומות,6.0,"ארבע עשרה, חמש עשרה",164.0,2654000,,,2008.0,,15.0,9110263432,1,6578552,True,-38% ב 12.5 שנים,רעננה,יערה,-3.04,6578-552-48,6578/552,16182.926829268292,32.1851755826,34.88823354,2023
2023-05-19,2023-05-19,"עקיבא 25, רעננה",עקיבא 25,6581-593-76,דירה בבית קומות,4.0,שלישית,96.0,2635000,,,1980.0,,5.0,9110092418,1,6581593,False,102% ב 15.1 שנים,רעננה,עקיבא,6.75,6581-593-76,6581/593,27447.916666666668,32.1819399179,34.880695573,2023
2023-05-18,2023-05-18,"אוסטרובסקי 10, רעננה",אוסטרובסקי 10,6586-1007-29,חניה,,,,67000,,,0.0,,7.0,9111745060,1,65861007,False,,רעננה,אוסטרובסקי,,6586-1007-29,6586/1007,,32.1771164,34.8761318491,2023
2023-05-17,2023-05-17,"תל חי 19, רעננה",תל חי 19,6580-431-20,דירה בבית קומות,5.0,חמישית,158.0,3650000,1.0,,1970.0,2018.0,3.0,9110069182,1,6580431,False,,רעננה,תל חי,,6580-431-20,6580/431,23101.26582278481,32.184570804,34.8734709574,2023
2023-05-17,2023-05-17,"ויצמן 121, רעננה",ויצמן 121,7654-175-16,דירה בבית קומות,3.0,רביעית,46.1,1700000,,,1960.0,,4.0,9110258474,1,7654175,False,19% ב 3.8 שנים,רעננה,ויצמן,5.0,7654-175-16,7654/175,36876.3557483731,32.1921346805,34.8712730656,2023
2023-05-17,2023-05-17,"הגליל 19, רעננה",הגליל 19,6580-1018-7,דירה בבית קומות,6.0,רביעית+גג,130.0,3900000,,,1997.0,,4.0,9110515994,1,65801018,False,,רעננה,הגליל,,6580-1018-7,6580/1018,30000.0,32.1814048392,34.878184967,2023
2023-05-16,2023-05-16,"הכוכב 5, רעננה",הכוכב 5,6579-140-1,דירה בבית קומות,8.0,ראשונה,308.0,1657000,,,1980.0,,1.0,9110217626,1,6579140,False,,רעננה,הכוכב,,6579-140-1,6579/140,5379.87012987013,32.1847718628,34.8571525947,2023
2023-05-15,2023-05-15,"הגדוד העברי 26, רעננה",הגדוד העברי 26,6579-412-8,דירה בבית קומות,3.0,שניה,70.0,2424000,,,2026.0,,3.0,9110462418,1,6579412,False,120% ב 20 שנים,רעננה,הגדוד העברי,6.0,6579-412-8,6579/412,34628.57142857143,32.1863177722,34.8666822873,2023
2023-05-12,2023-12-05,"מכבי 1, רעננה",מכבי 1,6580-1071-74,דירה בבית קומות,2.0,שביעית,40.2,1700000,,,2001.0,,9.0,9120361028,1,65801071,False,54% ב 13.1 שנים,רעננה,מכבי,4.12,6580-1071-74,6580/1071,42288.55721393035,32.1800820199,34.8783805061,2023
2023-05-12,2023-12-05,"נחום גוטמן 5, רעננה",נחום גוטמן 5,7654-444-9,דירת גן,5.0,קרקע,118.9,4950000,,,1998.0,,3.0,9120207182,1,7654444,False,78% ב 11.6 שנים,רעננה,גוטמן נחום,6.72,7654-444-9,7654/444,41631.62321278385,32.1909355363,34.8645694715,2023
2023-05-11,2023-11-05,"גאולה 7, רעננה",גאולה 7,7649-140-24,דירה בבית קומות,3.0,שניה,39.5,2692000,,,2023.0,,3.0,9118715120,1,7649140,False,2% ב 0.7 שנים,רעננה,גאולה,2.86,7649-140-24,7649/140,68151.89873417722,32.194438498,34.8554493122,2023
2023-05-09,2023-09-05,"מוצקין 17, רעננה",מוצקין 17,6580-154-1,קומבינציה,,,876.0,12503000,,,,,,9117954400,1,6580154,False,,רעננה,מוצקין,,6580-154-1,6580/154,14272.831050228311,32.1845283409,34.8686830784,2023
2023-05-09,2023-09-05,"דובנוב 3, רעננה",דובנוב 3,6583-659-33,דירה בבית קומות,3.0,רביעית,67.8,2285000,,,1982.0,,5.0,9116413054,1,6583659,False,107% ב 14.8 שנים,רעננה,דובנוב,7.23,6583-659-33,6583/659,33702.06489675516,32.1772368134,34.8735532034,2023
2023-05-09,2023-09-05,"גאולה 7, רעננה",גאולה 7,7649-140-10,דירה בבית קומות,3.0,ראשונה,39.5,2402000,,,2023.0,,3.0,9116341718,1,7649140,False,,רעננה,גאולה,,7649-140-10,7649/140,60810.12658227848,32.194438498,34.8554493122,2023
2023-05-07,2023-07-05,"הגדוד העברי 12, רעננה",הגדוד העברי 12,6579-404-1,דירה בבית קומות,4.0,ראשונה,83.0,4200000,,,2023.0,,3.0,9113824460,1,6579404,False,,רעננה,הגדוד העברי,,6579-404-1,6579/404,50602.40963855421,32.1846565037,34.8661980052,2023
2023-05-07,2023-07-05,"היקינטון 4, רעננה",היקינטון 4,7651-647-8,דירה בבית קומות,3.0,שניה,81.4,2640000,,,1999.0,,4.0,9114171890,1,7651647,False,,רעננה,היקינטון,,7651-647-8,7651/647,32432.43243243243,32.18143717,34.8555353183,2023
2023-05-06,2023-06-05,"חנקין 19, רעננה",חנקין 19,6580-59-6,דירה בבית קומות,2.0,שניה,62.0,2250000,,,1996.0,,7.0,9111406140,1,658059,False,,רעננה,חנקין,,6580-59-6,6580/59,36290.32258064516,32.1822644013,34.8770969154,2023
2023-05-06,2023-06-05,"דוד רזיאל 1, רעננה",דוד רזיאל 1,6583-429-18,דירה בבית קומות,3.5,שביעית,81.0,3205000,,,2026.0,,4.0,9112009314,1,6583429,False,,רעננה,רזיאל דוד,,6583-429-18,6583/429,39567.9012345679,32.1799042413,34.8737504125,2023
2023-05-05,2023-05-05,"אחוזה 188, רעננה",אחוזה 188,6579-420-9,דירה בבית קומות,5.0,שלישית וגג,148.83,3000000,,,1980.0,2018.0,3.0,9110830494,1,6579420,False,,רעננה,אחוזה,,6579-420-9,6579/420,20157.226365652084,32.1828038246,34.8662909181,2023
2023-05-03,2023-03-05,"הגדוד העברי 12, רעננה",הגדוד העברי 12,6579-404-0,קרקע למגורים,,,3187.0,36419000,,,2023.0,,3.0,9107467416,1,6579404,False,,רעננה,הגדוד העברי,,6579-404-0,6579/404,11427.361154690932,32.1846565037,34.8661980052,2023
2023-05-02,2023-02-05,"רחל המשוררת 1, רעננה",רחל המשוררת 1,7654-438-31,דירה בבית קומות,4.0,ראשונה,93.89,2910000,,,1995.0,,3.0,9104550336,1,7654438,False,51% ב 7.3 שנים,רעננה,רחל המשוררת,6.99,7654-438-31,7654/438,30993.716050697625,32.1913211034,34.8617231303,2023
2023-05-01,2023-01-05,,,6578-555-10,דירה בבית קומות,5.0,חמישית,128.0,5557000,,,2027.0,,,9103343248,2,6578555,False,,רעננה,החורש,,6578-555-10,6578/555,43414.0625,,,2023
2023-05-01,2023-01-05,"תל חי 13, רעננה",תל חי 13,6580-434-11,דירה בבית קומות,3.0,שלישית,81.29,3000000,,,2021.0,,3.0,9102404336,1,6580434,False,85% ב 7.6 שנים,רעננה,תל חי,11.18,6580-434-11,6580/434,36904.90835281092,32.1835726776,34.8731693123,2023
2023-05-01,2023-01-05,"חנקין 22, רעננה",חנקין 22,6580-152-6,דירה בבית קומות,1.0,שניה,93.4,3000000,,,2023.0,,3.0,9104973320,1,6580152,False,0% ב 0.8 שנים,רעננה,חנקין,0.0,6580-152-6,6580/152,32119.91434689507,32.1817873003,34.8776312186,2023
2023-05-01,2023-01-05,"אריק לביא 2, רעננה",אריק לביא 2,7661-109-6,דירה בבית קומות,4.0,קומה ‎2‏,106.0,3620000,,,2020.0,,8.0,9103022310,1,7661109,False,,רעננה,אריק לביא,,7661-109-6,7661/109,34150.943396226416,32.1938446308,34.8720244436,2023
2023-05-01,2023-01-05,"חנקין 22, רעננה",חנקין 22,6580-152-0,קרקע למגורים,,,1074.0,16696000,,,2023.0,,3.0,9104950306,1,6580152,False,,רעננה,חנקין,,6580-152-0,6580/152,15545.62383612663,32.1817873003,34.8776312186,2023
2023-05-01,2023-01-05,"חנקין 22, רעננה",חנקין 22,6580-152-3,דירה בבית קומות,1.0,ראשונה,93.07,3076000,,,2023.0,,3.0,9104975836,1,6580152,False,,רעננה,חנקין,,6580-152-3,6580/152,33050.39217793059,32.1817873003,34.8776312186,2023
2023-04-30,2023-04-30,"יהודה הלוי 6, רעננה",יהודה הלוי 6,6583-219-9,,4.0,ראשונה,114.0,3625000,1.0,,2023.0,,6.0,11181281312,1,6583219,False,,רעננה,יהודה הלוי,,6583-219-9,6583/219,31798.245614035088,32.1818085053,34.8661322608,2023
2023-04-30,2023-04-30,"בית שמאי 4, רעננה",בית שמאי 4,6581-19-26,דירה בבית קומות,4.0,שניה,97.9,2400000,,,1970.0,,3.0,9109301358,1,658119,False,124% ב 17.5 שנים,רעננה,בית שמאי,7.09,6581-19-26,6581/19,24514.81103166496,32.1826436593,34.8807584258,2023
2023-04-30,2023-04-30,"פרדס משותף 11, רעננה",פרדס משותף 11,6584-45-2,ללא תיכנון,2.0,א',36.0,4200000,,,1938.0,,1.0,9110358152,1,658445,False,,רעננה,פרדס משותף,,6584-45-2,6584/45,116666.66666666669,32.1738976592,34.8714802988,2023
2023-04-30,2023-04-30,"הסחלב 8, רעננה",הסחלב 8,7651-513-13,דירה בבית קומות,4.0,שניה,89.0,2950000,,,2001.0,,3.0,9109242750,1,7651513,False,,רעננה,הסחלב,,7651-513-13,7651/513,33146.06741573034,32.1792534149,34.8583738314,2023
2023-04-27,2023-04-27,"דוד רזיאל 1, רעננה",דוד רזיאל 1,6583-429-20,דירה בבית קומות,4.0,חמישית,93.0,3392000,,,2026.0,,4.0,9109724860,1,6583429,False,,רעננה,רזיאל דוד,,6583-429-20,6583/429,36473.11827956989,32.1799042413,34.8737504125,2023
2023-04-27,2023-04-27,"המעלות 11, רעננה",המעלות 11,6586-584-7,דירה בבית קומות,5.0,שלישית+רביעי,110.51,4335000,,,1980.0,,3.0,9110347126,1,6586584,False,52% ב 8 שנים,רעננה,המעלות,6.5,6586-584-7,6586/584,39227.21925617591,32.1786322326,34.874784447,2023
2023-04-27,2023-04-27,"בורוכוב 76, רעננה",בורוכוב 76,6578-425-3,קוטג' חד משפחתי,6.0,ראשונה,293.0,6380000,,,1993.0,,2.0,9109170082,1,6578425,False,,רעננה,בורוכוב,,6578-425-3,6578/425,21774.744027303757,32.1886941771,34.8787493163,2023
2023-04-27,2023-04-27,"כינרת 3, רעננה",כינרת 3,7655-311-70,דירה בבית קומות,5.0,שלישית,120.0,4024000,,,2025.0,,8.0,9109575972,1,7655311,False,,רעננה,כנרת,,7655-311-70,7655/311,33533.333333333336,32.190545093,34.8788961247,2023
2023-04-27,2023-04-27,"יהודה הלוי 6, רעננה",יהודה הלוי 6,6583-219-14,דירה בבית קומות,5.0,שניה,124.0,4450000,,,2023.0,,6.0,9109187694,1,6583219,False,,רעננה,יהודה הלוי,,6583-219-14,6583/219,35887.096774193546,32.1818085053,34.8661322608,2023
2023-04-27,2023-04-27,"סשה ארגוב 16, רעננה",סשה ארגוב 16,7661-167-31,דירה בבית קומות,5.0,רביעית,130.57,4750000,,,2014.0,,6.0,9109606460,1,7661167,False,77% ב 7.9 שנים,רעננה,סשה ארגוב,9.75,7661-167-31,7661/167,36378.953817875474,32.1938025935,34.8665569746,2023
2023-04-27,2023-04-27,"משה וילנסקי 47, רעננה",משה וילנסקי 47,7661-139-40,דירה בבית קומות,4.0,ראשונה,93.0,3690000,,,2021.0,,5.0,9109237200,1,7661139,False,,רעננה,משה וילנסקי,,7661-139-40,7661/139,39677.41935483871,32.1944727038,34.8618511273,2023
2023-04-26,2023-04-26,"יהודה הלוי 6, רעננה",יהודה הלוי 6,6583-219-8,,5.0,שניה,124.0,4450000,1.0,,2023.0,,6.0,11181281311,1,6583219,False,,רעננה,יהודה הלוי,,6583-219-8,6583/219,35887.096774193546,32.1818085053,34.8661322608,2023
2023-04-25,2023-04-25,"בורוכוב 7, רעננה",בורוכוב 7,6580-41-6,דירה בבית קומות,2.5,א,61.0,2345000,,,1960.0,,3.0,9109077952,1,658041,False,,רעננה,בורוכוב,,6580-41-6,6580/41,38442.62295081967,32.1811136223,34.876012937,2023
2023-04-24,2023-04-24,"התקווה 19, רעננה",התקווה 19,7652-88-10,דירה בבית קומות,3.0,שניה,39.5,2200000,,,1970.0,,3.0,9108994924,1,765288,False,48% ב 6.5 שנים,רעננה,התקוה,7.38,7652-88-10,7652/88,55696.20253164557,32.1948582468,34.8568725418,2023
2023-04-24,2023-04-24,"אנילביץ 11, רעננה",אנילביץ 11,7654-114-2,דירה בבית קומות,2.0,ראשונה,45.9,1550000,,,1970.0,,3.0,9108997958,1,7654114,False,,רעננה,אנילביץ,,7654-114-2,7654/114,33769.063180827885,32.1877594134,34.8679625259,2023
2023-04-21,2023-04-21,"ששת הימים 19, רעננה",ששת הימים 19,6581-499-2,דירה בבית קומות,8.0,מרתף+קרקע+א',157.82,5750000,,,1980.0,,2.0,9109248892,1,6581499,False,270% ב 24 שנים,רעננה,ששת הימים,11.25,6581-499-2,6581/499,36433.91205170447,32.1813552823,34.8851216785,2023
2023-04-20,2023-04-20,"התעשייה 18, רעננה",התעשייה 18,7656-294-30,משרד,,קרקע+א'+ב',1005.51,17000000,,,1970.0,,,9109281156,1,7656294,False,103% ב 13 שנים,רעננה,התעשיה,7.92,7656-294-30,7656/294,16906.843293453072,32.1973029393,34.8805573692,2023
2023-04-19,2023-04-19,"ביאליק 21, רעננה",ביאליק 21,6586-686-10,דירה בבית קומות,4.0,שלישית,107.0,3489000,,,1980.0,2027.0,,9109637540,1,6586686,False,,רעננה,ביאליק,,6586-686-10,6586/686,32607.47663551402,32.1772348835,34.8798414791,2023
2023-04-19,2023-04-19,"ביל""ו 44, רעננה","ביל""ו 44",6582-207-5,דירה בבית קומות,5.0,"קרקע,ראשונה",128.82,904000,,,1989.0,,,9109852436,1,6582207,False,,רעננה,"ביל""ו",,6582-207-5,6582/207,7017.543859649123,32.1804282047,34.8636166489,2023
2023-04-18,2023-04-18,"ביאליק 21, רעננה",ביאליק 21,6586-686-7,,4.0,שלישית,107.0,3489000,1.0,,1980.0,,,11181281581,1,6586686,False,,רעננה,ביאליק,,6586-686-7,6586/686,32607.47663551402,32.1772348835,34.8798414791,2023
2023-04-18,2023-04-18,"הגדוד העברי 12, רעננה",הגדוד העברי 12,6579-404-16,דירה בבית קומות,4.0,שניה,84.5,3281000,,,2023.0,,3.0,9109554586,1,6579404,False,,רעננה,הגדוד העברי,,6579-404-16,6579/404,38828.40236686391,32.1846565037,34.8661980052,2023
2023-04-18,2023-04-18,"מגדל 41, רעננה",מגדל 41,6579-371-3,דירה בבית קומות,2.0,קרקע,28.5,754000,,,1960.0,,,9108718978,1,6579371,False,,רעננה,מגדל,,6579-371-3,6579/371,26456.140350877195,32.1872427349,34.8653898729,2023
2023-04-17,2023-04-17,"רמב""ם 83, רעננה","רמב""ם 83",6586-508-5,קוטג' דו משפחתי,8.0,ראשונה,287.0,28540000,,,2002.0,,1.0,9109926288,1,6586508,False,,רעננה,"רמב""ם",,6586-508-5,6586/508,99442.5087108014,32.1737004012,34.8758342833,2023
2023-04-16,2023-04-16,"אנילביץ 5, רעננה",אנילביץ 5,7654-152-17,דירה בבית קומות,3.0,שלישית,69.5,1950000,,,1970.0,,3.0,9108589996,1,7654152,False,,רעננה,אנילביץ,,7654-152-17,7654/152,28057.55395683453,32.1874215913,34.8679130858,2023
2023-04-16,2023-04-16,"תל חי 21, רעננה",תל חי 21,6580-430-8,דירה בבית קומות,4.0,ראשונה,86.66,2200000,,,1970.0,,3.0,9108938758,1,6580430,False,22% ב 3.3 שנים,רעננה,תל חי,6.67,6580-430-8,6580/430,25386.568197553657,32.1849043981,34.8735748096,2023
2023-04-16,2023-04-16,"הפרחים 38, רעננה",הפרחים 38,7651-535-10,דירה בבית קומות,4.0,קרקע תחתונה+שניה,99.5,3650000,,,2000.0,,1.0,9109412284,1,7651535,False,65% ב 7.5 שנים,רעננה,הפרחים,8.67,7651-535-10,7651/535,36683.417085427136,32.1805315709,34.8551888583,2023
2023-04-13,2023-04-13,"אלכסנדר זרחין 6, רעננה",אלכסנדר זרחין 6,7657-144-185,משרד,,שישית,77.0,2199000,,,2020.0,,10.0,9108964880,1,7657144,False,,רעננה,זרחין אלכסנדר,,7657-144-185,7657/144,28558.44155844156,32.1940818755,34.8834591775,2023
2023-04-13,2023-04-13,"ביאליק 21, רעננה",ביאליק 21,6586-686-11,דירה בבית קומות,3.0,שישית,77.0,2805000,,,1980.0,2027.0,,9109209080,1,6586686,False,,רעננה,ביאליק,,6586-686-11,6586/686,36428.57142857143,32.1772348835,34.8798414791,2023
2023-04-13,2023-04-13,"גורדון 14, רעננה",גורדון 14,6582-273-3,דירה בבית קומות,5.0,ראשונה,110.2,3700000,,,1994.0,,2.0,9108562024,1,6582273,False,,רעננה,גורדון,,6582-273-3,6582/273,33575.31760435572,32.1807733598,34.8647737136,2023
2023-04-12,2023-12-04,"עגנון 4, רעננה",עגנון 4,6583-601-2,דירה בבית קומות,5.0,ראשונה,115.0,2500000,,,1987.0,,6.0,9120650442,1,6583601,False,127% ב 24.5 שנים,רעננה,עגנון,5.18,6583-601-2,6583/601,21739.130434782608,32.1776391741,34.8703473146,2023
2023-04-12,2023-12-04,"חייקה גרוסמן 5, רעננה",חייקה גרוסמן 5,7649-308-8,דירה בבית קומות,4.0,שניה,99.82,3500000,,,2012.0,,5.0,9120172402,1,7649308,False,42% ב 6.5 שנים,רעננה,צביה לובטקין,6.46,7649-308-8,7649/308,35063.113604488084,32.1955212038,34.8466109512,2023
2023-04-12,2023-12-04,"בן גוריון 19, רעננה",בן גוריון 19,6583-603-21,דירה בבית קומות,4.0,רביעית,105.0,3148000,,,1980.0,,6.0,9120715932,1,6583603,False,76% ב 10.9 שנים,רעננה,בן גוריון,6.97,6583-603-21,6583/603,29980.95238095238,32.1779454539,34.8704395198,2023
2023-04-10,2023-10-04,"הסדנה 7, רעננה",הסדנה 7,7656-247-14,משרד,,שניה,69.67,765000,,,1988.0,,3.0,9118922764,1,7656247,False,,רעננה,הסדנא,,7656-247-14,7656/247,10980.335869097173,32.1951810631,34.8792563586,2023
2023-04-09,2023-09-04,"שושנה דמארי 16, רעננה",שושנה דמארי 16,7661-163-74,דירה בבית קומות,5.0,שלישית,119.54,3960000,,,2014.0,,6.0,9116442876,1,7661163,False,41% ב 2.7 שנים,רעננה,שושנה דמארי,15.19,7661-163-74,7661/163,33126.986782666885,32.1955520357,34.8718946024,2023
2023-04-07,2023-07-04,"גאולה 9, רעננה",גאולה 9,7649-139-33,דירה בבית קומות,3.0,שלישית,39.5,2200000,,,2023.0,,4.0,9114234124,1,7649139,False,,רעננה,גאולה,,7649-139-33,7649/139,55696.20253164557,32.1947592611,34.855487259,2023
2023-04-07,2023-07-04,"אחד העם 19, רעננה",אחד העם 19,6581-559-4,דירה בבית קומות,5.0,שניה,108.07,3800000,,,1984.0,,4.0,9113836226,1,6581559,False,85% ב 10.4 שנים,רעננה,אחד העם,8.17,6581-559-4,6581/559,35162.394744147314,32.1811535486,34.8830397828,2023
2023-04-06,2023-06-04,"אחוזה 163, רעננה",אחוזה 163,6583-843-4,דירה בבית קומות,4.0,שניה,90.0,2810000,,,2011.0,,4.0,9112141774,1,6583843,False,52% ב 12.5 שנים,רעננה,אחוזה,4.16,6583-843-4,6583/843,31222.222222222223,32.1812134454,34.8694532884,2023
2023-04-06,2023-06-04,"קרן היסוד 26, רעננה",קרן היסוד 26,6580-1103-18,דירה בבית קומות,4.0,שלישית,113.0,2860000,,,2017.0,,4.0,9111032514,1,65801103,False,,רעננה,קרן היסוד,,6580-1103-18,6580/1103,25309.734513274336,32.1852920857,34.8719209054,2023
2023-04-06,2023-06-04,"החי""ל 43, רעננה","החי""ל 43",6579-629-1,קוטג' דו משפחתי,5.0,קרקע+ראשונה,220.0,3142000,,,1991.0,,,9111258436,1,6579629,True,-15% ב 6 שנים,רעננה,"החי""ל",-2.5,6579-629-1,6579/629,14281.818181818182,32.185631149,34.864588843,2023
2023-04-04,2023-04-04,"המחתרות 5, רעננה",המחתרות 5,6579-786-1,קוטג' דו משפחתי,6.0,קרקע+ראשונה,195.0,7100000,,,1993.0,,,9109012018,1,6579786,False,36% ב 1.8 שנים,רעננה,המחתרות,20.0,6579-786-1,6579/786,36410.256410256414,32.1896882077,34.864090408,2023
2023-04-01,2023-01-04,"ששת הימים 3, רעננה",ששת הימים 3,6581-319-1,ללא תיכנון,,,182.0,4750000,,,,,,9103282938,1,6581319,False,,רעננה,ששת הימים,,6581-319-1,6581/319,26098.9010989011,32.1810259409,34.8867667749,2023
2023-04-01,2023-01-04,,,6578-555-11,דירה בבית קומות,5.0,שלישית,128.0,5375000,,,2027.0,,,9102800014,2,6578555,False,,רעננה,החורש,,6578-555-11,6578/555,41992.1875,,,2023
2023-03-30,2023-03-30,"החרצית 6, רעננה",החרצית 6,6582-397-7,דירה בבית קומות,4.0,שניה,91.0,3250000,,,1998.0,,4.0,9108300064,1,6582397,False,31% ב 4 שנים,רעננה,החרצית,7.75,6582-397-7,6582/397,35714.28571428572,32.1785427952,34.8594154643,2023
2023-03-30,2023-03-30,"רמב""ם 28, רעננה","רמב""ם 28",6586-679-19,דירה בבית קומות,4.0,חמישית,93.44,2520000,,,1980.0,,6.0,9107943606,1,6586679,False,,רעננה,"רמב""ם",,6586-679-19,6586/679,26969.178082191786,32.1778916694,34.876379747,2023
2023-03-29,2023-03-29,"דגניה 8, רעננה",דגניה 8,7655-284-1,קרקע למגורים,,,263.0,11111000,,,,,,9107928214,1,7655284,False,,רעננה,דגניה,,7655-284-1,7655/284,42247.14828897338,32.1907066173,34.8809970402,2023
