DEALDATE,DEALDATETIME,FULLADRESS,DISPLAYADRESS,GUSH,DEALNATUREDESCRIPTION,ASSETROOMNUM,FLOORNO,DEALNATURE,DEALAMOUNT,NEWPROJECTTEXT,PROJECTNAME,BUILDINGYEAR,YEARBUILT,BUILDINGFLOORS,KEYVALUE,TYPE,POLYGON_ID,TREND_IS_NEGATIVE,TREND_FORMAT,city_name,street,presentage per year,GUSH - Copy,Gush_Helka,Price per sqm,lat,lon,Year
2009-12-31,2009-12-31,"נהר הירדן 64, מודיעין-מכבים-רעות",נהר הירדן 64,5682-174-5,דירה בבית קומות,4.0,שלישית,90.0,1200000,,,1999.0,,5.0,9240173040,1,5682174,False,,מודיעין-מכבים-רעות,נהר הירדן,,5682-174-5,5682/174,13333.333333333334,31.8960719407,35.0054226242,2009
2009-12-30,2009-12-30,"נחל הירקון 14, מודיעין-מכבים-רעות",נחל הירקון 14,5687-65-4,דירה בבית קומות,4.0,ראשונה,100.1,1300000,,,1997.0,,3.0,9240270228,1,568765,False,,מודיעין-מכבים-רעות,נחל הירקון,,5687-65-4,5687/65,12987.012987012988,31.8980908768,35.0190927078,2009
2009-12-30,2009-12-30,"תשרי 30, מודיעין-מכבים-רעות",תשרי 30,5733-16-32,דירה בבית קומות,5.0,ראשונה,107.28,1266000,,,2011.0,,3.0,9240905016,1,573316,False,,מודיעין-מכבים-רעות,תשרי,,5733-16-32,5733/16,11800.89485458613,31.9156178725,35.010439215,2009
2009-12-30,2009-12-30,"אלמוגן 53, מודיעין-מכבים-רעות",אלמוגן 53,5685-88-2,דירה בבית קומות,6.0,ראשונה,125.3,1569000,,,1992.0,,3.0,9240227304,1,568588,False,,מודיעין-מכבים-רעות,אלמוגן,,5685-88-2,5685/88,12521.9473264166,31.9006974823,35.0107331378,2009
2009-12-29,2009-12-29,"ירח-אב 13, מודיעין-מכבים-רעות",ירח-אב 13,5735-10-78,דירה בבית קומות,4.0,עשרים,91.92,1307000,,,2010.0,,21.0,9240903672,1,573510,False,,מודיעין-מכבים-רעות,ירח-אב,,5735-10-78,5735/10,14218.88598781549,31.9136512293,35.0120722111,2009
2009-12-29,2009-12-29,"עמק האלה 87, מודיעין-מכבים-רעות",עמק האלה 87,5567-8-68,דירה בבית קומות,4.0,קרקע,91.6,1350000,,,1999.0,,2.0,9182603724,1,55678,False,,מודיעין-מכבים-רעות,עמק האלה,,5567-8-68,5567/8,14737.991266375548,31.9161231047,35.0032048946,2009
2009-12-28,2009-12-28,"ירח-אב 13, מודיעין-מכבים-רעות",ירח-אב 13,5735-10-6,דירה בבית קומות,5.0,שניה,101.89,1232000,,,2010.0,,21.0,9240900900,1,573510,False,,מודיעין-מכבים-רעות,ירח-אב,,5735-10-6,5735/10,12091.47119442536,31.9136512293,35.0120722111,2009
2009-12-28,2009-12-28,"רחל אימנו 12, מודיעין-מכבים-רעות",רחל אימנו 12,5819-83-1,קוטג' חד משפחתי,6.0,"מרתף, קרקע, ראשונה",174.8,2413000,,,2007.0,,2.0,9241490664,1,581983,False,,מודיעין-מכבים-רעות,רחל אמנו,,5819-83-1,5819/83,13804.347826086956,31.8801684065,35.009985374,2009
2009-12-27,2009-12-27,"כסלו 4, מודיעין-מכבים-רעות",כסלו 4,5734-74-1,דירה בבית קומות,5.0,ראשונה,107.28,1326000,,,2011.0,,3.0,9182427828,1,573474,False,,מודיעין-מכבים-רעות,כסלו,,5734-74-1,5734/74,12360.178970917226,31.9141289703,35.0098098999,2009
2009-12-27,2009-12-27,"עמק האלה 68, מודיעין-מכבים-רעות",עמק האלה 68,5734-57-1,דירת גן,4.0,ראשונה,93.8,1350000,,,2002.0,,5.0,9240095592,1,573457,False,,מודיעין-מכבים-רעות,עמק האלה,,5734-57-1,5734/57,14392.324093816633,31.914014674,35.007315604,2009
2009-12-27,2009-12-27,"חטיבת הצנחנים 15, מודיעין-מכבים-רעות",חטיבת הצנחנים 15,5869-65-2,דירת גן,4.0,קרקע,102.3,1650000,,,2003.0,,2.0,9182447904,1,586965,False,104% ב 6.2 שנים,מודיעין-מכבים-רעות,חטיבת הצנחנים,16.77,5869-65-2,5869/65,16129.032258064515,31.9068392326,34.9993421544,2009
2009-12-27,2009-12-27,"מגדל הלבנון 4, מודיעין-מכבים-רעות",מגדל הלבנון 4,5684-108-1,דירה בבית קומות,5.0,קרקע,113.0,1795000,,,1998.0,,3.0,9243293052,1,5684108,False,82% ב 4.3 שנים,מודיעין-מכבים-רעות,מגדל הלבנון,19.07,5684-108-1,5684/108,15884.955752212389,31.8943865136,35.0101595114,2009
2009-12-24,2009-12-24,"אסתר המלכה 34, מודיעין-מכבים-רעות",אסתר המלכה 34,5818-61-1,דירה בבית קומות,6.5,קרקע וראשונה,162.6,2145000,,,2006.0,,1.0,9240571032,1,581861,False,,מודיעין-מכבים-רעות,אסתר המלכה,,5818-61-1,5818/61,13191.881918819188,31.8830434684,35.0097881707,2009
2009-12-24,2009-12-24,"מגדל ים 7, מודיעין-מכבים-רעות",מגדל ים 7,5871-4-58,דירה בבית קומות,3.0,שלישית,72.0,1136000,,,2005.0,,5.0,9182456220,1,58714,False,,מודיעין-מכבים-רעות,מגדל ים,,5871-4-58,5871/4,15777.777777777776,31.9052912295,34.9942287672,2009
2009-12-23,2009-12-23,"תשרי 20, מודיעין-מכבים-רעות",תשרי 20,5733-16-3,דירה בבית קומות,5.0,שניה,112.26,1243000,,,2011.0,,3.0,9182429844,1,573316,False,,מודיעין-מכבים-רעות,תשרי,,5733-16-3,5733/16,11072.510244076251,31.9156178725,35.010439215,2009
2009-12-22,2009-12-22,"נחל בזק 66, מודיעין-מכבים-רעות",נחל בזק 66,5687-44-4,דירה בבית קומות,4.0,מרתף קרקע וראשונה,130.0,1795000,,,1992.0,,2.0,9182209428,1,568744,False,,מודיעין-מכבים-רעות,נחל בזק,,5687-44-4,5687/44,13807.692307692309,31.8980318638,35.0178285401,2009
2009-12-22,2009-12-22,"אודם 10, מודיעין-מכבים-רעות",אודם 10,5870-17-18,דירה בבית קומות,4.0,שלישית,92.6,1405000,,,2004.0,,3.0,9182440932,1,587017,False,78% ב 6.1 שנים,מודיעין-מכבים-רעות,אודם,12.79,5870-17-18,5870/17,15172.786177105832,31.9041406938,34.9973468967,2009
2009-12-22,2009-12-22,"ציפורנית 12, מודיעין-מכבים-רעות",ציפורנית 12,5653-31-6,דירה בבית קומות,4.0,שניה,96.85,1050000,,,1996.0,,3.0,9182154660,1,565331,False,62% ב 6.6 שנים,מודיעין-מכבים-רעות,ציפורנית,9.39,5653-31-6,5653/31,10841.50748580279,31.9059785958,35.0142168005,2009
2009-12-22,2009-12-22,"טבת 4, מודיעין-מכבים-רעות",טבת 4,5734-75-16,דירה בבית קומות,5.0,שניה,112.28,1230000,,,2011.0,,3.0,9182429172,1,573475,False,,מודיעין-מכבים-רעות,טבת,,5734-75-16,5734/75,10954.755967224795,31.9145768612,35.009550987,2009
2009-12-22,2009-12-22,"שני 11, מודיעין-מכבים-רעות",שני 11,5874-25-5,קוטג' דו משפחתי,5.0,חמישית + שישית,126.3,1950000,,,1993.0,,4.0,9240383124,1,587425,False,,מודיעין-מכבים-רעות,שני,,5874-25-5,5874/25,15439.429928741092,31.8998542805,34.999740944,2009
2009-12-21,2009-12-21,"חלמונית 6, מודיעין-מכבים-רעות",חלמונית 6,5652-53-14,דירה בבית קומות,4.0,שניה ושלישית,98.8,1385000,,,1997.0,,4.0,9182117280,1,565253,False,,מודיעין-מכבים-רעות,חלמונית,,5652-53-14,5652/53,14018.218623481782,31.9080757648,35.0092491373,2009
2009-12-21,2009-12-21,"מנחם בגין 54, מודיעין-מכבים-רעות",מנחם בגין 54,5819-54-3,דירה בבית קומות,5.0,קרקע,99.5,1345000,,,2010.0,,1.0,9182566260,1,581954,False,,מודיעין-מכבים-רעות,מנחם בגין,,5819-54-3,5819/54,13517.587939698493,31.879630162,35.0106511813,2009
2009-12-21,2009-12-21,"חצב 14, מודיעין-מכבים-רעות",חצב 14,5297-109-1,קוטג' דו משפחתי,5.5,,189.0,2900000,,,1991.0,,1.0,9240568848,1,5297109,False,,מודיעין-מכבים-רעות,חצב,,5297-109-1,5297/109,15343.915343915343,31.8848231323,35.0186752615,2009
2009-12-20,2009-12-20,"חטיבת גולני 26, מודיעין-מכבים-רעות",חטיבת גולני 26,5568-14-8,דירה בבית קומות,4.0,ראשונה,100.6,1430000,,,1999.0,,3.0,9181894008,1,556814,False,,מודיעין-מכבים-רעות,חטיבת גולני,,5568-14-8,5568/14,14214.711729622268,31.9116766843,34.9999202093,2009
2009-12-20,2009-12-20,"שבט 30, מודיעין-מכבים-רעות",שבט 30,5735-11-42,דירה בבית קומות,4.0,חמישית,89.47,1150000,,,2011.0,,6.0,9182411868,1,573511,False,,מודיעין-מכבים-רעות,שבט,,5735-11-42,5735/11,12853.470437017995,31.9137826768,35.0117232437,2009
2009-12-18,2009-12-18,"תכלת 69, מודיעין-מכבים-רעות",תכלת 69,5871-51-8,דירה בבית קומות,5.0,שלישית,99.3,1465000,,,2002.0,,4.0,9240172368,1,587151,False,97% ב 7.1 שנים,מודיעין-מכבים-רעות,תכלת,13.66,5871-51-8,5871/51,14753.272910372609,31.9019014593,34.9945675568,2009
2009-12-18,2009-12-18,"רא""ל חיים בר-לב 20, מודיעין-מכבים-רעות","רא""ל חיים בר-לב 20",5693-14-10,קוטג' דו משפחתי,5.0,מרתף קרקע וראשונה,162.0,2000000,,,1999.0,,1.0,9182325852,1,569314,False,,מודיעין-מכבים-רעות,"רא""ל חיים ברלב",,5693-14-10,5693/14,12345.67901234568,31.9073465727,35.0015803928,2009
2009-12-17,2009-12-17,"שרה אימנו 17, מודיעין-מכבים-רעות",שרה אימנו 17,5819-93-3,דירה בבית קומות,6.0,קומה ‎2‏,133.1,1815000,,,2007.0,,3.0,9182480328,1,581993,False,,מודיעין-מכבים-רעות,שרה אמנו,,5819-93-3,5819/93,13636.363636363638,31.8807452163,35.0101361791,2009
2009-12-17,2009-12-17,"שרה אימנו 17, מודיעין-מכבים-רעות",שרה אימנו 17,5819-93-5,דירה בבית קומות,5.0,קומה ‎3‏,114.5,1715000,,,2007.0,,3.0,9241703352,1,581993,False,,מודיעין-מכבים-רעות,שרה אמנו,,5819-93-5,5819/93,14978.16593886463,31.8807452163,35.0101361791,2009
2009-12-17,2009-12-17,"שני 20, מודיעין-מכבים-רעות",שני 20,5874-29-11,דירה בבית קומות,4.0,ראשונה,95.0,1345000,,,2005.0,,,9182151888,1,587429,False,,מודיעין-מכבים-רעות,שני,,5874-29-11,5874/29,14157.894736842103,31.8999733711,34.9979224827,2009
2009-12-16,2009-12-16,"אשר 29, מודיעין-מכבים-רעות",אשר 29,5815-100-1,קוטג' חד משפחתי,6.5,,200.0,2541000,,,2004.0,,1.0,9182191452,1,5815100,False,,מודיעין-מכבים-רעות,אשר,,5815-100-1,5815/100,12705.0,31.8855910674,34.9988373741,2009
2009-12-15,2009-12-15,"טבת 26, מודיעין-מכבים-רעות",טבת 26,5734-23-6,דירה בבית קומות,3.0,שלישית,77.95,864000,,,2010.0,,3.0,9182599524,1,573423,False,,מודיעין-מכבים-רעות,טבת,,5734-23-6,5734/23,11084.028223220012,31.9161551731,35.0078720244,2009
2009-12-14,2009-12-14,"רחל אימנו 36, מודיעין-מכבים-רעות",רחל אימנו 36,5817-63-15,דירת גן,5.0,"רביעית, חמישית",130.6,1750000,,,2007.0,,6.0,9181751292,1,581763,False,34% ב 2 שנים,מודיעין-מכבים-רעות,רחל אמנו,17.0,5817-63-15,5817/63,13399.69372128637,31.8793104971,35.0063864509,2009
2009-12-13,2009-12-13,"תשרי 23, מודיעין-מכבים-רעות",תשרי 23,5733-26-4,דירה בבית קומות,5.0,שניה,109.95,1298000,,,2012.0,,4.0,9240347760,1,573326,False,,מודיעין-מכבים-רעות,תשרי,,5733-26-4,5733/26,11805.36607548886,31.9159404747,35.0094474761,2009
2009-12-11,2009-11-12,"אליהו הנביא 9, מודיעין-מכבים-רעות",אליהו הנביא 9,5569-13-3,דירה בבית קומות,4.0,קרקע,95.75,1335000,,,1999.0,,2.0,9180477012,1,556913,False,,מודיעין-מכבים-רעות,אליהו הנביא,,5569-13-3,5569/13,13942.558746736291,31.9115277263,35.0050659673,2009
2009-12-11,2009-11-12,"כסלו 6, מודיעין-מכבים-רעות",כסלו 6,5734-74-9,דירה בבית קומות,3.0,שניה,74.59,592000,,,2011.0,,3.0,9180784620,1,573474,False,,מודיעין-מכבים-רעות,כסלו,,5734-74-9,5734/74,7936.720740045582,31.9141289703,35.0098098999,2009
2009-12-11,2009-11-12,"עמק זבולון 43, מודיעין-מכבים-רעות",עמק זבולון 43,5869-31-1,דירת גן,3.0,קרקע,74.3,1200000,,,2003.0,,2.0,9179839536,1,586931,False,46% ב 2.3 שנים,מודיעין-מכבים-רעות,עמק זבולון,20.0,5869-31-1,5869/31,16150.740242261105,31.9071207726,34.997027538,2009
2009-12-10,2009-10-12,"הלוח העברי 2, מודיעין-מכבים-רעות",הלוח העברי 2,5734-7-5,דירה בבית קומות,3.0,שניה,69.3,925000,,,2003.0,,2.0,9176040384,1,57347,False,52% ב 3.3 שנים,מודיעין-מכבים-רעות,הלוח העברי,15.76,5734-7-5,5734/7,13347.763347763348,31.9154000657,35.0049623357,2009
2009-12-10,2009-10-12,"עצמון 26, מודיעין-מכבים-רעות",עצמון 26,5296-43-1,קוטג' דו משפחתי,5.0,,140.0,2550000,,,1991.0,,2.0,9176955144,1,529643,False,,מודיעין-מכבים-רעות,עצמון,,5296-43-1,5296/43,18214.285714285717,31.8895123724,35.0209771142,2009
2009-12-08,2009-08-12,"רא""ל יגאל ידין 51, מודיעין-מכבים-רעות","רא""ל יגאל ידין 51",5571-34-30,דירה בבית קומות,5.0,שביעית,150.1,1500000,,,2007.0,,16.0,9172105656,1,557134,False,40% ב 1.6 שנים,מודיעין-מכבים-רעות,"רא""ל יגאל ידין",25.0,5571-34-30,5571/34,9993.33777481679,31.9027074335,35.0043607826,2009
2009-12-08,2009-08-12,"אדר 39, מודיעין-מכבים-רעות",אדר 39,5735-28-11,דירה בבית קומות,3.0,ראשונה,77.1,837000,,,2008.0,,2.0,9173038392,1,573528,False,,מודיעין-מכבים-רעות,אדר,,5735-28-11,5735/28,10856.03112840467,31.9154420996,35.0126811725,2009
2009-12-08,2009-08-12,"שבטי ישראל 16, מודיעין-מכבים-רעות",שבטי ישראל 16,5814-5-30,דירה בבית קומות,5.0,קרקע,133.6,1800000,,,2006.0,,1.0,9171720852,1,58145,False,112% ב 7 שנים,מודיעין-מכבים-רעות,שבטי ישראל,16.0,5814-5-30,5814/5,13473.05389221557,31.8860141917,35.0045435827,2009
2009-12-06,2009-06-12,"יצחק רבין 3, מודיעין-מכבים-רעות",יצחק רבין 3,5813-7-14,דירה בבית קומות,4.0,קרקע,94.89,1415000,,,1999.0,,2.0,9165942576,1,58137,False,,מודיעין-מכבים-רעות,יצחק רבין,,5813-7-14,5813/7,14912.003372325851,31.8890330164,35.0077483476,2009
2009-12-05,2009-05-12,"חטיבת גולני 15, מודיעין-מכבים-רעות",חטיבת גולני 15,5568-30-9,דירה בבית קומות,4.0,ראשונה,83.15,1060000,,,2000.0,,3.0,9163615608,1,556830,False,,מודיעין-מכבים-רעות,חטיבת גולני,,5568-30-9,5568/30,12748.04570054119,31.910176896,35.0004929426,2009
2009-12-05,2009-05-12,"אפרים 36, מודיעין-מכבים-רעות",אפרים 36,5816-72-2,דירה בבית קומות,5.0,"קרקע, ראשונה",164.0,1870000,,,2009.0,,1.0,9163928844,1,581672,False,,מודיעין-מכבים-רעות,אפרים,,5816-72-2,5816/72,11402.439024390244,31.8837171814,35.0050676243,2009
2009-12-05,2009-05-12,"רא""ל יגאל ידין 49, מודיעין-מכבים-רעות","רא""ל יגאל ידין 49",5571-33-64,דירה בבית קומות,5.0,ארבע עשרה,150.0,1800000,,,2007.0,,16.0,9165527532,1,557133,False,,מודיעין-מכבים-רעות,"רא""ל יגאל ידין",,5571-33-64,5571/33,12000.0,31.9035037386,35.0043450634,2009
2009-12-05,2009-05-12,"אדר 35, מודיעין-מכבים-רעות",אדר 35,5735-29-7,דירה בבית קומות,4.0,שניה,81.45,916000,,,2008.0,,3.0,9164491476,1,573529,False,,מודיעין-מכבים-רעות,אדר,,5735-29-7,5735/29,11246.163290362185,31.9151675034,35.0131661111,2009
2009-12-05,2009-05-12,"ירח-אב 17, מודיעין-מכבים-רעות",ירח-אב 17,5735-22-8,דירה בבית קומות,4.0,ראשונה,103.76,1120000,,,2008.0,,3.0,9164283072,1,573522,False,,מודיעין-מכבים-רעות,ירח-אב,,5735-22-8,5735/22,10794.14032382421,31.9140383696,35.0126366274,2009
2009-12-04,2009-04-12,"לאה אימנו 39, מודיעין-מכבים-רעות",לאה אימנו 39,5816-73-2,דירה בבית קומות,5.0,"מרתף, קרקע, ראשונה",168.85,1950000,,,2008.0,,,9162680100,1,581673,False,,מודיעין-מכבים-רעות,לאה אמנו,,5816-73-2,5816/73,11548.711874444774,31.8836050189,35.0044081061,2009
2009-12-03,2009-03-12,"מגדל עוז 1, מודיעין-מכבים-רעות",מגדל עוז 1,5683-133-7,דירה בבית קומות,3.5,שניה,76.21,935000,,,2000.0,,9.0,9160810260,1,5683133,False,61% ב 9.8 שנים,מודיעין-מכבים-רעות,מגדל עוז,6.22,5683-133-7,5683/133,12268.731137645978,31.8978991604,35.0129493367,2009
2009-12-02,2009-02-12,"נחל שורק 3, מודיעין-מכבים-רעות",נחל שורק 3,5684-111-1,דירה בבית קומות,4.0,קרקע,94.0,1080000,,,1998.0,,2.0,9158750832,1,5684111,False,73% ב 11 שנים,מודיעין-מכבים-רעות,נחל שורק,6.64,5684-111-1,5684/111,11489.36170212766,31.8943510114,35.0105024882,2009
2009-12-02,2009-02-12,"לילך 114, מודיעין-מכבים-רעות",לילך 114,5297-412-1,קוטג' חד משפחתי,5.0,,138.0,2455000,,,1990.0,,2.0,9159106992,1,5297412,False,,מודיעין-מכבים-רעות,לילך,,5297-412-1,5297/412,17789.855072463768,31.8819345355,35.0183296347,2009
2009-12-01,2009-01-12,"אבני החושן 66, מודיעין-מכבים-רעות",אבני החושן 66,5868-27-19,דירה בבית קומות,5.0,קרקע + ראשונה,131.65,1500000,,,2002.0,,1.0,9156731976,1,586827,False,63% ב 6.2 שנים,מודיעין-מכבים-רעות,אבני החושן,10.16,5868-27-19,5868/27,11393.84732244588,31.9059296442,34.9918214791,2009
2009-11-30,2009-11-30,"כליל החורש 30, מודיעין-מכבים-רעות",כליל החורש 30,5687-14-5,דירה בבית קומות,4.0,קרקע וראשונה,117.1,1380000,,,1997.0,,1.0,9180248280,1,568714,False,,מודיעין-מכבים-רעות,כליל החורש,,5687-14-5,5687/14,11784.799316823228,31.901288268,35.015271239,2009
2009-11-30,2009-11-30,"שבט 34, מודיעין-מכבים-רעות",שבט 34,5735-11-51,דירה בבית קומות,4.0,רביעית,103.7,1100000,,,2010.0,,6.0,9180799992,1,573511,False,,מודיעין-מכבים-רעות,שבט,,5735-11-51,5735/11,10607.52169720347,31.9137826768,35.0117232437,2009
2009-11-30,2009-11-30,"מרים החשמונאית 54, מודיעין-מכבים-רעות",מרים החשמונאית 54,5818-85-13,קוטג' דו משפחתי,6.0,"קרקע, ראשונה",163.8,2400000,,,2005.0,,2.0,9180655176,1,581885,False,,מודיעין-מכבים-רעות,מרים החשמונאית,,5818-85-13,5818/85,14652.014652014652,31.8821395509,35.0097906751,2009
2009-11-30,2009-11-30,"אדר 37, מודיעין-מכבים-רעות",אדר 37,5735-29-13,דירה בבית קומות,4.0,ראשונה,86.15,1093000,,,2008.0,,3.0,9180894912,1,573529,False,,מודיעין-מכבים-רעות,אדר,,5735-29-13,5735/29,12687.17353453279,31.9151675034,35.0131661111,2009
2009-11-29,2009-11-29,"תשרי 21, מודיעין-מכבים-רעות",תשרי 21,5733-27-12,דירה בבית קומות,5.0,רביעית,106.55,1440000,,,2011.0,,4.0,9180710532,1,573327,False,,מודיעין-מכבים-רעות,תשרי,,5733-27-12,5733/27,13514.781792585642,31.9156888115,35.0097337609,2009
2009-11-29,2009-11-29,"נחל זוהר 33, מודיעין-מכבים-רעות",נחל זוהר 33,5684-10-4,דירה בבית קומות,4.5,שניה,107.0,1190000,,,1996.0,,3.0,9180782520,1,568410,False,,מודיעין-מכבים-רעות,נחל זוהר,,5684-10-4,5684/10,11121.495327102804,31.8929451224,35.0060435011,2009
2009-11-29,2009-11-29,"נחל תנינים 7, מודיעין-מכבים-רעות",נחל תנינים 7,5692-27-2,דירה בבית קומות,6.0,קרקע ראשונה ושניה,203.05,2750000,,,1995.0,,3.0,9241154580,1,569227,False,,מודיעין-מכבים-רעות,נחל תנינים,,5692-27-2,5692/27,13543.46220142822,31.8976580957,35.0227386917,2009
2009-11-29,2009-11-29,"ירמיהו הנביא 4, מודיעין-מכבים-רעות",ירמיהו הנביא 4,5569-13-61,דירה בבית קומות,4.0,ראשונה,86.95,1060000,,,2000.0,,2.0,9180232320,1,556913,False,,מודיעין-מכבים-רעות,ירמיהו הנביא,,5569-13-61,5569/13,12190.914318573892,31.9115277263,35.0050659673,2009
2009-11-29,2009-11-29,"כסלו 58, מודיעין-מכבים-רעות",כסלו 58,5734-23-22,דירה בבית קומות,3.0,שניה,91.6,840000,,,2010.0,,3.0,9180978072,1,573423,False,,מודיעין-מכבים-רעות,כסלו,,5734-23-22,5734/23,9170.305676855896,31.9161551731,35.0078720244,2009
2009-11-29,2009-11-29,"עמק דותן 19, מודיעין-מכבים-רעות",עמק דותן 19,5692-129-45,דירה בבית קומות,3.0,שלישית,74.15,1030000,,,1998.0,,4.0,9180282888,1,5692129,False,,מודיעין-מכבים-רעות,עמק דותן,,5692-129-45,5692/129,13890.761968981791,31.8984238504,35.0215866932,2009
2009-11-29,2009-11-29,"תשרי 23, מודיעין-מכבים-רעות",תשרי 23,5733-26-6,דירה בבית קומות,4.0,שניה,91.4,1060000,,,2012.0,,4.0,9180691296,1,573326,False,,מודיעין-מכבים-רעות,תשרי,,5733-26-6,5733/26,11597.374179431072,31.9159404747,35.0094474761,2009
2009-11-27,2009-11-27,"אפיקי מים 6, מודיעין-מכבים-רעות",אפיקי מים 6,5654-38-6,קוטג' טורי,6.0,קרקע וראשונה,143.42,2150000,,,1996.0,,,9180485328,1,565438,False,110% ב 10.7 שנים,מודיעין-מכבים-רעות,אפיקי מים,10.28,5654-38-6,5654/38,14990.93571328964,31.9074855993,35.0177559799,2009
2009-11-26,2009-11-26,"תשרי 21, מודיעין-מכבים-רעות",תשרי 21,5733-27-5,דירה בבית קומות,5.0,שניה,109.95,1150000,,,2011.0,,4.0,9180709188,1,573327,False,,מודיעין-מכבים-רעות,תשרי,,5733-27-5,5733/27,10459.299681673489,31.9156888115,35.0097337609,2009
2009-11-26,2009-11-26,"תרשיש 57, מודיעין-מכבים-רעות",תרשיש 57,5868-44-8,דירה בבית קומות,5.0,"רביעית, חמישית",133.42,1730000,,,2006.0,,6.0,9240784476,1,586844,False,,מודיעין-מכבים-רעות,תרשיש,,5868-44-8,5868/44,12966.571728376555,31.9060872155,34.9933905012,2009
2009-11-26,2009-11-26,"רבקה אימנו 26, מודיעין-מכבים-רעות",רבקה אימנו 26,5816-63-8,קוטג' טורי,3.5,מרתף קרקע וראשונה,157.8,1300000,,,2005.0,,3.0,9180712716,1,581663,False,,מודיעין-מכבים-רעות,רבקה אמנו,,5816-63-8,5816/63,8238.2762991128,31.8821621796,35.002771659,2009
2009-11-26,2009-11-26,"ערער 4, מודיעין-מכבים-רעות",ערער 4,5685-40-10,דירה בבית קומות,4.0,שניה,95.45,1158000,,,1996.0,,4.0,9181102896,1,568540,False,,מודיעין-מכבים-רעות,ערער,,5685-40-10,5685/40,12132.00628601362,31.8996922408,35.0096543819,2009
2009-11-26,2009-11-26,"אביטל 29, מודיעין-מכבים-רעות",אביטל 29,5296-97-1,קוטג' דו משפחתי,5.0,,180.0,2750000,,,1990.0,,2.0,9180241476,1,529697,False,,מודיעין-מכבים-רעות,אביטל,,5296-97-1,5296/97,15277.777777777776,31.8881179882,35.0230183486,2009
2009-11-25,2009-11-25,"נהר הירדן 24, מודיעין-מכבים-רעות",נהר הירדן 24,5683-77-5,דירה בבית קומות,4.0,שלישית,108.1,1340000,,,1997.0,,8.0,9182511576,1,568377,False,,מודיעין-מכבים-רעות,נהר הירדן,,5683-77-5,5683/77,12395.929694727103,31.8972123083,35.0092690295,2009
2009-11-25,2009-11-25,"תשרי 3, מודיעין-מכבים-רעות",תשרי 3,5734-73-6,דירה בבית קומות,3.0,שלישית,68.82,576000,,,2011.0,,3.0,9180152688,1,573473,False,,מודיעין-מכבים-רעות,תשרי,,5734-73-6,5734/73,8369.65998256321,31.9140359817,35.0102165076,2009
2009-11-25,2009-11-25,"רחל אימנו 22, מודיעין-מכבים-רעות",רחל אימנו 22,5819-57-17,דירה בבית קומות,6.0,"חמישית, שישית",129.8,1725000,,,2010.0,,7.0,9240853608,1,581957,False,,מודיעין-מכבים-רעות,רחל אמנו,,5819-57-17,5819/57,13289.676425269645,31.8788326285,35.0082141548,2009
2009-11-25,2009-11-25,"שני 18, מודיעין-מכבים-רעות",שני 18,5874-30-15,דירה בבית קומות,5.0,ראשונה ושניה,130.05,1480000,,,2005.0,,3.0,9180456852,1,587430,False,,מודיעין-מכבים-רעות,שני,,5874-30-15,5874/30,11380.238369857749,31.9000619888,34.998567605,2009
2009-11-25,2009-11-25,"ירמיהו הנביא 20, מודיעין-מכבים-רעות",ירמיהו הנביא 20,5569-12-50,דירה בבית קומות,3.0,ראשונה,69.9,1061000,,,1998.0,,3.0,9180301032,1,556912,False,113% ב 11.3 שנים,מודיעין-מכבים-רעות,ירמיהו הנביא,10.0,5569-12-50,5569/12,15178.826895565093,31.9124569095,35.0038466204,2009
2009-11-24,2009-11-24,"לאה אימנו 81, מודיעין-מכבים-רעות",לאה אימנו 81,5817-17-43,דירת גן,4.5,קרקע,99.0,1100000,,,2008.0,,1.0,9180083472,1,581717,False,,מודיעין-מכבים-רעות,לאה אמנו,,5817-17-43,5817/17,11111.111111111111,31.8806323444,35.0029617917,2009
2009-11-24,2009-11-24,"שרה אימנו 17, מודיעין-מכבים-רעות",שרה אימנו 17,5819-93-1,דירת גן,5.0,"קומה ‎0‏, קומה ‎1‏",128.6,1673000,,,2007.0,,3.0,9181484592,1,581993,False,,מודיעין-מכבים-רעות,שרה אמנו,,5819-93-1,5819/93,13009.331259720062,31.8807452163,35.0101361791,2009
2009-11-23,2009-11-23,"עמק החולה 65, מודיעין-מכבים-רעות",עמק החולה 65,5688-39-2,דירה בבית קומות,4.0,ראשונה,90.0,1290000,,,1996.0,,3.0,9181806732,1,568839,False,,מודיעין-מכבים-רעות,עמק החולה,,5688-39-2,5688/39,14333.333333333334,31.8951858059,35.0138966121,2009
2009-11-23,2009-11-23,"כסלו 6, מודיעין-מכבים-רעות",כסלו 6,5734-74-11,דירה בבית קומות,3.0,שלישית,68.82,590000,,,2011.0,,3.0,9180158988,1,573474,False,,מודיעין-מכבים-רעות,כסלו,,5734-74-11,5734/74,8573.089218250509,31.9141289703,35.0098098999,2009
2009-11-23,2009-11-23,"רא""ל יגאל ידין 49, מודיעין-מכבים-רעות","רא""ל יגאל ידין 49",5571-33-62,דירה בבית קומות,5.0,אחת עשרה,150.0,1300000,,,2007.0,,16.0,9240587664,1,557133,False,,מודיעין-מכבים-רעות,"רא""ל יגאל ידין",,5571-33-62,5571/33,8666.666666666666,31.9035037386,35.0043450634,2009
2009-11-23,2009-11-23,"עצמון 9, מודיעין-מכבים-רעות",עצמון 9,5296-50-1,קוטג' חד משפחתי,6.0,,166.0,2699000,,,1991.0,,2.0,9180527076,1,529650,False,,מודיעין-מכבים-רעות,עצמון,,5296-50-1,5296/50,16259.036144578313,31.8899205785,35.0203600754,2009
2009-11-22,2009-11-22,"מגדל הלבנון 7, מודיעין-מכבים-רעות",מגדל הלבנון 7,5684-75-240,דירה בבית קומות,4.0,שמינית,98.55,1300000,,,2002.0,,10.0,9180464580,1,568475,False,,מודיעין-מכבים-רעות,מגדל הלבנון,,5684-75-240,5684/75,13191.273465246068,31.8948223544,35.0078793475,2009
2009-11-22,2009-11-22,"שבט 40, מודיעין-מכבים-רעות",שבט 40,5735-20-15,דירה בבית קומות,5.0,ראשונה,96.52,1185000,,,2010.0,,2.0,9180176292,1,573520,False,,מודיעין-מכבים-רעות,שבט,,5735-20-15,5735/20,12277.248238707003,31.9143052905,35.012436256,2009
2009-11-19,2009-11-19,"רחל אימנו 55, מודיעין-מכבים-רעות",רחל אימנו 55,5817-39-8,דירה בבית קומות,5.0,חמישית ושישית,124.7,1530000,,,2009.0,,3.0,9180131856,1,581739,False,,מודיעין-מכבים-רעות,רחל אמנו,,5817-39-8,5817/39,12269.446672012831,31.8795253226,35.0055471197,2009
2009-11-19,2009-11-19,"נחל שורק 34, מודיעין-מכבים-רעות",נחל שורק 34,5682-65-8,דירה בבית קומות,5.5,שלישית ורביעית,127.0,1490000,,,1997.0,,3.0,9179989140,1,568265,False,,מודיעין-מכבים-רעות,נחל שורק,,5682-65-8,5682/65,11732.28346456693,31.895518756,35.0057187221,2009
2009-11-19,2009-11-19,"טבת 4, מודיעין-מכבים-רעות",טבת 4,5734-75-6,דירה בבית קומות,3.0,שלישית,68.94,587000,,,2011.0,,3.0,9179732100,1,573475,False,,מודיעין-מכבים-רעות,טבת,,5734-75-6,5734/75,8514.650420655644,31.9145768612,35.009550987,2009
2009-11-19,2009-11-19,"רא""ל חיים לסקוב 23, מודיעין-מכבים-רעות","רא""ל חיים לסקוב 23",5698-15-6,בית בודד,5.0,קרקע וראשונה,129.1,1760000,,,1998.0,,1.0,9179612148,1,569815,False,,מודיעין-מכבים-רעות,"רא""ל חיים לסקוב",,5698-15-6,5698/15,13632.842757552286,31.9103500216,34.9983159562,2009
2009-11-18,2009-11-18,"מגדל המנורה 14, מודיעין-מכבים-רעות",מגדל המנורה 14,5872-19-37,דירה בבית קומות,4.0,חמישית,106.2,1470000,,,2004.0,,9.0,9179531004,1,587219,False,,מודיעין-מכבים-רעות,מגדל המנורה,,5872-19-37,5872/19,13841.807909604518,31.9017364586,34.9980567414,2009
2009-11-18,2009-11-18,"שרה אימנו 132, מודיעין-מכבים-רעות",שרה אימנו 132,5816-10-13,דירת גג,4.0,"שלישית, רביעית",102.0,1500000,,,2007.0,,6.0,9179939328,1,581610,False,,מודיעין-מכבים-רעות,שרה אמנו,,5816-10-13,5816/10,14705.882352941177,31.8824689881,35.00398688,2009
2009-11-17,2009-11-17,"תכלת 65, מודיעין-מכבים-רעות",תכלת 65,5871-52-10,דירה בבית קומות,3.0,רביעית,76.9,1095000,,,2002.0,,4.0,9179636424,1,587152,False,83% ב 7 שנים,מודיעין-מכבים-רעות,תכלת,11.86,5871-52-10,5871/52,14239.27178153446,31.9018118357,34.9951288032,2009
2009-11-16,2009-11-16,"עמק זבולון 15, מודיעין-מכבים-רעות",עמק זבולון 15,5872-24-5,דירה בבית קומות,4.0,שניה,104.3,1150000,,,2005.0,,2.0,9179398116,1,587224,False,,מודיעין-מכבים-רעות,עמק זבולון,,5872-24-5,5872/24,11025.88686481304,31.9025936093,34.9999351644,2009
2009-11-16,2009-11-16,"תכלת 15, מודיעין-מכבים-רעות",תכלת 15,5874-33-15,דירה בבית קומות,5.0,ראשונה ושניה,127.25,1417000,,,2004.0,,3.0,9181247544,1,587433,False,77% ב 5.5 שנים,מודיעין-מכבים-רעות,תכלת,14.0,5874-33-15,5874/33,11135.55992141454,31.9009442479,34.9998515063,2009
2009-11-16,2009-11-16,"אלול 7, מודיעין-מכבים-רעות",אלול 7,5732-43-16,דירה בבית קומות,3.0,ראשונה,97.85,790000,,,2010.0,,3.0,9181801860,1,573243,False,,מודיעין-מכבים-רעות,אלול,,5732-43-16,5732/43,8073.582013285642,31.9186245017,35.0054611423,2009
2009-11-16,2009-11-16,"כרכום 13, מודיעין-מכבים-רעות",כרכום 13,5653-25-4,דירה בבית קומות,5.0,שניה,106.91,1360000,,,1997.0,,4.0,9180105564,1,565325,False,,מודיעין-מכבים-רעות,כרכום,,5653-25-4,5653/25,12720.980263773268,31.9060027473,35.013323643,2009
2009-11-15,2009-11-15,"עמק החולה 97, מודיעין-מכבים-רעות",עמק החולה 97,5683-75-11,דירה בבית קומות,4.0,שניה,96.1,1200000,,,1996.0,,,9179955876,1,568375,False,57% ב 5.3 שנים,מודיעין-מכבים-רעות,עמק החולה,10.75,5683-75-11,5683/75,12486.992715920916,31.8972858424,35.0097057748,2009
2009-11-15,2009-11-15,"אודם 21, מודיעין-מכבים-רעות",אודם 21,5870-20-41,דירה בבית קומות,4.0,שניה,97.1,1225000,,,2005.0,,4.0,9179946048,1,587020,False,94% ב 6.5 שנים,מודיעין-מכבים-רעות,אודם,14.46,5870-20-41,5870/20,12615.859938208034,31.9040364441,34.995172935,2009
2009-11-12,2009-12-11,"קיפודן 18, מודיעין-מכבים-רעות",קיפודן 18,5656-61-16,דירה בבית קומות,3.0,ראשונה,66.1,1025000,,,1997.0,,5.0,9181367496,1,565661,False,,מודיעין-מכבים-רעות,קיפודן,,5656-61-16,5656/61,15506.807866868385,31.9042060203,35.0095916744,2009
2009-11-11,2009-11-11,"עמק החולה 73, מודיעין-מכבים-רעות",עמק החולה 73,5683-88-11,דירה בבית קומות,4.0,שניה,91.2,1228000,,,1999.0,,4.0,9179225412,1,568388,False,,מודיעין-מכבים-רעות,עמק החולה,,5683-88-11,5683/88,13464.912280701754,31.8951154583,35.0121567506,2009
2009-11-11,2009-11-11,"שבט 11, מודיעין-מכבים-רעות",שבט 11,5736-39-127,דירה בבית קומות,4.0,ראשונה,84.35,1050000,,,2007.0,,7.0,9181154052,1,573639,False,50% ב 2 שנים,מודיעין-מכבים-רעות,שבט,25.0,5736-39-127,5736/39,12448.132780082988,31.912036065,35.0133046456,2009
2009-11-11,2009-11-11,"רחל אימנו 17, מודיעין-מכבים-רעות",רחל אימנו 17,5819-49-2,דירה בבית קומות,6.0,"קרקע, ראשונה",123.1,1584000,,,2008.0,,3.0,9180321192,1,581949,False,,מודיעין-מכבים-רעות,רחל אמנו,,5819-49-2,5819/49,12867.587327376115,31.8796930241,35.0102748311,2009
2009-11-11,2009-11-11,"תשרי 28, מודיעין-מכבים-רעות",תשרי 28,5733-16-30,דירה בבית קומות,3.0,שלישית,68.82,606000,,,2011.0,,3.0,9179133936,1,573316,False,,מודיעין-מכבים-רעות,תשרי,,5733-16-30,5733/16,8805.57977332171,31.9156178725,35.010439215,2009
2009-11-11,2009-11-11,"תשרי 7, מודיעין-מכבים-רעות",תשרי 7,5734-72-9,דירה בבית קומות,3.0,שניה,74.43,589000,,,2010.0,,3.0,9179134608,1,573472,False,,מודיעין-מכבים-רעות,תשרי,,5734-72-9,5734/72,7913.47574902593,31.9144399664,35.0101191674,2009
2009-11-08,2009-08-11,"ירח-אב 13, מודיעין-מכבים-רעות",ירח-אב 13,5735-10-22,דירה בבית קומות,5.0,שישית,101.89,1210000,,,2010.0,,21.0,9171824844,1,573510,False,,מודיעין-מכבים-רעות,ירח-אב,,5735-10-22,5735/10,11875.55206595348,31.9136512293,35.0120722111,2009
2009-11-06,2009-06-11,"נהר הירדן 10, מודיעין-מכבים-רעות",נהר הירדן 10,5683-89-5,דירה בבית קומות,3.0,שלישית,65.6,945000,,,2000.0,,3.0,9166413984,1,568389,False,51% ב 7.6 שנים,מודיעין-מכבים-רעות,נהר הירדן,6.71,5683-89-5,5683/89,14405.48780487805,31.8953082744,35.0111541879,2009
2009-11-06,2009-06-11,"עמק דותן 69, מודיעין-מכבים-רעות",עמק דותן 69,5683-14-15,דירה בבית קומות,3.0,שלישית,74.56,900000,,,1996.0,,4.0,9166993920,1,568314,False,,מודיעין-מכבים-רעות,עמק דותן,,5683-14-15,5683/14,12070.815450643777,31.8989191941,35.0107553008,2009
2009-11-06,2009-06-11,"רא""ל משה דיין 26, מודיעין-מכבים-רעות","רא""ל משה דיין 26",5693-11-1,דירה בבית קומות,4.5,קרקע וראשונה,128.2,1630000,,,1999.0,,1.0,9166127712,1,569311,False,,מודיעין-מכבים-רעות,"רא""ל משה דיין",,5693-11-1,5693/11,12714.508580343216,31.9075801536,35.0019768577,2009
2009-11-06,2009-06-11,"אפיקי מים 1, מודיעין-מכבים-רעות",אפיקי מים 1,5654-38-1,קוטג' דו משפחתי,5.0,קרקע וראשונה,143.43,1640000,,,1997.0,,2.0,9165943248,1,565438,False,,מודיעין-מכבים-רעות,אפיקי מים,,5654-38-1,5654/38,11434.149062260336,31.9074855993,35.0177559799,2009
2009-11-05,2009-05-11,"צאלון 17, מודיעין-מכבים-רעות",צאלון 17,5654-40-24,חנות,,קרקע,88.1,1558000,,,1997.0,,5.0,9164280888,1,565440,False,,מודיעין-מכבים-רעות,צאלון,,5654-40-24,5654/40,17684.4494892168,31.9066916279,35.0170734476,2009
2009-11-05,2009-05-11,"עמק איילון 42, מודיעין-מכבים-רעות",עמק איילון 42,5656-23-47,דירה בבית קומות,3.0,קרקע,79.5,840000,,,1996.0,,5.0,9163966476,1,565623,False,48% ב 5.3 שנים,מודיעין-מכבים-רעות,עמק איילון,9.06,5656-23-47,5656/23,10566.037735849057,31.9032746569,35.0125054784,2009
2009-11-05,2009-05-11,"אפרים 42, מודיעין-מכבים-רעות",אפרים 42,5816-74-7,דירה בבית קומות,5.0,"ראשונה, שניה, שלישית",169.55,1840000,,,2009.0,,1.0,9165197664,1,581674,False,,מודיעין-מכבים-רעות,אפרים,,5816-74-7,5816/74,10852.255971689769,31.8833872871,35.0046793865,2009
2009-11-03,2009-03-11,"שבט 49, מודיעין-מכבים-רעות",שבט 49,5735-18-13,דירה בבית קומות,4.0,שלישית,90.6,945000,,,2008.0,,3.0,9161085444,1,573518,False,,מודיעין-מכבים-רעות,חשון,,5735-18-13,5735/18,10430.463576158942,31.9148089572,35.0122234597,2009
2009-11-03,2009-03-11,"חטיבת גבעתי 32, מודיעין-מכבים-רעות",חטיבת גבעתי 32,5568-16-4,דירה בבית קומות,3.0,ראשונה,78.3,830000,,,1999.0,,2.0,9160219908,1,556816,False,31% ב 2 שנים,מודיעין-מכבים-רעות,חטיבת גבעתי,15.5,5568-16-4,5568/16,10600.255427841636,31.9118323087,35.0010069952,2009
2009-11-03,2009-03-11,"שבט 37, מודיעין-מכבים-רעות",שבט 37,5735-23-1,דירה בבית קומות,5.0,"קרקע, ראשונה",132.8,1085000,,,2008.0,,4.0,9160768008,1,573523,False,,מודיעין-מכבים-רעות,שבט,,5735-23-1,5735/23,8170.180722891566,31.9141121312,35.0111161619,2009
2009-11-03,2009-03-11,"שבט 49, מודיעין-מכבים-רעות",שבט 49,5735-18-8,דירה בבית קומות,4.0,ראשונה,100.0,925000,,,2008.0,,3.0,9161082756,1,573518,False,,מודיעין-מכבים-רעות,חשון,,5735-18-8,5735/18,9250.0,31.9148089572,35.0122234597,2009
2009-11-03,2009-03-11,"ציפורנית 10, מודיעין-מכבים-רעות",ציפורנית 10,5653-33-13,דירת גן,5.0,ראשונה,105.8,1065000,,,1997.0,,4.0,9160168668,1,565333,False,,מודיעין-מכבים-רעות,ציפורנית,,5653-33-13,5653/33,10066.16257088847,31.9062735535,35.0144732955,2009
2009-11-02,2009-02-11,"שבט 37, מודיעין-מכבים-רעות",שבט 37,5735-23-6,דירה בבית קומות,5.0,שניה,120.1,987000,,,2008.0,,4.0,9158980740,1,573523,False,,מודיעין-מכבים-רעות,שבט,,5735-23-6,5735/23,8218.151540383014,31.9141121312,35.0111161619,2009
2009-11-02,2009-02-11,"חטיבת הצנחנים 17, מודיעין-מכבים-רעות",חטיבת הצנחנים 17,5869-29-7,דירה בבית קומות,4.0,קרקע,102.3,1375000,,,2004.0,,2.0,9158459520,1,586929,False,,מודיעין-מכבים-רעות,חטיבת הצנחנים,,5869-29-7,5869/29,13440.860215053764,31.9072515628,34.999087291,2009
2009-11-02,2009-02-11,"רא""ל דוד אלעזר 41, מודיעין-מכבים-רעות","רא""ל דוד אלעזר 41",5696-7-3,דירה בבית קומות,4.0,קרקע וראשונה,129.5,771000,,,1997.0,,1.0,9158453388,1,56967,False,,מודיעין-מכבים-רעות,"רא""ל דוד אלעזר",,5696-7-3,5696/7,5953.667953667954,31.9095482377,35.000449424,2009
2009-11-02,2009-02-11,"אבני החושן 4, מודיעין-מכבים-רעות",אבני החושן 4,5870-35-8,דירה בבית קומות,4.5,ראשונה,103.0,1300000,,,2003.0,,3.0,9158461704,1,587035,False,71% ב 7 שנים,מודיעין-מכבים-רעות,אבני החושן,10.14,5870-35-8,5870/35,12621.359223300971,31.9030088057,34.9993802678,2009
2009-10-30,2009-10-30,"שרה אימנו 21, מודיעין-מכבים-רעות",שרה אימנו 21,5819-75-1,דירת גן,5.0,"קרקע, ראשונה",128.1,1687000,,,2007.0,,2.0,9181079880,1,581975,False,,מודיעין-מכבים-רעות,שרה אמנו,,5819-75-1,5819/75,13169.398907103823,31.8804576378,35.0098557427,2009
2009-10-29,2009-10-29,"רחל אימנו 19, מודיעין-מכבים-רעות",רחל אימנו 19,5819-49-9,דירה בבית קומות,6.0,"קרקע, ראשונה",123.1,1600000,,,2008.0,,3.0,9180449880,1,581949,False,,מודיעין-מכבים-רעות,רחל אמנו,,5819-49-9,5819/49,12997.562956945574,31.8796930241,35.0102748311,2009
2009-10-29,2009-10-29,"עמק בית שאן 20, מודיעין-מכבים-רעות",עמק בית שאן 20,5569-49-5,דירה בבית קומות,3.0,שניה,79.3,950000,,,1998.0,,2.0,9177917196,1,556949,False,72% ב 10.8 שנים,מודיעין-מכבים-רעות,עמק בית שאן,6.67,5569-49-5,5569/49,11979.823455233292,31.9118525204,35.0032334491,2009
2009-10-29,2009-10-29,"טבת 4, מודיעין-מכבים-רעות",טבת 4,5734-75-10,דירה בבית קומות,3.0,שניה,75.42,607000,,,2011.0,,3.0,9177704256,1,573475,False,,מודיעין-מכבים-רעות,טבת,,5734-75-10,5734/75,8048.263060196235,31.9145768612,35.009550987,2009
2009-10-28,2009-10-28,"שני 40, מודיעין-מכבים-רעות",שני 40,5874-37-0,דירת גן,5.0,,135.0,1780000,,,2002.0,,1.0,9177725088,1,587437,False,100% ב 7.3 שנים,מודיעין-מכבים-רעות,שני,13.7,5874-37-0,5874/37,13185.185185185184,31.900759148,34.9961935023,2009
2009-10-28,2009-10-28,"שרה אימנו 23, מודיעין-מכבים-רעות",שרה אימנו 23,5819-76-2,דירת גן,5.0,"קרקע, ראשונה",128.1,1566000,,,2007.0,,2.0,9180533040,1,581976,False,,מודיעין-מכבים-רעות,שרה אמנו,,5819-76-2,5819/76,12224.824355971898,31.8802828496,35.0096511405,2009
2009-10-28,2009-10-28,"תשרי 28, מודיעין-מכבים-רעות",תשרי 28,5733-16-29,דירה בבית קומות,3.0,שלישית,68.82,606000,,,2011.0,,3.0,9177700140,1,573316,False,,מודיעין-מכבים-רעות,תשרי,,5733-16-29,5733/16,8805.57977332171,31.9156178725,35.010439215,2009
2009-10-28,2009-10-28,"שרה אימנו 23, מודיעין-מכבים-רעות",שרה אימנו 23,5819-76-1,דירה בבית קומות,5.0,"קרקע, ראשונה",128.1,1583000,,,2007.0,,2.0,9179974524,1,581976,False,,מודיעין-מכבים-רעות,שרה אמנו,,5819-76-1,5819/76,12357.533177205309,31.8802828496,35.0096511405,2009
2009-10-28,2009-10-28,"אבני החושן 47, מודיעין-מכבים-רעות",אבני החושן 47,5871-22-34,דירה בבית קומות,4.0,ראשונה,91.53,1185000,,,2003.0,,3.0,9177741048,1,587122,False,,מודיעין-מכבים-רעות,אבני החושן,,5871-22-34,5871/22,12946.574893477547,31.9033443732,34.9923807247,2009
2009-10-28,2009-10-28,"שבט 40, מודיעין-מכבים-רעות",שבט 40,5735-20-21,דירה בבית קומות,5.0,ראשונה,96.52,1150000,,,2010.0,,2.0,9177697284,1,573520,False,,מודיעין-מכבים-רעות,שבט,,5735-20-21,5735/20,11914.62909241608,31.9143052905,35.012436256,2009
2009-10-28,2009-10-28,"שמואל הנביא 24, מודיעין-מכבים-רעות",שמואל הנביא 24,5567-63-12,דירה בבית קומות,4.0,שניה,95.91,1080000,,,1998.0,,2.0,9177932988,1,556763,False,42% ב 6.3 שנים,מודיעין-מכבים-רעות,שמואל הנביא,6.67,5567-63-12,5567/63,11260.556771973726,31.9135916954,35.0035474442,2009
2009-10-27,2009-10-27,"טבת 4, מודיעין-מכבים-רעות",טבת 4,5734-75-15,דירה בבית קומות,3.0,שניה,75.42,600000,,,2011.0,,3.0,9177681324,1,573475,False,,מודיעין-מכבים-רעות,טבת,,5734-75-15,5734/75,7955.449482895783,31.9145768612,35.009550987,2009
2009-10-27,2009-10-27,"תשרי 17, מודיעין-מכבים-רעות",תשרי 17,5733-28-4,דירה בבית קומות,5.0,ראשונה,129.55,1200000,,,2010.0,,3.0,9178774920,1,573328,False,,מודיעין-מכבים-רעות,תשרי,,5733-28-4,5733/28,9262.832883056732,31.915403193,35.0100414545,2009
2009-10-27,2009-10-27,"תשרי 17, מודיעין-מכבים-רעות",תשרי 17,5733-28-1,דירה בבית קומות,4.0,קרקע,91.3,1150000,,,2010.0,,3.0,9178776432,1,573328,False,,מודיעין-מכבים-רעות,תשרי,,5733-28-1,5733/28,12595.837897042717,31.915403193,35.0100414545,2009
2009-10-27,2009-10-27,"טבת 4, מודיעין-מכבים-רעות",טבת 4,5734-75-9,דירה בבית קומות,3.0,שניה,75.42,607000,,,2011.0,,3.0,9177705600,1,573475,False,,מודיעין-מכבים-רעות,טבת,,5734-75-9,5734/75,8048.263060196235,31.9145768612,35.009550987,2009
2009-10-26,2009-10-26,"ירח-אב 13, מודיעין-מכבים-רעות",ירח-אב 13,5735-10-30,דירה בבית קומות,5.0,שמינית,101.89,1312000,,,2010.0,,21.0,9177695268,1,573510,False,,מודיעין-מכבים-רעות,ירח-אב,,5735-10-30,5735/10,12876.63166159584,31.9136512293,35.0120722111,2009
2009-10-26,2009-10-26,"ישעיהו הנביא 43, מודיעין-מכבים-רעות",ישעיהו הנביא 43,5567-10-89,דירה בבית קומות,4.0,רביעית,92.7,1140000,,,1998.0,,3.0,9177402276,1,556710,False,57% ב 5 שנים,מודיעין-מכבים-רעות,ישעיהו הנביא,11.4,5567-10-89,5567/10,12297.734627831716,31.9146111495,35.0041034967,2009
2009-10-25,2009-10-25,"אבני החושן 70, מודיעין-מכבים-רעות",אבני החושן 70,5868-27-48,דירה בבית קומות,1.0,ראשונה + שניה,105.0,1310000,,,2002.0,,1.0,9179294796,1,586827,False,,מודיעין-מכבים-רעות,אבני החושן,,5868-27-48,5868/27,12476.190476190475,31.9059296442,34.9918214791,2009
2009-10-25,2009-10-25,"עמוס הנביא 14, מודיעין-מכבים-רעות",עמוס הנביא 14,5567-83-13,דירה בבית קומות,4.0,שישית + שביעית,100.0,1676000,,,2007.0,,27.0,9178212960,1,556783,False,60% ב 1.7 שנים,מודיעין-מכבים-רעות,עמוס הנביא,35.29,5567-83-13,5567/83,16760.0,31.9155099204,35.0019056369,2009
2009-10-25,2009-10-25,"יששכר 70, מודיעין-מכבים-רעות",יששכר 70,5815-72-1,קוטג' חד משפחתי,6.0,,150.0,2100000,,,2005.0,,,9177275352,1,581572,False,,מודיעין-מכבים-רעות,יששכר,,5815-72-1,5815/72,14000.0,31.8844736298,35.0002309157,2009
2009-10-23,2009-10-23,"שני 45, מודיעין-מכבים-רעות",שני 45,5871-44-4,דירה בבית קומות,5.5,שניה ושלישית,129.3,2220000,,,2004.0,,3.0,9177761796,1,587144,False,,מודיעין-מכבים-רעות,שני,,5871-44-4,5871/44,17169.37354988399,31.9009953996,34.9938529651,2009
2009-10-22,2009-10-22,"דם המכבים 15, מודיעין-מכבים-רעות",דם המכבים 15,5652-54-7,דירה בבית קומות,4.0,קרקע,101.8,1270000,,,1998.0,,5.0,9177386988,1,565254,False,65% ב 4.9 שנים,מודיעין-מכבים-רעות,דם המכבים,13.27,5652-54-7,5652/54,12475.442043222003,31.9082371788,35.0101689405,2009
2009-10-22,2009-10-22,"רא""ל יגאל ידין 39, מודיעין-מכבים-רעות","רא""ל יגאל ידין 39",5571-32-35,דירה בבית קומות,4.0,שמינית,126.0,1340000,,,2007.0,,17.0,9177032004,1,557132,False,,מודיעין-מכבים-רעות,"רא""ל יגאל ידין",,5571-32-35,5571/32,10634.920634920634,31.9044538939,35.0042638394,2009
2009-10-22,2009-10-22,"ישעיהו הנביא 35, מודיעין-מכבים-רעות",ישעיהו הנביא 35,5567-8-31,דירה בבית קומות,4.0,שניה,93.7,1475000,,,2000.0,,4.0,9177596820,1,55678,False,,מודיעין-מכבים-רעות,ישעיהו הנביא,,5567-8-31,5567/8,15741.72892209178,31.9161231047,35.0032048946,2009
2009-10-22,2009-10-22,"עמק איילון 14, מודיעין-מכבים-רעות",עמק איילון 14,5653-41-34,דירה בבית קומות,3.0,שלישית,69.55,920000,,,1996.0,,5.0,9177483168,1,565341,False,,מודיעין-מכבים-רעות,עמק איילון,,5653-41-34,5653/41,13227.893601725378,31.9061018624,35.0153596141,2009
2009-10-21,2009-10-21,"לוע הארי 18, מודיעין-מכבים-רעות",לוע הארי 18,5655-19-6,דירה בבית קומות,3.0,שניה,60.0,840000,,,1996.0,,3.0,9177778428,1,565519,False,,מודיעין-מכבים-רעות,לוע הארי,,5655-19-6,5655/19,14000.0,31.9052241158,35.0086078427,2009
2009-10-21,2009-10-21,"נחל צלמון 2, מודיעין-מכבים-רעות",נחל צלמון 2,5684-68-24,דירה בבית קומות,4.0,שניה,98.7,1070000,,,1997.0,,4.0,9177138180,1,568468,False,,מודיעין-מכבים-רעות,נחל צלמון,,5684-68-24,5684/68,10840.932117527862,31.893400191,35.0097341589,2009
2009-10-19,2009-10-19,"שרה אימנו 82, מודיעין-מכבים-רעות",שרה אימנו 82,5819-12-3,דירה בבית קומות,4.0,ראשונה,92.9,1355000,,,2008.0,,,9177736176,1,581912,False,,מודיעין-מכבים-רעות,שרה אמנו,,5819-12-3,5819/12,14585.575888051668,31.8796450034,35.0073010436,2009
2009-10-19,2009-10-19,"שבו 4, מודיעין-מכבים-רעות",שבו 4,5868-31-9,דירה בבית קומות,5.0,ראשונה,116.15,1250000,,,2004.0,,2.0,9177427644,1,586831,False,65% ב 5.4 שנים,מודיעין-מכבים-רעות,שבו,12.04,5868-31-9,5868/31,10761.94575979337,31.9083902781,34.9934396357,2009
2009-10-19,2009-10-19,"עמק זבולון 24, מודיעין-מכבים-רעות",עמק זבולון 24,5869-72-1,דירה בבית קומות,4.5,ראשונה,89.0,1460000,,,2006.0,,3.0,9180610908,1,586972,False,29% ב 1.5 שנים,מודיעין-מכבים-רעות,עמק זבולון,19.33,5869-72-1,5869/72,16404.494382022473,31.9079520391,34.9982081572,2009
2009-10-16,2009-10-16,"נהר הירדן 11, מודיעין-מכבים-רעות",נהר הירדן 11,5683-107-4,דירה בבית קומות,3.5,שלישית,94.0,1250000,,,1998.0,,3.0,9177740376,1,5683107,False,,מודיעין-מכבים-רעות,נהר הירדן,,5683-107-4,5683/107,13297.872340425532,31.8946822405,35.011215223,2009
2009-10-16,2009-10-16,"מגדל ים 6, מודיעין-מכבים-רעות",מגדל ים 6,5868-15-112,דירה בבית קומות,4.0,חמש עשרה,113.7,1288000,,,2008.0,,19.0,9177676452,1,586815,False,,מודיעין-מכבים-רעות,מגדל ים,,5868-15-112,5868/15,11328.056288478452,31.9062219865,34.9943737907,2009
2009-10-15,2009-10-15,"ישעיהו הנביא 47, מודיעין-מכבים-רעות",ישעיהו הנביא 47,5567-10-69,דירה בבית קומות,3.0,שניה,71.25,940000,,,2000.0,,3.0,9176948844,1,556710,False,,מודיעין-מכבים-רעות,ישעיהו הנביא,,5567-10-69,5567/10,13192.982456140351,31.9146111495,35.0041034967,2009
2009-10-15,2009-10-15,"תשרי 21, מודיעין-מכבים-רעות",תשרי 21,5733-27-9,דירה בבית קומות,4.0,שלישית,91.15,1155000,,,2011.0,,4.0,9178027992,1,573327,False,,מודיעין-מכבים-רעות,תשרי,,5733-27-9,5733/27,12671.420735052112,31.9156888115,35.0097337609,2009
2009-10-15,2009-10-15,"לבונה 11, מודיעין-מכבים-רעות",לבונה 11,5685-27-37,דירה בבית קומות,4.0,שניה + שלישית,123.75,1420000,,,1993.0,,2.0,9176951700,1,568527,False,,מודיעין-מכבים-רעות,לבונה,,5685-27-37,5685/27,11474.747474747475,31.9000260262,35.0117762232,2009
2009-10-15,2009-10-15,"שבט 34, מודיעין-מכבים-רעות",שבט 34,5735-11-58,דירה בבית קומות,4.0,שניה,102.73,1045000,,,2010.0,,6.0,9176664756,1,573511,False,,מודיעין-מכבים-רעות,שבט,,5735-11-58,5735/11,10172.296310717416,31.9137826768,35.0117232437,2009
2009-10-15,2009-10-15,"המעיין 4, מודיעין-מכבים-רעות",המעיין 4,5894-9-19,משרד,,ראשונה,60.0,288000,,,2006.0,,2.0,9176865684,1,58949,False,,מודיעין-מכבים-רעות,המעיין,,5894-9-19,5894/9,4800.0,31.9212629029,34.9680243932,2009
2009-10-15,2009-10-15,"נחל נטפים 9, מודיעין-מכבים-רעות",נחל נטפים 9,5692-81-1,קוטג' דו משפחתי,6.0,קרקע וראשונה,133.75,2000000,,,1996.0,,2.0,9177445788,1,569281,False,45% ב 5.6 שנים,מודיעין-מכבים-רעות,נחל נטפים,8.04,5692-81-1,5692/81,14953.271028037385,31.8953674739,35.0242461124,2009
2009-10-14,2009-10-14,"שבט 34, מודיעין-מכבים-רעות",שבט 34,5735-11-77,דירה בבית קומות,5.0,שישית,114.68,1500000,,,2010.0,,6.0,9176682060,1,573511,False,,מודיעין-מכבים-רעות,שבט,,5735-11-77,5735/11,13079.87443320544,31.9137826768,35.0117232437,2009
2009-10-14,2009-10-14,"חשוון 20, מודיעין-מכבים-רעות",חשוון 20,5735-30-21,דירה בבית קומות,4.5,שניה,96.8,1100000,,,2008.0,,3.0,9177372372,1,573530,False,,מודיעין-מכבים-רעות,חשון,,5735-30-21,5735/30,11363.636363636364,31.9148341075,35.0131347263,2009
2009-10-14,2009-10-14,"חטיבת הצנחנים 33, מודיעין-מכבים-רעות",חטיבת הצנחנים 33,5869-66-4,דירה בבית קומות,3.0,שניה,79.0,1080000,,,2005.0,,3.0,9177765996,1,586966,False,,מודיעין-מכבים-רעות,חטיבת הצנחנים,,5869-66-4,5869/66,13670.886075949367,31.9092495871,34.9965649794,2009
2009-10-14,2009-10-14,"ירח-אב 19, מודיעין-מכבים-רעות",ירח-אב 19,5735-22-13,דירה בבית קומות,5.0,"קרקע, ראשונה",106.71,1325000,,,2008.0,,2.0,9176671560,1,573522,False,,מודיעין-מכבים-רעות,ירח-אב,,5735-22-13,5735/22,12416.830662543343,31.9140383696,35.0126366274,2009
2009-10-14,2009-10-14,"מנחם בגין 62, מודיעין-מכבים-רעות",מנחם בגין 62,5819-52-7,דירה בבית קומות,5.0,"מרתף, קרקע, ראשונה",139.4,1420000,,,2009.0,,1.0,9177382788,1,581952,False,,מודיעין-מכבים-רעות,מנחם בגין,,5819-52-7,5819/52,10186.51362984218,31.8786852306,35.0099014236,2009
2009-10-13,2009-10-13,"מבצע קלשון 10, מודיעין-מכבים-רעות",מבצע קלשון 10,5698-39-1,קוטג' טורי,6.0,,160.0,1980000,,,1997.0,,2.0,9178063356,1,569839,False,,מודיעין-מכבים-רעות,מבצע קלשון,,5698-39-1,5698/39,12375.0,31.9102467513,34.9985528401,2009
2009-10-13,2009-10-13,"חטיבת גולני 12, מודיעין-מכבים-רעות",חטיבת גולני 12,5569-36-41,דירה בבית קומות,3.0,שניה,81.4,930000,,,1998.0,,2.0,9176638464,1,556936,False,65% ב 6.2 שנים,מודיעין-מכבים-רעות,חטיבת גולני,10.48,5569-36-41,5569/36,11425.061425061424,31.9099511463,35.0019851478,2009
2009-10-12,2009-12-10,"אירוסים 24, מודיעין-מכבים-רעות",אירוסים 24,5298-61-1,קוטג' חד משפחתי,6.0,,180.0,2850000,,,1990.0,,2.0,9240029064,1,529861,False,,מודיעין-מכבים-רעות,אירוסים,,5298-61-1,5298/61,15833.333333333334,31.8831938637,35.0151530926,2009
2009-10-12,2009-12-10,"נחל געתון 27, מודיעין-מכבים-רעות",נחל געתון 27,5692-59-2,דירה בבית קומות,5.0,קרקע ראשונה ושניה,175.35,2280000,,,1997.0,,,9182159532,1,569259,False,,מודיעין-מכבים-רעות,נחל געתון,,5692-59-2,5692/59,13002.56629597947,31.8962854191,35.0228301508,2009
2009-10-11,2009-11-10,"מגדל הלבנון 15, מודיעין-מכבים-רעות",מגדל הלבנון 15,5684-75-113,דירה בבית קומות,4.0,שישית,100.9,1300000,,,2002.0,,10.0,9179118648,1,568475,False,,מודיעין-מכבים-רעות,מגדל הלבנון,,5684-75-113,5684/75,12884.043607532209,31.8948223544,35.0078793475,2009
2009-10-11,2009-11-10,"שבט 34, מודיעין-מכבים-רעות",שבט 34,5735-11-49,דירה בבית קומות,4.0,שלישית,103.7,1065000,,,2010.0,,6.0,9179156196,1,573511,False,,מודיעין-מכבים-רעות,שבט,,5735-11-49,5735/11,10270.009643201543,31.9137826768,35.0117232437,2009
2009-10-11,2009-11-10,"תשרי 3, מודיעין-מכבים-רעות",תשרי 3,5734-73-4,דירה בבית קומות,3.0,שניה,74.49,585000,,,2011.0,,3.0,9179132592,1,573473,False,,מודיעין-מכבים-רעות,תשרי,,5734-73-4,5734/73,7853.403141361257,31.9140359817,35.0102165076,2009
2009-10-11,2009-11-10,"תשרי 13, מודיעין-מכבים-רעות",תשרי 13,5733-31-3,דירה בבית קומות,5.0,שניה,131.35,1200000,,,2010.0,,4.0,9182500404,1,573331,False,,מודיעין-מכבים-רעות,תשרי,,5733-31-3,5733/31,9135.896459840122,31.914983026,35.0101857256,2009
2009-10-09,2009-09-10,"רא""ל חיים בר-לב 30, מודיעין-מכבים-רעות","רא""ל חיים בר-לב 30",5696-13-6,קוטג' דו משפחתי,5.0,מרתף קרקע וראשונה,162.0,1660000,,,1999.0,,1.0,9174439596,1,569613,False,,מודיעין-מכבים-רעות,"רא""ל חיים ברלב",,5696-13-6,5696/13,10246.913580246914,31.9082465815,35.0004795462,2009
2009-10-09,2009-09-10,"דבורנית 9, מודיעין-מכבים-רעות",דבורנית 9,5652-21-6,דירה בבית קומות,3.0,שלישית,81.0,963000,,,1995.0,,5.0,9174436068,1,565221,False,45% ב 1.7 שנים,מודיעין-מכבים-רעות,דבורנית,26.47,5652-21-6,5652/21,11888.888888888889,31.906495648,35.0104770175,2009
2009-10-08,2009-08-10,"שבט 31, מודיעין-מכבים-רעות",שבט 31,5735-24-5,דירה בבית קומות,4.0,שניה,95.15,973000,,,2009.0,,4.0,9173014704,1,573524,False,,מודיעין-מכבים-רעות,שבט,,5735-24-5,5735/24,10225.95901208618,31.9133240589,35.0111479497,2009
2009-10-08,2009-08-10,"תשרי 12, מודיעין-מכבים-רעות",תשרי 12,5735-26-2,דירת גן,4.0,קרקע,103.3,1036000,,,2009.0,,2.0,9173010588,1,573526,False,,מודיעין-מכבים-רעות,תשרי,,5735-26-2,5735/26,10029.041626331074,31.9144987304,35.0109585667,2009
2009-10-08,2009-08-10,"רא""ל חיים ברלב 17, מודיעין-מכבים-רעות","רא""ל חיים ברלב 17",5695-34-5,דירת גן,4.5,קרקע וראשונה,129.5,1540000,,,1999.0,,1.0,9171851304,1,569534,False,47% ב 6.6 שנים,מודיעין-מכבים-רעות,"רא""ל חיים ברלב",7.12,5695-34-5,5695/34,11891.891891891892,31.906785218,35.0014021701,2009
2009-10-08,2009-08-10,"יהלום 78, מודיעין-מכבים-רעות",יהלום 78,5868-27-49,דירה בבית קומות,3.0,קרקע,80.35,1165000,,,2002.0,,2.0,9172363452,1,586827,False,,מודיעין-מכבים-רעות,יהלום,,5868-27-49,5868/27,14499.066583696327,31.9059296442,34.9918214791,2009
2009-10-08,2009-08-10,"שבט 31, מודיעין-מכבים-רעות",שבט 31,5735-24-29,דירה בבית קומות,5.0,שניה,95.2,933000,,,2009.0,,4.0,9173016720,1,573524,False,,מודיעין-מכבים-רעות,שבט,,5735-24-29,5735/24,9800.420168067229,31.9133240589,35.0111479497,2009
2009-10-08,2009-08-10,"חטיבת גולני 7, מודיעין-מכבים-רעות",חטיבת גולני 7,5569-45-54,דירה בבית קומות,3.0,שניה,79.3,940000,,,2001.0,,2.0,9171154776,1,556945,False,57% ב 9.2 שנים,מודיעין-מכבים-רעות,חטיבת גולני,6.2,5569-45-54,5569/45,11853.720050441363,31.9087132836,35.0021690364,2009
2009-10-07,2009-07-10,"שרה אימנו 33, מודיעין-מכבים-רעות",שרה אימנו 33,5819-81-1,דירה בבית קומות,5.0,"קרקע, ראשונה",131.6,1503000,,,2007.0,,2.0,9169565748,1,581981,False,,מודיעין-מכבים-רעות,שרה אמנו,,5819-81-1,5819/81,11420.9726443769,31.8794555338,35.0086844747,2009
2009-10-07,2009-07-10,"עמק איילון 10, מודיעין-מכבים-רעות",עמק איילון 10,5654-40-38,דירה בבית קומות,3.0,רביעית,67.5,860000,,,1997.0,,5.0,9168817980,1,565440,False,,מודיעין-מכבים-רעות,עמק איילון,,5654-40-38,5654/40,12740.74074074074,31.9066916279,35.0170734476,2009
2009-10-07,2009-07-10,"שיר השירים 59, מודיעין-מכבים-רעות",שיר השירים 59,5654-41-7,דירה בבית קומות,6.0,קרקע + ראשונה,145.2,1575000,,,1996.0,,1.0,9169289136,1,565441,False,,מודיעין-מכבים-רעות,שיר השירים,,5654-41-7,5654/41,10847.10743801653,31.9069533522,35.017265361,2009
2009-10-06,2009-06-10,"נחל חבר 20, מודיעין-מכבים-רעות",נחל חבר 20,5684-102-1,דירת גן,5.0,קרקע וראשונה,128.32,1555000,,,2002.0,,1.0,9165941904,1,5684102,False,65% ב 7 שנים,מודיעין-מכבים-רעות,נחל חבר,9.29,5684-102-1,5684/102,12118.142144638405,31.8934491926,35.0091037989,2009
2009-10-06,2009-06-10,"מגדל הלבנון 30, מודיעין-מכבים-רעות",מגדל הלבנון 30,5682-81-1,דירה בבית קומות,4.5,קרקע,112.7,1141000,,,1996.0,,3.0,9168098520,1,568281,False,40% ב 6.4 שנים,מודיעין-מכבים-רעות,מגדל הלבנון,6.25,5682-81-1,5682/81,10124.223602484471,31.8951877566,35.0068981777,2009
2009-10-06,2009-06-10,"אפרים 40, מודיעין-מכבים-רעות",אפרים 40,5816-74-4,דירת גג,6.0,"ראשונה, שניה, שלישית",169.55,1950000,,,2009.0,,1.0,9166580220,1,581674,False,,מודיעין-מכבים-רעות,אפרים,,5816-74-4,5816/74,11501.03214391035,31.8833872871,35.0046793865,2009
2009-10-06,2009-06-10,"נחל שורק 69, מודיעין-מכבים-רעות",נחל שורק 69,5682-66-4,קוטג' דו משפחתי,6.0,קרקע וראשונה,137.0,1827000,,,1996.0,,2.0,9165982896,1,568266,False,,מודיעין-מכבים-רעות,נחל שורק,,5682-66-4,5682/66,13335.766423357663,31.8951921421,35.0058570732,2009
2009-10-06,2009-06-10,"נחל בזק 17, מודיעין-מכבים-רעות",נחל בזק 17,5688-146-3,דירה בבית קומות,5.0,שניה,105.8,1340000,,,1997.0,,3.0,9168527592,1,5688146,False,,מודיעין-מכבים-רעות,נחל בזק,,5688-146-3,5688/146,12665.406427221173,31.8968431484,35.0182315955,2009
2009-10-06,2009-06-10,"חטיבת הצנחנים 9, מודיעין-מכבים-רעות",חטיבת הצנחנים 9,5870-68-11,דירה בבית קומות,3.0,שלישית,82.3,980000,,,2003.0,,3.0,9165903852,1,587068,False,,מודיעין-מכבים-רעות,חטיבת הצנחנים,,5870-68-11,5870/68,11907.654921020656,31.9057803102,35.0000087429,2009
2009-10-05,2009-05-10,"שבט 37, מודיעין-מכבים-רעות",שבט 37,5735-23-31,דירה בבית קומות,4.0,שניה,94.45,909000,,,2008.0,,4.0,9164134728,1,573523,False,,מודיעין-מכבים-רעות,שבט,,5735-23-31,5735/23,9624.139756484912,31.9141121312,35.0111161619,2009
2009-10-05,2009-05-10,"עמק האלה 43, מודיעין-מכבים-רעות",עמק האלה 43,5570-4-36,דירה בבית קומות,4.0,שניה,98.5,1000000,,,1999.0,,4.0,9166530996,1,55704,False,,מודיעין-מכבים-רעות,עמק האלה,,5570-4-36,5570/4,10152.284263959393,31.9126718667,35.007027808,2009
2009-10-05,2009-05-10,"שוהם 20, מודיעין-מכבים-רעות",שוהם 20,5298-111-1,קוטג' חד משפחתי,7.0,,170.0,2780000,,,1991.0,,2.0,9164046024,1,5298111,False,,מודיעין-מכבים-רעות,שוהם,,5298-111-1,5298/111,16352.941176470587,31.8849203662,35.0142940316,2009
2009-10-05,2009-05-10,"שבט 10, מודיעין-מכבים-רעות",שבט 10,5736-32-18,דירה בבית קומות,5.0,שלישית,100.4,1270000,,,2007.0,,3.0,9164278872,1,573632,False,,מודיעין-מכבים-רעות,שבט,,5736-32-18,5736/32,12649.402390438248,31.9124970379,35.0136169897,2009
2009-09-30,2009-09-30,"נחל צופר 3, מודיעין-מכבים-רעות",נחל צופר 3,5682-112-1,דירה בבית קומות,6.0,קרקע וראשונה,130.4,1780000,,,1997.0,,,9175366788,1,5682112,False,,מודיעין-מכבים-רעות,נחל צופר,,5682-112-1,5682/112,13650.306748466255,31.8939604949,35.0027803319,2009
2009-09-30,2009-09-30,"מגדל ים 6, מודיעין-מכבים-רעות",מגדל ים 6,5868-15-63,דירה בבית קומות,5.0,"קרקע, ראשונה",140.6,1600000,,,2008.0,,19.0,9176924568,1,586815,False,,מודיעין-מכבים-רעות,מגדל ים,,5868-15-63,5868/15,11379.800853485063,31.9062219865,34.9943737907,2009
2009-09-30,2009-09-30,"חטיבת גולני 24, מודיעין-מכבים-רעות",חטיבת גולני 24,5568-14-1,דירה בבית קומות,4.0,ראשונה,98.25,1400000,,,1999.0,,3.0,9175869948,1,556814,False,,מודיעין-מכבים-רעות,חטיבת גולני,,5568-14-1,5568/14,14249.363867684478,31.9116766843,34.9999202093,2009
2009-09-30,2009-09-30,"ברקת 16, מודיעין-מכבים-רעות",ברקת 16,5299-6-1,קוטג' דו משפחתי,4.0,,123.0,2780000,,,1990.0,,,9175849788,1,52996,False,,מודיעין-מכבים-רעות,ברקת,,5299-6-1,5299/6,22601.62601626016,31.8864462753,35.0140975767,2009
2009-09-30,2009-09-30,"עמק החולה 38, מודיעין-מכבים-רעות",עמק החולה 38,5688-147-1,דירה בבית קומות,4.0,ראשונה,104.8,1400000,,,1997.0,,3.0,9176502636,1,5688147,False,90% ב 10.2 שנים,מודיעין-מכבים-רעות,עמק החולה,8.82,5688-147-1,5688/147,13358.7786259542,31.8966185836,35.0182327609,2009
2009-09-25,2009-09-25,"עמק בית שאן 37, מודיעין-מכבים-רעות",עמק בית שאן 37,5568-16-21,דירה בבית קומות,3.0,ראשונה,75.5,860000,,,1999.0,,2.0,9176061216,1,556816,False,,מודיעין-מכבים-רעות,עמק בית שאן,,5568-16-21,5568/16,11390.728476821192,31.9118323087,35.0010069952,2009
2009-09-25,2009-09-25,"מגדל עוז 11, מודיעין-מכבים-רעות",מגדל עוז 11,5683-133-170,דירה בבית קומות,4.0,חמישית,94.72,1250000,,,2000.0,,9.0,9175075560,1,5683133,False,66% ב 6.9 שנים,מודיעין-מכבים-רעות,מגדל עוז,9.57,5683-133-170,5683/133,13196.79054054054,31.8978991604,35.0129493367,2009
2009-09-24,2009-09-24,"שבטי ישראל 30, מודיעין-מכבים-רעות",שבטי ישראל 30,5814-4-48,קוטג' חד משפחתי,5.0,שישית+שביעית,151.8,1980000,,,2004.0,,12.0,9175684896,1,58144,False,,מודיעין-מכבים-רעות,שבטי ישראל,,5814-4-48,5814/4,13043.478260869564,31.8850947672,35.0030506823,2009
2009-09-23,2009-09-23,"חרצית 35, מודיעין-מכבים-רעות",חרצית 35,5652-54-34,דירה בבית קומות,4.0,שניה,104.8,1070000,,,1997.0,,4.0,9175225416,1,565254,False,,מודיעין-מכבים-רעות,חרצית,,5652-54-34,5652/54,10209.923664122138,31.9082371788,35.0101689405,2009
2009-09-23,2009-09-23,"שבט 42, מודיעין-מכבים-רעות",שבט 42,5735-20-10,דירה בבית קומות,5.0,ראשונה,96.33,1155000,,,2010.0,,2.0,9176140848,1,573520,False,,מודיעין-מכבים-רעות,שבט,,5735-20-10,5735/20,11990.034257240735,31.9143052905,35.012436256,2009
2009-09-23,2009-09-23,"שבט 40, מודיעין-מכבים-רעות",שבט 40,5735-20-4,דירה בבית קומות,5.0,ראשונה,96.33,1160000,,,2010.0,,2.0,9176141520,1,573520,False,,מודיעין-מכבים-רעות,שבט,,5735-20-4,5735/20,12041.93916744524,31.9143052905,35.012436256,2009
2009-09-22,2009-09-22,"אלמוגן 21, מודיעין-מכבים-רעות",אלמוגן 21,5685-95-4,דירה בבית קומות,4.0,שניה,108.3,1140000,,,1997.0,,3.0,9175393080,1,568595,False,,מודיעין-מכבים-רעות,אלמוגן,,5685-95-4,5685/95,10526.315789473683,31.901672397,35.0123052998,2009
2009-09-22,2009-09-22,"רחל אימנו 44, מודיעין-מכבים-רעות",רחל אימנו 44,5817-61-10,קוטג' דו משפחתי,5.0,"שלישית, רביעית",130.6,1850000,,,2007.0,,6.0,9175930092,1,581761,False,,מודיעין-מכבים-רעות,רחל אמנו,,5817-61-10,5817/61,14165.390505359876,31.880406647,35.0063625124,2009
2009-09-22,2009-09-22,"אודם 7, מודיעין-מכבים-רעות",אודם 7,5870-72-5,דירה בבית קומות,4.0,שלישית,89.7,1230000,,,2002.0,,3.0,9175871880,1,587072,False,63% ב 6.8 שנים,מודיעין-מכבים-רעות,אודם,9.26,5870-72-5,5870/72,13712.3745819398,31.9035578988,34.9984176121,2009
2009-09-21,2009-09-21,"רבקה אימנו 7, מודיעין-מכבים-רעות",רבקה אימנו 7,5817-59-3,דירה בבית קומות,5.0,ראשונה,143.0,1935000,,,2009.0,,3.0,9175881708,1,581759,False,,מודיעין-מכבים-רעות,רבקה אמנו,,5817-59-3,5817/59,13531.468531468532,31.8810611545,35.0050841005,2009
2009-09-21,2009-09-21,"עמק דותן 57, מודיעין-מכבים-רעות",עמק דותן 57,5683-9-2,דירה בבית קומות,5.0,קרקע,115.06,1425000,,,1996.0,,3.0,9175055568,1,56839,False,,מודיעין-מכבים-רעות,עמק דותן,,5683-9-2,5683/9,12384.842690770032,31.8992320788,35.0126561458,2009
2009-09-17,2009-09-17,"רחל אימנו 26, מודיעין-מכבים-רעות",רחל אימנו 26,5819-56-4,דירה בבית קומות,6.0,"ראשונה, שניה",129.9,1950000,,,2009.0,,7.0,9176652240,1,581956,False,,מודיעין-מכבים-רעות,רחל אמנו,,5819-56-4,5819/56,15011.547344110852,31.8787072142,35.0075665883,2009
2009-09-17,2009-09-17,"רא""ל יגאל ידין 35, מודיעין-מכבים-רעות","רא""ל יגאל ידין 35",5571-31-11,דירה בבית קומות,5.0,שניה,145.0,1405000,,,2007.0,,17.0,9175180392,1,557131,False,78% ב 5.1 שנים,מודיעין-מכבים-רעות,"רא""ל יגאל ידין",15.29,5571-31-11,5571/31,9689.655172413792,31.9053519575,35.0041445904,2009
2009-09-17,2009-09-17,"רא""ל יגאל ידין 53, מודיעין-מכבים-רעות","רא""ל יגאל ידין 53",5571-34-88,דירה בבית קומות,5.0,חמישית,124.7,1300000,,,2007.0,,16.0,9325899408,1,557134,False,6% ב 0.5 שנים,מודיעין-מכבים-רעות,"רא""ל יגאל ידין",12.0,5571-34-88,5571/34,10425.020048115475,31.9027074335,35.0043607826,2009
2009-09-17,2009-09-17,"רא""ל משה דיין 50, מודיעין-מכבים-רעות","רא""ל משה דיין 50",5695-14-4,דירה בבית קומות,4.0,ראשונה,112.3,1340000,,,1999.0,,1.0,9175109664,1,569514,False,55% ב 2.6 שנים,מודיעין-מכבים-רעות,"רא""ל משה דיין",21.15,5695-14-4,5695/14,11932.324131789848,31.9047740856,35.001380153,2009
2009-09-17,2009-09-17,"נופך 45, מודיעין-מכבים-רעות",נופך 45,5869-43-26,דירה בבית קומות,4.0,קרקע,74.0,1185000,,,2007.0,,2.0,9175205340,1,586943,False,,מודיעין-מכבים-רעות,נופך,,5869-43-26,5869/43,16013.513513513511,31.9055860288,34.9956052608,2009
2009-09-16,2009-09-16,"עמק חרוד 20, מודיעין-מכבים-רעות",עמק חרוד 20,5732-11-20,דירה בבית קומות,5.0,קרקע,100.65,1380000,,,2002.0,,2.0,9174711168,1,573211,False,82% ב 7.7 שנים,מודיעין-מכבים-רעות,עמק חרוד,10.65,5732-11-20,5732/11,13710.879284649776,31.9190958324,35.0042240055,2009
2009-09-16,2009-09-16,"עמק חרוד 22, מודיעין-מכבים-רעות",עמק חרוד 22,5732-11-4,דירה בבית קומות,3.0,שניה,75.45,945000,,,2003.0,,3.0,9174877572,1,573211,False,62% ב 2 שנים,מודיעין-מכבים-רעות,עמק חרוד,31.0,5732-11-4,5732/11,12524.850894632204,31.9190958324,35.0042240055,2009
2009-09-16,2009-09-16,"תשרי 15, מודיעין-מכבים-רעות",תשרי 15,5733-31-12,דירה בבית קומות,5.0,"שלישית, רביעית",127.7,1300000,,,2010.0,,4.0,9176016108,1,573331,False,,מודיעין-מכבים-רעות,תשרי,,5733-31-12,5733/31,10180.109631949885,31.914983026,35.0101857256,2009
2009-09-16,2009-09-16,"עמק החולה 74, מודיעין-מכבים-רעות",עמק החולה 74,5683-63-5,דירה בבית קומות,3.0,שניה,75.0,865000,,,1995.0,,3.0,9175867092,1,568363,False,,מודיעין-מכבים-רעות,עמק החולה,,5683-63-5,5683/63,11533.333333333334,31.8962272689,35.0121270989,2009
2009-09-15,2009-09-15,"רבקה אימנו 5, מודיעין-מכבים-רעות",רבקה אימנו 5,5817-60-4,דירה בבית קומות,5.0,שניה,144.35,1940000,,,2009.0,,3.0,9177020244,1,581760,False,,מודיעין-מכבים-רעות,רבקה אמנו,,5817-60-4,5817/60,13439.556633183236,31.8812595812,35.0054797674,2009
2009-09-15,2009-09-15,"רחל אימנו 12, מודיעין-מכבים-רעות",רחל אימנו 12,5819-83-6,קוטג' חד משפחתי,6.0,"קרקע, ראשונה",150.1,2079000,,,2007.0,,2.0,9176219220,1,581983,False,,מודיעין-מכבים-רעות,רחל אמנו,,5819-83-6,5819/83,13850.76615589607,31.8801684065,35.009985374,2009
2009-09-14,2009-09-14,"מנתור 24, מודיעין-מכבים-רעות",מנתור 24,5686-27-2,קוטג' דו משפחתי,6.0,קרקע וראשונה,138.0,2180000,,,1994.0,,2.0,9175271868,1,568627,False,,מודיעין-מכבים-רעות,מנתור,,5686-27-2,5686/27,15797.101449275362,31.9037192677,35.015261935,2009
2009-09-14,2009-09-14,"שבט 30, מודיעין-מכבים-רעות",שבט 30,5735-11-15,דירה בבית קומות,4.0,שניה,102.72,1000000,,,2011.0,,6.0,9176136732,1,573511,False,,מודיעין-מכבים-רעות,שבט,,5735-11-15,5735/11,9735.202492211838,31.9137826768,35.0117232437,2009
2009-09-14,2009-09-14,"מגדל הלבנון 36, מודיעין-מכבים-רעות",מגדל הלבנון 36,5682-145-3,דירה בבית קומות,4.5,ראשונה,102.7,1149000,,,1997.0,,4.0,9174506796,1,5682145,False,,מודיעין-מכבים-רעות,מגדל הלבנון,,5682-145-3,5682/145,11187.92599805258,31.8942871568,35.0068408348,2009
2009-09-14,2009-09-14,"מנחם בגין 66, מודיעין-מכבים-רעות",מנחם בגין 66,5819-52-4,דירה בבית קומות,5.0,"ראשונה, שניה",113.8,1420000,,,2007.0,,1.0,9175858776,1,581952,False,,מודיעין-מכבים-רעות,מנחם בגין,,5819-52-4,5819/52,12478.031634446395,31.8786852306,35.0099014236,2009
2009-09-13,2009-09-13,"רא""ל חיים ברלב 17, מודיעין-מכבים-רעות","רא""ל חיים ברלב 17",5695-34-7,דירה בבית קומות,4.5,קרקע וראשונה,128.2,1560000,,,1999.0,,1.0,9176384196,1,569534,False,,מודיעין-מכבים-רעות,"רא""ל חיים ברלב",,5695-34-7,5695/34,12168.48673946958,31.906785218,35.0014021701,2009
2009-09-13,2009-09-13,"נחל בזק 1, מודיעין-מכבים-רעות",נחל בזק 1,5691-41-7,דירה בבית קומות,3.0,שלישית,64.75,850000,,,1996.0,,4.0,9174947460,1,569141,False,48% ב 9.8 שנים,מודיעין-מכבים-רעות,נחל בזק,4.9,5691-41-7,5691/41,13127.413127413129,31.8962534345,35.0220134821,2009
2009-09-12,2009-12-09,"נחל הירמוך 19, מודיעין-מכבים-רעות",נחל הירמוך 19,5688-6-26,דירה בבית קומות,4.0,ראשונה,94.9,1260000,,,1996.0,,5.0,9182293932,1,56886,False,,מודיעין-מכבים-רעות,נחל הירמוך,,5688-6-26,5688/6,13277.13382507903,31.89621976,35.0131937187,2009
2009-09-12,2009-12-09,"טבת 3, מודיעין-מכבים-רעות",טבת 3,5734-76-46,דירה בבית קומות,4.0,ראשונה,100.0,1000000,,,2010.0,,5.0,9181482408,1,573476,False,,מודיעין-מכבים-רעות,טבת,,5734-76-46,5734/76,10000.0,31.9146168327,35.0088369572,2009
2009-09-12,2009-12-09,"אודם 22, מודיעין-מכבים-רעות",אודם 22,5871-6-27,דירה בבית קומות,4.0,שניה,87.0,1240000,,,2003.0,,4.0,9241699908,1,58716,False,,מודיעין-מכבים-רעות,אודם,,5871-6-27,5871/6,14252.87356321839,31.9047161031,34.9943829094,2009
2009-09-12,2009-12-09,"שבט 30, מודיעין-מכבים-רעות",שבט 30,5735-11-20,דירה בבית קומות,4.0,חמישית,89.73,1120000,,,2011.0,,6.0,9181577412,1,573511,False,,מודיעין-מכבים-רעות,שבט,,5735-11-20,5735/11,12481.89011478881,31.9137826768,35.0117232437,2009
2009-09-12,2009-12-09,"כנרית 291, מודיעין-מכבים-רעות",כנרית 291,5289-55-1,קוטג' חד משפחתי,5.0,,168.0,3155000,,,1993.0,,2.0,9181917024,1,528955,False,,מודיעין-מכבים-רעות,כנרית,,5289-55-1,5289/55,18779.761904761905,31.8929210639,35.0324492725,2009
2009-09-11,2009-11-09,"מגדל עוז 7, מודיעין-מכבים-רעות",מגדל עוז 7,5683-133-101,דירה בבית קומות,3.0,שלישית,75.84,1018000,,,2000.0,,9.0,9180247608,1,5683133,False,69% ב 9 שנים,מודיעין-מכבים-רעות,מגדל עוז,7.67,5683-133-101,5683/133,13422.995780590716,31.8978991604,35.0129493367,2009
2009-09-11,2009-11-09,"מנשה 4, מודיעין-מכבים-רעות",מנשה 4,5816-65-17,קוטג' טורי,5.0,"ראשונה, שניה",129.0,1750000,,,2008.0,,3.0,9178859592,1,581665,False,49% ב 2.3 שנים,מודיעין-מכבים-רעות,מנשה,21.3,5816-65-17,5816/65,13565.891472868218,31.8852499733,35.0070168874,2009
2009-09-11,2009-11-09,"סביון 11, מודיעין-מכבים-רעות",סביון 11,5653-30-2,דירת גן,5.0,קרקע,106.36,1650000,,,1997.0,,3.0,9178836744,1,565330,False,96% ב 9.2 שנים,מודיעין-מכבים-רעות,סביון,10.43,5653-30-2,5653/30,15513.3508837909,31.9059858757,35.0138886391,2009
2009-09-11,2009-11-09,"שומרי החומות 41, מודיעין-מכבים-רעות",שומרי החומות 41,5654-43-9,דירה בבית קומות,4.0,קרקע,108.7,1150000,,,1997.0,,6.0,9179154096,1,565443,False,61% ב 6.1 שנים,מודיעין-מכבים-רעות,שומרי החומות,10.0,5654-43-9,5654/43,10579.576816927323,31.9068572177,35.0181848555,2009
2009-09-09,2009-09-09,"שבט 34, מודיעין-מכבים-רעות",שבט 34,5735-11-62,דירה בבית קומות,4.0,רביעית,102.73,1018000,,,2010.0,,6.0,9174220524,1,573511,False,,מודיעין-מכבים-רעות,שבט,,5735-11-62,5735/11,9909.471429962035,31.9137826768,35.0117232437,2009
2009-09-09,2009-09-09,"שבט 34, מודיעין-מכבים-רעות",שבט 34,5735-11-65,דירה בבית קומות,4.0,חמישית,89.83,1040000,,,2010.0,,6.0,9174222036,1,573511,False,,מודיעין-מכבים-רעות,שבט,,5735-11-65,5735/11,11577.424023154848,31.9137826768,35.0117232437,2009
2009-09-09,2009-09-09,"נופך 24, מודיעין-מכבים-רעות",נופך 24,5869-48-2,קוטג' דו משפחתי,6.0,קרקע וראשונה,125.0,1830000,,,2003.0,,,9174083940,1,586948,False,,מודיעין-מכבים-רעות,נופך,,5869-48-2,5869/48,14640.0,31.9060689353,34.9960431801,2009
2009-09-08,2009-08-09,"אנפה 227, מודיעין-מכבים-רעות",אנפה 227,5288-31-2,קוטג' חד משפחתי,6.5,,245.0,3220000,,,1996.0,,1.0,9171915648,1,528831,False,,מודיעין-מכבים-רעות,אנפה,,5288-31-2,5288/31,13142.857142857143,31.89447871,35.0309091843,2009
2009-09-08,2009-08-09,"השדרה המרכזית 19, מודיעין-מכבים-רעות",השדרה המרכזית 19,5894-11-4,מחסנים,,,40.0,80000,,,2000.0,,1.0,9174643380,1,589411,False,,מודיעין-מכבים-רעות,השדרה המרכזית,,5894-11-4,5894/11,2000.0,31.9220976626,34.9675355023,2009
2009-09-08,2009-08-09,"מגדל דוד 9, מודיעין-מכבים-רעות",מגדל דוד 9,5687-10-2,קוטג' דו משפחתי,4.0,קרקע וראשונה,117.1,1450000,,,1997.0,,1.0,9170945532,1,568710,False,45% ב 2.1 שנים,מודיעין-מכבים-רעות,מגדל דוד,21.43,5687-10-2,5687/10,12382.578992314262,31.901135962,35.013870008,2009
2009-09-08,2009-08-09,"עמק האלה 56, מודיעין-מכבים-רעות",עמק האלה 56,5734-39-14,דירה בבית קומות,5.0,קרקע,95.9,1350000,,,2000.0,,3.0,9173349360,1,573439,False,,מודיעין-מכבים-רעות,עמק האלה,,5734-39-14,5734/39,14077.163712200208,31.9138442836,35.0079928131,2009
2009-09-08,2009-08-09,"כסלו 29, מודיעין-מכבים-רעות",כסלו 29,5734-15-2,דירת גן,4.0,קרקע,100.95,1300000,,,2002.0,,4.0,9171815184,1,573415,False,85% ב 7.2 שנים,מודיעין-מכבים-רעות,כסלו,11.81,5734-15-2,5734/15,12877.662209014365,31.9149111428,35.006016245,2009
2009-09-08,2009-08-09,"תשרי 13, מודיעין-מכבים-רעות",תשרי 13,5733-31-5,דירה בבית קומות,5.0,"שלישית, רביעית",129.7,1235000,,,2010.0,,4.0,9173893428,1,573331,False,,מודיעין-מכבים-רעות,תשרי,,5733-31-5,5733/31,9521.973785659216,31.914983026,35.0101857256,2009
2009-09-07,2009-07-09,"ישעיהו הנביא 32, מודיעין-מכבים-רעות",ישעיהו הנביא 32,5567-62-17,דירה בבית קומות,5.0,שלישית,103.8,1280000,,,1998.0,,4.0,9169188672,1,556762,False,,מודיעין-מכבים-רעות,ישעיהו הנביא,,5567-62-17,5567/62,12331.40655105973,31.9138083537,35.0038670003,2009
2009-09-07,2009-07-09,"דבורה הנביאה 4, מודיעין-מכבים-רעות",דבורה הנביאה 4,5567-6-42,דירה בבית קומות,3.0,שניה,81.2,925000,,,2002.0,,3.0,9168867876,1,55676,False,63% ב 8.8 שנים,מודיעין-מכבים-רעות,דבורה הנביאה,7.16,5567-6-42,5567/6,11391.625615763547,31.9162950079,35.001383526,2009
2009-09-06,2009-06-09,"עמק זבולון 7, מודיעין-מכבים-רעות",עמק זבולון 7,5872-27-3,דירה בבית קומות,4.0,ראשונה,98.34,1080000,,,1992.0,,2.0,9165571296,1,587227,False,56% ב 6.5 שנים,מודיעין-מכבים-רעות,עמק זבולון,8.62,5872-27-3,5872/27,10982.306284319708,31.9015529437,35.0007445379,2009
2009-09-06,2009-06-09,"תשרי 12, מודיעין-מכבים-רעות",תשרי 12,5735-26-15,דירה בבית קומות,3.0,ראשונה,78.95,690000,,,2009.0,,2.0,9167915064,1,573526,False,,מודיעין-מכבים-רעות,תשרי,,5735-26-15,5735/26,8739.708676377453,31.9144987304,35.0109585667,2009
2009-09-06,2009-06-09,"חרצית 16, מודיעין-מכבים-רעות",חרצית 16,5656-27-11,דירה בבית קומות,3.0,ראשונה,75.4,965000,,,1997.0,,4.0,9165987684,1,565627,False,61% ב 6 שנים,מודיעין-מכבים-רעות,חרצית,10.17,5656-27-11,5656/27,12798.40848806366,31.9044834664,35.0111965975,2009
2009-09-06,2009-06-09,"רחל אימנו 30, מודיעין-מכבים-רעות",רחל אימנו 30,5819-55-19,דירה בבית קומות,6.0,"חמישית, שישית",130.6,1478000,,,2009.0,,7.0,9167648868,1,581955,False,,מודיעין-מכבים-רעות,רחל אמנו,,5819-55-19,5819/55,11316.998468606433,31.8788484403,35.0069297907,2009
2009-09-05,2009-05-09,"נהר הירדן 20, מודיעין-מכבים-רעות",נהר הירדן 20,5683-80-21,דירה בבית קומות,5.0,חמישית ושישית,126.6,1325000,,,1996.0,,4.0,9163286496,1,568380,False,,מודיעין-מכבים-רעות,נהר הירדן,,5683-80-21,5683/80,10466.034755134282,31.8966013994,35.0099125195,2009
2009-09-03,2009-03-09,"חטיבת גולני 5, מודיעין-מכבים-רעות",חטיבת גולני 5,5569-45-3,דירה בבית קומות,4.0,ראשונה,99.5,1025000,,,2001.0,,2.0,9160330788,1,556945,False,33% ב 6.8 שנים,מודיעין-מכבים-רעות,חטיבת גולני,4.85,5569-45-3,5569/45,10301.507537688442,31.9087132836,35.0021690364,2009
2009-09-02,2009-02-09,"עמק האלה 12, מודיעין-מכבים-רעות",עמק האלה 12,5736-36-65,דירה בבית קומות,4.0,רביעית,109.35,1275000,,,2006.0,,7.0,9158802660,1,573636,False,,מודיעין-מכבים-רעות,שבט,,5736-36-65,5736/36,11659.807956104252,31.9124409591,35.0129253709,2009
2009-09-02,2009-02-09,"נחל בזק 11, מודיעין-מכבים-רעות",נחל בזק 11,5691-30-3,דירה בבית קומות,5.0,שניה,104.8,1340000,,,1997.0,,3.0,9158382660,1,569130,False,,מודיעין-מכבים-רעות,נחל בזק,,5691-30-3,5691/30,12786.259541984731,31.8965875001,35.0197836653,2009
2009-09-02,2009-02-09,"חטיבת גבעתי 36, מודיעין-מכבים-רעות",חטיבת גבעתי 36,5567-73-7,דירה בבית קומות,4.0,ראשונה,108.8,1300000,,,1998.0,,3.0,9158550324,1,556773,False,46% ב 4.6 שנים,מודיעין-מכבים-רעות,חטיבת גבעתי,10.0,5567-73-7,5567/73,11948.529411764706,31.9125859632,35.0003725085,2009
2009-09-01,2009-01-09,"מנחם בגין 112, מודיעין-מכבים-רעות",מנחם בגין 112,5817-17-6,דירה בבית קומות,5.0,שניה,115.0,1360000,,,2007.0,,2.0,9156597408,1,581717,False,,מודיעין-מכבים-רעות,מנחם בגין,,5817-17-6,5817/17,11826.08695652174,31.8806323444,35.0029617917,2009
2009-08-31,2009-08-31,"רא""ל יגאל ידין 24, מודיעין-מכבים-רעות","רא""ל יגאל ידין 24",5694-9-4,דירה בבית קומות,4.0,שניה,105.7,1227000,,,1999.0,,1.0,9173083920,1,56949,False,,מודיעין-מכבים-רעות,"רא""ל יגאל ידין",,5694-9-4,5694/9,11608.32544938505,31.9050235383,35.0034712689,2009
2009-08-31,2009-08-31,"תכלת 67, מודיעין-מכבים-רעות",תכלת 67,5871-52-13,דירה בבית קומות,4.0,ראשונה,99.8,1290000,,,2002.0,,4.0,9173085432,1,587152,False,80% ב 6.8 שנים,מודיעין-מכבים-רעות,תכלת,11.76,5871-52-13,5871/52,12925.851703406814,31.9018118357,34.9951288032,2009
2009-08-30,2009-08-30,"עמוס הנביא 14, מודיעין-מכבים-רעות",עמוס הנביא 14,5567-83-55,דירה בבית קומות,4.0,שבע עשרה,120.0,1341000,,,2007.0,,27.0,9175095048,1,556783,False,,מודיעין-מכבים-רעות,עמוס הנביא,,5567-83-55,5567/83,11175.0,31.9155099204,35.0019056369,2009
2009-08-30,2009-08-30,"רחל אימנו 30, מודיעין-מכבים-רעות",רחל אימנו 30,5819-55-17,דירה בבית קומות,6.0,"חמישית, שישית",129.9,1739000,,,2009.0,,7.0,9175890024,1,581955,False,,מודיעין-מכבים-רעות,רחל אמנו,,5819-55-17,5819/55,13387.220939183988,31.8788484403,35.0069297907,2009
2009-08-30,2009-08-30,"שבט 34, מודיעין-מכבים-רעות",שבט 34,5735-11-53,דירה בבית קומות,4.0,חמישית,89.56,1050000,,,2010.0,,6.0,9173664024,1,573511,False,,מודיעין-מכבים-רעות,שבט,,5735-11-53,5735/11,11723.98392139348,31.9137826768,35.0117232437,2009
2009-08-30,2009-08-30,"דפנה 12, מודיעין-מכבים-רעות",דפנה 12,5652-32-14,דירת גן,4.0,ראשונה,83.62,1100000,,,1998.0,,2.0,9174473532,1,565232,False,65% ב 5.2 שנים,מודיעין-מכבים-רעות,דפנה,12.5,5652-32-14,5652/32,13154.747668022004,31.906524393,35.0088593617,2009
2009-08-30,2009-08-30,"עמק החולה 88, מודיעין-מכבים-רעות",עמק החולה 88,5683-22-4,דירה בבית קומות,4.0,ראשונה,91.71,1120000,,,1996.0,,4.0,9173867808,1,568322,False,,מודיעין-מכבים-רעות,עמק החולה,,5683-22-4,5683/22,12212.408679533311,31.8983471874,35.0105629498,2009
2009-08-30,2009-08-30,"תרשיש 23, מודיעין-מכבים-רעות",תרשיש 23,5868-52-7,דירה בבית קומות,3.0,רביעית,82.32,1230000,,,2006.0,,5.0,9173368092,1,586852,False,,מודיעין-מכבים-רעות,תרשיש,,5868-52-7,5868/52,14941.690962099126,31.9069309324,34.9951978024,2009
2009-08-28,2009-08-28,"תכלת 69, מודיעין-מכבים-רעות",תכלת 69,5871-51-9,דירה בבית קומות,3.0,רביעית,76.6,1060000,,,2002.0,,4.0,9173223948,1,587151,False,68% ב 7 שנים,מודיעין-מכבים-רעות,תכלת,9.71,5871-51-9,5871/51,13838.120104438643,31.9019014593,34.9945675568,2009
2009-08-28,2009-08-28,"שבט 31, מודיעין-מכבים-רעות",שבט 31,5735-24-28,דירה בבית קומות,4.0,ראשונה,94.1,1096000,,,2009.0,,4.0,9174350052,1,573524,False,,מודיעין-מכבים-רעות,שבט,,5735-24-28,5735/24,11647.183846971308,31.9133240589,35.0111479497,2009
2009-08-27,2009-08-27,"שרה אימנו 21, מודיעין-מכבים-רעות",שרה אימנו 21,5819-75-3,דירה בבית קומות,6.0,שניה,133.0,1810000,,,2007.0,,2.0,9175295472,1,581975,False,,מודיעין-מכבים-רעות,שרה אמנו,,5819-75-3,5819/75,13609.022556390975,31.8804576378,35.0098557427,2009
2009-08-27,2009-08-27,"נחל שורק 95, מודיעין-מכבים-רעות",נחל שורק 95,5682-147-2,דירה בבית קומות,4.5,קרקע,116.7,1269000,,,1996.0,,3.0,9172979340,1,5682147,False,,מודיעין-מכבים-רעות,נחל שורק,,5682-147-2,5682/147,10874.035989717224,31.8937417262,35.0068679443,2009
2009-08-26,2009-08-26,"עצי היער 6, מודיעין-מכבים-רעות",עצי היער 6,5654-12-2,קוטג' דו משפחתי,6.0,קרקע וראשונה,140.46,1645000,,,1996.0,,2.0,9174311328,1,565412,False,,מודיעין-מכבים-רעות,עצי היער,,5654-12-2,5654/12,11711.51929374911,31.9091010487,35.0159447133,2009
2009-08-26,2009-08-26,"עמק האלה 39, מודיעין-מכבים-רעות",עמק האלה 39,5570-4-98,דירה בבית קומות,4.0,שלישית,100.8,1265000,,,1999.0,,4.0,9176001492,1,55704,False,64% ב 7 שנים,מודיעין-מכבים-רעות,עמק האלה,9.14,5570-4-98,5570/4,12549.603174603177,31.9126718667,35.007027808,2009
2009-08-25,2009-08-25,"מבצע חורב 2, מודיעין-מכבים-רעות",מבצע חורב 2,5694-20-1,דירה בבית קומות,7.0,,201.0,2150000,,,1992.0,,,9173825556,1,569420,False,,מודיעין-מכבים-רעות,מבצע חורב,,5694-20-1,5694/20,10696.517412935324,31.9053483123,35.002773813,2009
2009-08-25,2009-08-25,"לוע הארי 8, מודיעין-מכבים-רעות",לוע הארי 8,5655-25-1,דירה בבית קומות,5.0,קרקע ראשונה ושניה,146.0,1550000,,,1998.0,,5.0,9172643340,1,565525,False,,מודיעין-מכבים-רעות,לוע הארי,,5655-25-1,5655/25,10616.438356164384,31.9046971397,35.009905211,2009
2009-08-25,2009-08-25,"נחל עיון 7, מודיעין-מכבים-רעות",נחל עיון 7,5683-39-1,דירה בבית קומות,3.5,קרקע,70.3,1080000,,,1995.0,,3.0,9173036880,1,568339,False,,מודיעין-מכבים-רעות,נחל עיון,,5683-39-1,5683/39,15362.731152204837,31.8986729714,35.0121461159,2009
2009-08-24,2009-08-24,"עמק בית שאן 37, מודיעין-מכבים-רעות",עמק בית שאן 37,5568-16-19,דירה בבית קומות,3.0,קרקע,78.6,960000,,,1999.0,,2.0,9172590756,1,556816,False,,מודיעין-מכבים-רעות,עמק בית שאן,,5568-16-19,5568/16,12213.740458015269,31.9118323087,35.0010069952,2009
2009-08-24,2009-08-24,"אירוסים 22, מודיעין-מכבים-רעות",אירוסים 22,5298-60-1,קוטג' חד משפחתי,3.0,,90.0,2350000,,,1990.0,,2.0,9173812200,1,529860,False,,מודיעין-מכבים-רעות,אירוסים,,5298-60-1,5298/60,26111.11111111111,31.8832138912,35.0149894352,2009
2009-08-23,2009-08-23,"רא""ל יגאל ידין 53, מודיעין-מכבים-רעות","רא""ל יגאל ידין 53",5571-34-108,דירה בבית קומות,5.0,עשירית,133.6,1322000,,,2007.0,,16.0,9173666040,1,557134,False,,מודיעין-מכבים-רעות,"רא""ל יגאל ידין",,5571-34-108,5571/34,9895.209580838324,31.9027074335,35.0043607826,2009
2009-08-23,2009-08-23,"פיקוס 3, מודיעין-מכבים-רעות",פיקוס 3,5685-57-15,דירה בבית קומות,4.0,שלישית,75.85,1050000,,,1996.0,,3.0,9172332204,1,568557,False,,מודיעין-מכבים-רעות,פיקוס,,5685-57-15,5685/57,13843.111404087014,31.9016485861,35.009651546,2009
2009-08-23,2009-08-23,"שלומציון המלכה 5, מודיעין-מכבים-רעות",שלומציון המלכה 5,5819-64-6,דירת גן,6.0,"ראשונה, שניה",169.3,2100000,,,2007.0,,1.0,9173769360,1,581964,False,,מודיעין-מכבים-רעות,שלומציון המלכה,,5819-64-6,5819/64,12404.016538688717,31.8814076967,35.0095206074,2009
2009-08-23,2009-08-23,"ערער 6, מודיעין-מכבים-רעות",ערער 6,5685-40-20,דירה בבית קומות,4.0,שלישית,110.4,1075000,,,1996.0,,4.0,9172671732,1,568540,False,,מודיעין-מכבים-רעות,ערער,,5685-40-20,5685/40,9737.31884057971,31.8996922408,35.0096543819,2009
2009-08-23,2009-08-23,"ענבר 9, מודיעין-מכבים-רעות",ענבר 9,5870-14-26,דירה בבית קומות,4.0,שלישית,82.7,1225000,,,2006.0,,4.0,9172604532,1,587014,False,,מודיעין-מכבים-רעות,ענבר,,5870-14-26,5870/14,14812.575574365175,31.9048483295,34.9976757198,2009
2009-08-20,2009-08-20,"אדר 39, מודיעין-מכבים-רעות",אדר 39,5735-28-13,דירה בבית קומות,5.0,שניה,111.05,1155000,,,2008.0,,2.0,9173246040,1,573528,False,,מודיעין-מכבים-רעות,אדר,,5735-28-13,5735/28,10400.72039621792,31.9154420996,35.0126811725,2009
2009-08-20,2009-08-20,"ירח-אב 13, מודיעין-מכבים-רעות",ירח-אב 13,5735-10-32,דירה בבית קומות,5.0,שמינית,101.89,1230000,,,2010.0,,21.0,9172457700,1,573510,False,,מודיעין-מכבים-רעות,ירח-אב,,5735-10-32,5735/10,12071.8421827461,31.9136512293,35.0120722111,2009
2009-08-20,2009-08-20,"שבט 34, מודיעין-מכבים-רעות",שבט 34,5735-11-75,דירה בבית קומות,4.0,חמישית,89.83,1055000,,,2010.0,,6.0,9172457028,1,573511,False,,מודיעין-מכבים-רעות,שבט,,5735-11-75,5735/11,11744.406100411888,31.9137826768,35.0117232437,2009
2009-08-19,2009-08-19,"עמק החולה 51, מודיעין-מכבים-רעות",עמק החולה 51,5688-101-15,דירה בבית קומות,4.0,ראשונה,92.94,1020000,,,1997.0,,3.0,9173790948,1,5688101,True,-9% ב 11.5 שנים,מודיעין-מכבים-רעות,עמק החולה,-0.78,5688-101-15,5688/101,10974.822466107164,31.8955630909,35.0163345513,2009
2009-08-19,2009-08-19,"חטיבת הנגב 2, מודיעין-מכבים-רעות",חטיבת הנגב 2,5569-39-9,דירה בבית קומות,4.0,שניה,100.6,1140000,,,2000.0,,3.0,9172761948,1,556939,False,48% ב 2.5 שנים,מודיעין-מכבים-רעות,חטיבת הנגב,19.2,5569-39-9,5569/39,11332.007952286283,31.9085640782,35.0038171819,2009
2009-08-19,2009-08-19,"נהר הירדן 8, מודיעין-מכבים-רעות",נהר הירדן 8,5683-156-2,דירה בבית קומות,5.0,קרקע וראשונה,128.7,1550000,,,2000.0,,3.0,9172100784,1,5683156,False,81% ב 10 שנים,מודיעין-מכבים-רעות,נהר הירדן,8.1,5683-156-2,5683/156,12043.512043512044,31.8951058206,35.011362305,2009
2009-08-18,2009-08-18,"ירח-אב 13, מודיעין-מכבים-רעות",ירח-אב 13,5735-10-37,דירה בבית קומות,5.0,עשירית,101.89,1273000,,,2010.0,,21.0,9172454844,1,573510,False,,מודיעין-מכבים-רעות,ירח-אב,,5735-10-37,5735/10,12493.865933850231,31.9136512293,35.0120722111,2009
2009-08-18,2009-08-18,"ירח-אב 13, מודיעין-מכבים-רעות",ירח-אב 13,5735-10-63,דירה בבית קומות,5.0,שש עשרה,101.89,1315000,,,2010.0,,21.0,9174679248,1,573510,False,,מודיעין-מכבים-רעות,ירח-אב,,5735-10-63,5735/10,12906.075179114732,31.9136512293,35.0120722111,2009
2009-08-18,2009-08-18,"עמק החולה 36, מודיעין-מכבים-רעות",עמק החולה 36,5688-149-6,דירה בבית קומות,5.0,שלישית ורביעית,130.15,1600000,,,1998.0,,3.0,9172201920,1,5688149,False,,מודיעין-מכבים-רעות,עמק החולה,,5688-149-6,5688/149,12293.507491356128,31.8965086202,35.0185535057,2009
2009-08-18,2009-08-18,"עמק האלה 34, מודיעין-מכבים-רעות",עמק האלה 34,5735-13-3,דירה בבית קומות,4.0,שניה,84.75,1025000,,,2000.0,,3.0,9172102128,1,573513,False,23% ב 0.9 שנים,מודיעין-מכבים-רעות,עמק האלה,25.56,5735-13-3,5735/13,12094.395280235987,31.9132807027,35.0106493945,2009
2009-08-18,2009-08-18,"רבקה אימנו 5, מודיעין-מכבים-רעות",רבקה אימנו 5,5817-60-2,דירה בבית קומות,5.0,ראשונה,142.65,1900000,,,2009.0,,3.0,9173443608,1,581760,False,,מודיעין-מכבים-רעות,רבקה אמנו,,5817-60-2,5817/60,13319.31300385559,31.8812595812,35.0054797674,2009
2009-08-18,2009-08-18,"מנחם בגין 58, מודיעין-מכבים-רעות",מנחם בגין 58,5819-53-4,דירה בבית קומות,5.0,"ראשונה, שניה",113.85,1340000,,,2011.0,,1.0,9172676604,1,581953,False,,מודיעין-מכבים-רעות,מנחם בגין,,5819-53-4,5819/53,11769.872639437855,31.8792093412,35.0103416703,2009
2009-08-17,2009-08-17,"עמק בית שאן 44, מודיעין-מכבים-רעות",עמק בית שאן 44,5567-64-19,דירת גן,3.0,קרקע,75.2,1015000,,,1999.0,,2.0,9173922492,1,556764,False,62% ב 6.2 שנים,מודיעין-מכבים-רעות,עמק בית שאן,10.0,5567-64-19,5567/64,13497.340425531916,31.913621049,35.0014931707,2009
2009-08-17,2009-08-17,"בדולח 7, מודיעין-מכבים-רעות",בדולח 7,5871-13-25,דירה בבית קומות,3.0,שניה,80.0,950000,,,2004.0,,6.0,9172230396,1,587113,False,,מודיעין-מכבים-רעות,בדולח,,5871-13-25,5871/13,11875.0,31.9036549597,34.9939357722,2009
2009-08-17,2009-08-17,"שבט 37, מודיעין-מכבים-רעות",שבט 37,5735-23-26,דירת גן,5.0,"קרקע, ראשונה",132.6,1160000,,,2008.0,,4.0,9173366832,1,573523,False,,מודיעין-מכבים-רעות,שבט,,5735-23-26,5735/23,8748.114630467571,31.9141121312,35.0111161619,2009
2009-08-17,2009-08-17,"יהלום 54, מודיעין-מכבים-רעות",יהלום 54,5868-24-10,דירה בבית קומות,3.0,קרקע,81.45,1175000,,,2004.0,,1.0,9172104312,1,586824,False,,מודיעין-מכבים-רעות,יהלום,,5868-24-10,5868/24,14426.028238182931,31.9074187692,34.9923366905,2009
2009-08-17,2009-08-17,"שבט 31, מודיעין-מכבים-רעות",שבט 31,5735-24-16,דירת גן,4.0,ראשונה,94.0,1086000,,,2009.0,,4.0,9173363304,1,573524,False,,מודיעין-מכבים-רעות,שבט,,5735-24-16,5735/24,11553.1914893617,31.9133240589,35.0111479497,2009
2009-08-16,2009-08-16,"תשרי 4, מודיעין-מכבים-רעות",תשרי 4,5735-25-14,דירת גן,4.0,ראשונה,108.8,1086000,,,2008.0,,3.0,9173359104,1,573525,False,,מודיעין-מכבים-רעות,תשרי,,5735-25-14,5735/25,9981.617647058823,31.913885061,35.0106647608,2009
2009-08-16,2009-08-16,"עמק האלה 58, מודיעין-מכבים-רעות",עמק האלה 58,5734-39-10,דירה בבית קומות,4.0,ראשונה,86.7,1150000,,,2000.0,,3.0,9172133208,1,573439,False,,מודיעין-מכבים-רעות,עמק האלה,,5734-39-10,5734/39,13264.129181084198,31.9138442836,35.0079928131,2009
2009-08-14,2009-08-14,"אלמוגן 26, מודיעין-מכבים-רעות",אלמוגן 26,5685-64-3,דירה בבית קומות,6.0,שלישית,125.1,1350000,,,1995.0,,4.0,9171851976,1,568564,False,,מודיעין-מכבים-רעות,אלמוגן,,5685-64-3,5685/64,10791.36690647482,31.9015305645,35.0106177652,2009
2009-08-13,2009-08-13,"חטיבת גולני 3, מודיעין-מכבים-רעות",חטיבת גולני 3,5569-45-38,דירה בבית קומות,5.0,קרקע,114.0,1450000,,,2001.0,,2.0,9172132536,1,556945,False,79% ב 9.1 שנים,מודיעין-מכבים-רעות,חטיבת גולני,8.68,5569-45-38,5569/45,12719.298245614034,31.9087132836,35.0021690364,2009
2009-08-13,2009-08-13,"רבקה אימנו 11, מודיעין-מכבים-רעות",רבקה אימנו 11,5817-57-3,דירה בבית קומות,5.0,ראשונה,143.0,1940000,,,2007.0,,3.0,9173350788,1,581757,False,,מודיעין-מכבים-רעות,רבקה אמנו,,5817-57-3,5817/57,13566.433566433569,31.8809185281,35.0042215988,2009
2009-08-13,2009-08-13,"מגדל עוז 9, מודיעין-מכבים-רעות",מגדל עוז 9,5683-133-139,דירה בבית קומות,3.5,חמישית,75.84,1000000,,,2000.0,,9.0,9171483972,1,5683133,False,,מודיעין-מכבים-רעות,מגדל עוז,,5683-133-139,5683/133,13185.654008438818,31.8978991604,35.0129493367,2009
2009-08-13,2009-08-13,"ישעיהו הנביא 29, מודיעין-מכבים-רעות",ישעיהו הנביא 29,5567-6-83,דירה בבית קומות,4.0,שניה,112.1,1333000,,,2002.0,,6.0,9172418052,1,55676,False,,מודיעין-מכבים-רעות,ישעיהו הנביא,,5567-6-83,5567/6,11891.168599464763,31.9162950079,35.001383526,2009
2009-08-12,2009-12-08,"רא""ל יגאל ידין 35, מודיעין-מכבים-רעות","רא""ל יגאל ידין 35",5571-31-21,דירה בבית קומות,5.0,חמישית,152.1,1390000,,,2007.0,,17.0,9240327768,1,557131,False,,מודיעין-מכבים-רעות,"רא""ל יגאל ידין",,5571-31-21,5571/31,9138.724523339908,31.9053519575,35.0041445904,2009
2009-08-12,2009-12-08,"נחל דלייה 9, מודיעין-מכבים-רעות",נחל דלייה 9,5692-134-15,דירה בבית קומות,3.0,שניה,73.85,950000,,,1997.0,,4.0,9180880296,1,5692134,False,59% ב 10 שנים,מודיעין-מכבים-רעות,נחל דליה,5.9,5692-134-15,5692/134,12863.913337846989,31.8983227907,35.0227689784,2009
2009-08-11,2009-11-08,"ירח-אב 13, מודיעין-מכבים-רעות",ירח-אב 13,5735-10-77,דירה בבית קומות,4.0,עשרים,91.92,1250000,,,2010.0,,21.0,9179153424,1,573510,False,,מודיעין-מכבים-רעות,ירח-אב,,5735-10-77,5735/10,13598.781549173194,31.9136512293,35.0120722111,2009
2009-08-11,2009-11-08,"עמק בית שאן 44, מודיעין-מכבים-רעות",עמק בית שאן 44,5567-64-25,דירה בבית קומות,3.0,קרקע,74.7,955000,,,1999.0,,2.0,9178499316,1,556764,False,78% ב 11.8 שנים,מודיעין-מכבים-רעות,עמק בית שאן,6.61,5567-64-25,5567/64,12784.471218206158,31.913621049,35.0014931707,2009
2009-08-11,2009-11-08,"תשרי 7, מודיעין-מכבים-רעות",תשרי 7,5734-72-10,דירה בבית קומות,3.0,שניה,74.43,584000,,,2010.0,,3.0,9179124948,1,573472,False,,מודיעין-מכבים-רעות,תשרי,,5734-72-10,5734/72,7846.2985355367455,31.9144399664,35.0101191674,2009
2009-08-09,2009-09-08,"כרכום 16, מודיעין-מכבים-רעות",כרכום 16,5653-16-5,דירה בבית קומות,5.0,שניה,114.48,1315000,,,1996.0,,8.0,9175185180,1,565316,False,,מודיעין-מכבים-רעות,כרכום,,5653-16-5,5653/16,11486.722571628232,31.9058923941,35.0124403888,2009
2009-08-09,2009-09-08,"עמק דותן 78, מודיעין-מכבים-רעות",עמק דותן 78,5685-34-5,דירה בבית קומות,5.0,שלישית,114.6,1270000,,,1995.0,,3.0,9174278736,1,568534,False,,מודיעין-מכבים-רעות,עמק דותן,,5685-34-5,5685/34,11082.024432809774,31.8996635215,35.0113658964,2009
2009-08-09,2009-09-08,"רחל אימנו 30, מודיעין-מכבים-רעות",רחל אימנו 30,5819-55-9,דירה בבית קומות,6.0,"שלישית, רביעית",129.9,1739000,,,2009.0,,7.0,9175282956,1,581955,False,,מודיעין-מכבים-רעות,רחל אמנו,,5819-55-9,5819/55,13387.220939183988,31.8788484403,35.0069297907,2009
2009-08-07,2009-07-08,"רחל אימנו 26, מודיעין-מכבים-רעות",רחל אימנו 26,5819-56-5,קוטג' טורי,6.0,"שניה, שלישית",129.9,1530000,,,2009.0,,7.0,9172389660,1,581956,False,,מודיעין-מכבים-רעות,רחל אמנו,,5819-56-5,5819/56,11778.290993071592,31.8787072142,35.0075665883,2009
2009-08-07,2009-07-08,"רא""ל יגאל ידין 53, מודיעין-מכבים-רעות","רא""ל יגאל ידין 53",5571-34-87,דירה בבית קומות,5.0,חמישית,125.9,1311000,,,2007.0,,16.0,9169475616,1,557134,False,,מודיעין-מכבים-רעות,"רא""ל יגאל ידין",,5571-34-87,5571/34,10413.026211278791,31.9027074335,35.0043607826,2009
2009-08-07,2009-07-08,"מגדל הלבנון 15, מודיעין-מכבים-רעות",מגדל הלבנון 15,5684-75-101,דירה בבית קומות,4.0,שניה,100.9,1225000,,,2002.0,,10.0,9169506864,1,568475,False,,מודיעין-מכבים-רעות,מגדל הלבנון,,5684-75-101,5684/75,12140.733399405352,31.8948223544,35.0078793475,2009
2009-08-07,2009-07-08,"ישעיהו הנביא 9, מודיעין-מכבים-רעות",ישעיהו הנביא 9,5567-68-3,דירה בבית קומות,4.0,ראשונה,106.5,1150000,,,1999.0,,2.0,9169145748,1,556768,False,,מודיעין-מכבים-רעות,ישעיהו הנביא,,5567-68-3,5567/68,10798.1220657277,31.9127988662,35.0022895929,2009
2009-08-07,2009-07-08,"יצחק רבין 3, מודיעין-מכבים-רעות",יצחק רבין 3,5813-7-18,דירה בבית קומות,4.0,שניה ושלישית,100.55,1400000,,,1999.0,,2.0,9172758420,1,58137,False,41% ב 2.2 שנים,מודיעין-מכבים-רעות,יצחק רבין,18.64,5813-7-18,5813/7,13923.4211834908,31.8890330164,35.0077483476,2009
2009-08-07,2009-07-08,"אדר 41, מודיעין-מכבים-רעות",אדר 41,5735-28-1,דירה בבית קומות,5.0,קרקע,107.7,1213000,,,2008.0,,2.0,9169359864,1,573528,False,,מודיעין-מכבים-רעות,אדר,,5735-28-1,5735/28,11262.766945218198,31.9154420996,35.0126811725,2009
2009-08-06,2009-06-08,"חשון 26, מודיעין-מכבים-רעות",חשון 26,5735-27-2,דירה בבית קומות,4.0,ראשונה,98.05,1020000,,,2008.0,,3.0,9166739568,1,573527,False,,מודיעין-מכבים-רעות,חשון,,5735-27-2,5735/27,10402.855685874554,31.9152508305,35.012468114,2009
2009-08-06,2009-06-08,"נהר הירדן 76, מודיעין-מכבים-רעות",נהר הירדן 76,5682-180-1,דירת גן,4.0,קרקע,96.0,1250000,,,1999.0,,2.0,9165978024,1,5682180,False,85% ב 10.3 שנים,מודיעין-מכבים-רעות,נהר הירדן,8.25,5682-180-1,5682/180,13020.833333333334,31.8952850189,35.0034335839,2009
2009-08-06,2009-06-08,"בגין מנחם 104, מודיעין-מכבים-רעות",בגין מנחם 104,5817-44-7,דירה בבית קומות,4.0,מרתף קרקע וראשונה,123.5,1030000,,,2009.0,,1.0,9166321836,1,581744,False,,מודיעין-מכבים-רעות,מנחם בגין,,5817-44-7,5817/44,8340.08097165992,31.8796341455,35.0044070303,2009
2009-08-06,2009-06-08,"מגדל הלבנון 2, מודיעין-מכבים-רעות",מגדל הלבנון 2,5684-113-8,דירת גן,4.0,קרקע,108.0,1150000,,,1998.0,,2.0,9166734108,1,5684113,False,,מודיעין-מכבים-רעות,מגדל הלבנון,,5684-113-8,5684/113,10648.148148148148,31.8941404633,35.0104177113,2009
2009-08-06,2009-06-08,"חשון 26, מודיעין-מכבים-רעות",חשון 26,5735-27-3,דירה בבית קומות,4.0,שניה,93.4,905000,,,2008.0,,3.0,9166740240,1,573527,False,,מודיעין-מכבים-רעות,חשון,,5735-27-3,5735/27,9689.50749464668,31.9152508305,35.012468114,2009
2009-08-06,2009-06-08,"מנחם בגין 62, מודיעין-מכבים-רעות",מנחם בגין 62,5819-52-10,דירה בבית קומות,5.0,"מרתף, קרקע, ראשונה",139.4,1390000,,,2009.0,,1.0,9166968972,1,581952,False,,מודיעין-מכבים-רעות,מנחם בגין,,5819-52-10,5819/52,9971.305595408894,31.8786852306,35.0099014236,2009
2009-08-06,2009-06-08,"נחל מירון 24, מודיעין-מכבים-רעות",נחל מירון 24,5692-23-1,קוטג' דו משפחתי,6.0,קרקע ראשונה ושניה,175.35,2030000,,,1996.0,,,9168567828,1,569223,False,,מודיעין-מכבים-רעות,נחל מירון,,5692-23-1,5692/23,11576.846307385227,31.8966508956,35.0247373972,2009
2009-08-05,2009-05-08,"רא""ל יגאל ידין 37, מודיעין-מכבים-רעות","רא""ל יגאל ידין 37",5571-31-60,דירה בבית קומות,5.0,שלישית,151.0,1250000,,,2007.0,,17.0,9163271124,1,557131,False,,מודיעין-מכבים-רעות,"רא""ל יגאל ידין",,5571-31-60,5571/31,8278.14569536424,31.9053519575,35.0041445904,2009
2009-08-05,2009-05-08,"שבט 37, מודיעין-מכבים-רעות",שבט 37,5735-23-25,דירה בבית קומות,5.0,"קרקע, ראשונה",132.8,1140000,,,2008.0,,4.0,9164134056,1,573523,False,,מודיעין-מכבים-רעות,שבט,,5735-23-25,5735/23,8584.33734939759,31.9141121312,35.0111161619,2009
2009-08-04,2009-04-08,"לשם 63, מודיעין-מכבים-רעות",לשם 63,5871-30-31,דירת גן,4.0,ראשונה,118.0,1289000,,,2003.0,,4.0,9161820024,1,587130,False,,מודיעין-מכבים-רעות,לשם,,5871-30-31,5871/30,10923.728813559324,31.9025618088,34.9953465624,2009
2009-08-04,2009-04-08,"עמק האלה 61, מודיעין-מכבים-רעות",עמק האלה 61,5567-10-5,דירה בבית קומות,3.0,שניה,72.55,810000,,,1999.0,,2.0,9161963580,1,556710,False,30% ב 6 שנים,מודיעין-מכבים-רעות,עמק האלה,5.0,5567-10-5,5567/10,11164.713990351482,31.9146111495,35.0041034967,2009
2009-08-03,2009-03-08,"שבטי ישראל 44, מודיעין-מכבים-רעות",שבטי ישראל 44,5815-112-12,דירה בבית קומות,5.5,שניה + שלישית,152.0,1870000,,,2003.0,,6.0,9160212852,1,5815112,False,74% ב 5.5 שנים,מודיעין-מכבים-רעות,שבטי ישראל,13.45,5815-112-12,5815/112,12302.631578947368,31.8838985003,35.000949311,2009
2009-08-02,2009-02-08,"תשרי 4, מודיעין-מכבים-רעות",תשרי 4,5735-25-7,דירה בבית קומות,4.0,ראשונה,108.85,940000,,,2008.0,,3.0,9158704884,1,573525,False,,מודיעין-מכבים-רעות,תשרי,,5735-25-7,5735/25,8635.737253100597,31.913885061,35.0106647608,2009
2009-08-02,2009-02-08,"שבט 37, מודיעין-מכבים-רעות",שבט 37,5735-23-34,דירה בבית קומות,4.0,שלישית,94.95,903000,,,2008.0,,4.0,9158707068,1,573523,False,,מודיעין-מכבים-רעות,שבט,,5735-23-34,5735/23,9510.268562401265,31.9141121312,35.0111161619,2009
2009-08-01,2009-01-08,"מבצע יואב 9, מודיעין-מכבים-רעות",מבצע יואב 9,5693-21-1,קוטג' טורי,5.5,,,1780000,,,1997.0,,1.0,9158573340,1,569321,False,,מודיעין-מכבים-רעות,מבצע יואב,,5693-21-1,5693/21,,31.9082829832,35.0014461702,2009
2009-07-31,2009-07-31,"רא""ל יגאל ידין 39, מודיעין-מכבים-רעות","רא""ל יגאל ידין 39",5571-32-20,דירה בבית קומות,5.0,רביעית,134.9,1295000,,,2007.0,,17.0,9170845740,1,557132,False,,מודיעין-מכבים-רעות,"רא""ל יגאל ידין",,5571-32-20,5571/32,9599.703484062267,31.9044538939,35.0042638394,2009
2009-07-31,2009-07-31,"עמוס הנביא 14, מודיעין-מכבים-רעות",עמוס הנביא 14,5567-83-67,דירה בבית קומות,5.0,עשרים,120.3,1383000,,,2007.0,,27.0,9170799120,1,556783,False,,מודיעין-מכבים-רעות,עמוס הנביא,,5567-83-67,5567/83,11496.259351620947,31.9155099204,35.0019056369,2009
2009-07-31,2009-07-31,"רחל אימנו 26, מודיעין-מכבים-רעות",רחל אימנו 26,5819-56-9,קוטג' טורי,6.0,"שלישית, רביעית",129.8,1635000,,,2009.0,,7.0,9172382016,1,581956,False,,מודיעין-מכבים-רעות,רחל אמנו,,5819-56-9,5819/56,12596.302003081662,31.8787072142,35.0075665883,2009
2009-07-31,2009-07-31,"ציפורנית 10, מודיעין-מכבים-רעות",ציפורנית 10,5653-33-31,דירה בבית קומות,3.0,קרקע,76.4,1080000,,,1997.0,,4.0,9170368872,1,565333,False,,מודיעין-מכבים-רעות,ציפורנית,,5653-33-31,5653/33,14136.12565445026,31.9062735535,35.0144732955,2009
2009-07-31,2009-07-31,"לאה אימנו 79, מודיעין-מכבים-רעות",לאה אימנו 79,5817-17-50,דירת גן,5.0,"מרתף, קרקע, ראשונה",131.5,1440000,,,2009.0,,1.0,9170476392,1,581717,False,,מודיעין-מכבים-רעות,לאה אמנו,,5817-17-50,5817/17,10950.570342205325,31.8806323444,35.0029617917,2009
2009-07-31,2009-07-31,"תשרי 19, מודיעין-מכבים-רעות",תשרי 19,5733-28-8,דירה בבית קומות,4.0,קרקע,92.95,1050000,,,2010.0,,3.0,9171205344,1,573328,False,,מודיעין-מכבים-רעות,תשרי,,5733-28-8,5733/28,11296.395911780526,31.915403193,35.0100414545,2009
2009-07-31,2009-07-31,"שרה אימנו 21, מודיעין-מכבים-רעות",שרה אימנו 21,5819-75-4,דירה בבית קומות,6.0,שניה,133.0,1622000,,,2007.0,,2.0,9171593508,1,581975,False,,מודיעין-מכבים-רעות,שרה אמנו,,5819-75-4,5819/75,12195.488721804511,31.8804576378,35.0098557427,2009
2009-07-29,2009-07-29,"שרה אימנו 23, מודיעין-מכבים-רעות",שרה אימנו 23,5819-76-5,דירה בבית קומות,5.0,שלישית,114.3,1526000,,,2007.0,,2.0,9172807476,1,581976,False,,מודיעין-מכבים-רעות,שרה אמנו,,5819-76-5,5819/76,13350.831146106735,31.8802828496,35.0096511405,2009
2009-07-29,2009-07-29,"ישעיהו הנביא 37, מודיעין-מכבים-רעות",ישעיהו הנביא 37,5567-8-25,דירה בבית קומות,5.0,רביעית,111.7,1515000,,,2000.0,,4.0,9171157632,1,55678,False,47% ב 2.3 שנים,מודיעין-מכבים-רעות,ישעיהו הנביא,20.43,5567-8-25,5567/8,13563.115487914056,31.9161231047,35.0032048946,2009
2009-07-29,2009-07-29,"שבט 30, מודיעין-מכבים-רעות",שבט 30,5735-11-8,דירה בבית קומות,4.0,שלישית,100.57,1000000,,,2011.0,,6.0,9171134616,1,573511,False,,מודיעין-מכבים-רעות,שבט,,5735-11-8,5735/11,9943.323058566171,31.9137826768,35.0117232437,2009
2009-07-28,2009-07-28,"עמק דותן 71, מודיעין-מכבים-רעות",עמק דותן 71,5683-14-20,דירה בבית קומות,3.0,קרקע,65.62,880000,,,1996.0,,4.0,9171139488,1,568314,False,,מודיעין-מכבים-רעות,עמק דותן,,5683-14-20,5683/14,13410.54556537641,31.8989191941,35.0107553008,2009
2009-07-26,2009-07-26,"נהר הירדן 74, מודיעין-מכבים-רעות",נהר הירדן 74,5682-179-6,דירה בבית קומות,3.0,שניה,63.0,923000,,,1999.0,,2.0,9170238672,1,5682179,False,,מודיעין-מכבים-רעות,נהר הירדן,,5682-179-6,5682/179,14650.79365079365,31.895410938,35.0037539201,2009
2009-07-26,2009-07-26,"יחזקאל הנביא 11, מודיעין-מכבים-רעות",יחזקאל הנביא 11,5567-75-3,דירה בבית קומות,4.0,שניה,103.1,1090000,,,1998.0,,3.0,9170916384,1,556775,False,,מודיעין-מכבים-רעות,יחזקאל הנביא,,5567-75-3,5567/75,10572.259941804074,31.9131221158,35.0028772922,2009
2009-07-26,2009-07-26,"עמק בית שאן 31, מודיעין-מכבים-רעות",עמק בית שאן 31,5568-16-40,דירה בבית קומות,4.0,ראשונה,104.3,940000,,,1999.0,,2.0,9170353752,1,556816,False,77% ב 11 שנים,מודיעין-מכבים-רעות,עמק בית שאן,7.0,5568-16-40,5568/16,9012.464046021094,31.9118323087,35.0010069952,2009
2009-07-26,2009-07-26,"הדורית 262, מודיעין-מכבים-רעות",הדורית 262,5289-26-2,דירה בבית קומות,6.0,ראשונה,170.0,2800000,,,1988.0,,1.0,9170141484,1,528926,False,,מודיעין-מכבים-רעות,הדורית,,5289-26-2,5289/26,16470.58823529412,31.8928579113,35.0297898566,2009
2009-07-23,2009-07-23,"נחל נעמן 9, מודיעין-מכבים-רעות",נחל נעמן 9,5682-106-18,דירה בבית קומות,3.0,שלישית,64.7,819000,,,1996.0,,3.0,9170098644,1,5682106,False,,מודיעין-מכבים-רעות,נחל נעמן,,5682-106-18,5682/106,12658.423493044822,31.8931387735,35.004339499,2009
2009-07-23,2009-07-23,"תרשיש 23, מודיעין-מכבים-רעות",תרשיש 23,5868-52-5,דירה בבית קומות,4.0,שלישית,95.44,1275000,,,2006.0,,5.0,9169966176,1,586852,False,,מודיעין-מכבים-רעות,תרשיש,,5868-52-5,5868/52,13359.178541492038,31.9069309324,34.9951978024,2009
2009-07-23,2009-07-23,"שבט 30, מודיעין-מכבים-רעות",שבט 30,5735-11-41,דירה בבית קומות,4.0,רביעית,103.79,1005000,,,2011.0,,6.0,9170111916,1,573511,False,,מודיעין-מכבים-רעות,שבט,,5735-11-41,5735/11,9683.0137778206,31.9137826768,35.0117232437,2009
2009-07-22,2009-07-22,"נהר הירדן 27, מודיעין-מכבים-רעות",נהר הירדן 27,5683-96-5,דירה בבית קומות,3.0,שלישית,79.0,920000,,,1997.0,,2.0,9169957188,1,568396,False,75% ב 7 שנים,מודיעין-מכבים-רעות,נהר הירדן,10.71,5683-96-5,5683/96,11645.569620253164,31.8961078741,35.0098046603,2009
2009-07-22,2009-07-22,"הר תורען 712, מודיעין-מכבים-רעות",הר תורען 712,5326-181-1,דירה בבית קומות,7.0,,330.0,3100000,,,1992.0,,,9170239344,1,5326181,False,,מודיעין-מכבים-רעות,הר תורען,,5326-181-1,5326/181,9393.939393939394,31.8882170609,35.0324200532,2009
2009-07-21,2009-07-21,"שבט 37, מודיעין-מכבים-רעות",שבט 37,5735-23-28,דירת גן,4.0,ראשונה,94.0,1066000,,,2008.0,,4.0,9170286384,1,573523,False,,מודיעין-מכבים-רעות,שבט,,5735-23-28,5735/23,11340.425531914894,31.9141121312,35.0111161619,2009
2009-07-21,2009-07-21,"עמק האלה 12, מודיעין-מכבים-רעות",עמק האלה 12,5736-36-58,דירה בבית קומות,3.0,שניה,86.45,940000,,,2006.0,,7.0,9169944756,1,573636,False,,מודיעין-מכבים-רעות,שבט,,5736-36-58,5736/36,10873.337189126663,31.9124409591,35.0129253709,2009
2009-07-21,2009-07-21,"צאלון 7, מודיעין-מכבים-רעות",צאלון 7,5654-13-11,דירה בבית קומות,3.0,ראשונה,61.2,800000,,,1996.0,,2.0,9169887216,1,565413,False,,מודיעין-מכבים-רעות,צאלון,,5654-13-11,5654/13,13071.8954248366,31.9080683496,35.0149566824,2009
2009-07-21,2009-07-21,"אפרים 46, מודיעין-מכבים-רעות",אפרים 46,5816-76-5,דירה בבית קומות,5.0,"קרקע, ראשונה",164.0,1920000,,,2009.0,,1.0,9169847232,1,581676,False,,מודיעין-מכבים-רעות,אפרים,,5816-76-5,5816/76,11707.317073170732,31.8830489293,35.0042842299,2009
2009-07-21,2009-07-21,"אפרים 36, מודיעין-מכבים-רעות",אפרים 36,5816-72-1,דירה בבית קומות,5.0,"קרקע, ראשונה",164.0,1920000,,,2009.0,,1.0,9169864200,1,581672,False,,מודיעין-מכבים-רעות,אפרים,,5816-72-1,5816/72,11707.317073170732,31.8837171814,35.0050676243,2009
2009-07-21,2009-07-21,"אבני החושן 68, מודיעין-מכבים-רעות",אבני החושן 68,5868-27-33,קוטג' דו משפחתי,5.0,קרקע + ראשונה,128.95,1675000,,,2002.0,,1.0,9170773668,1,586827,False,,מודיעין-מכבים-רעות,אבני החושן,,5868-27-33,5868/27,12989.530825901513,31.9059296442,34.9918214791,2009
2009-07-20,2009-07-20,"אדר 15, מודיעין-מכבים-רעות",אדר 15,5736-24-48,דירה בבית קומות,5.0,שלישית,118.0,1590000,,,2007.0,,3.0,9169916280,1,573624,False,59% ב 1.6 שנים,מודיעין-מכבים-רעות,אדר,36.88,5736-24-48,5736/24,13474.57627118644,31.9128380842,35.0145055767,2009
2009-07-20,2009-07-20,"רא""ל חיים לסקוב 4, מודיעין-מכבים-רעות","רא""ל חיים לסקוב 4",5567-73-3,דירה בבית קומות,3.0,שניה,81.7,865000,,,1997.0,,3.0,9171155448,1,556773,False,75% ב 11.3 שנים,מודיעין-מכבים-רעות,"רא""ל חיים לסקוב",6.64,5567-73-3,5567/73,10587.5152998776,31.9125859632,35.0003725085,2009
2009-07-20,2009-07-20,"עמק בית שאן 27, מודיעין-מכבים-רעות",עמק בית שאן 27,5569-27-28,דירה בבית קומות,4.0,ראשונה,96.6,1190000,,,2000.0,,2.0,9169887888,1,556927,False,70% ב 9.9 שנים,מודיעין-מכבים-רעות,עמק בית שאן,7.07,5569-27-28,5569/27,12318.840579710146,31.9108931844,35.0020733173,2009
2009-07-20,2009-07-20,"עמק בית שאן 47, מודיעין-מכבים-רעות",עמק בית שאן 47,5567-71-10,דירה בבית קומות,3.0,ראשונה,83.8,1050000,,,1998.0,,3.0,9169653108,1,556771,False,,מודיעין-מכבים-רעות,עמק בית שאן,,5567-71-10,5567/71,12529.83293556086,31.9132146048,35.0004219279,2009
2009-07-20,2009-07-20,"אפרים 42, מודיעין-מכבים-רעות",אפרים 42,5816-74-5,דירה בבית קומות,5.0,"קרקע, ראשונה",164.0,1920000,,,2009.0,,1.0,9169865712,1,581674,False,,מודיעין-מכבים-רעות,אפרים,,5816-74-5,5816/74,11707.317073170732,31.8833872871,35.0046793865,2009
2009-07-19,2009-07-19,"תשרי 15, מודיעין-מכבים-רעות",תשרי 15,5733-31-7,דירה בבית קומות,4.0,קרקע,96.9,1055000,,,2010.0,,4.0,9170145684,1,573331,False,,מודיעין-מכבים-רעות,תשרי,,5733-31-7,5733/31,10887.5128998968,31.914983026,35.0101857256,2009
2009-07-19,2009-07-19,"שבט 30, מודיעין-מכבים-רעות",שבט 30,5735-11-13,דירה בבית קומות,6.0,"קרקע, ראשונה",139.95,1432000,,,2011.0,,6.0,9169832532,1,573511,False,,מודיעין-מכבים-רעות,שבט,,5735-11-13,5735/11,10232.22579492676,31.9137826768,35.0117232437,2009
2009-07-19,2009-07-19,"ישפה 5, מודיעין-מכבים-רעות",ישפה 5,5870-53-1,קוטג' דו משפחתי,6.0,מרתף קרקע וראשונה,139.6,1950000,,,2002.0,,2.0,9169372968,1,587053,False,,מודיעין-מכבים-רעות,ישפה,,5870-53-1,5870/53,13968.481375358167,31.9042600871,34.9980089224,2009
2009-07-19,2009-07-19,"דן 11, מודיעין-מכבים-רעות",דן 11,5814-40-1,קוטג' חד משפחתי,6.0,,240.0,3750000,,,1999.0,,2.0,9169281492,1,581440,False,,מודיעין-מכבים-רעות,דן,,5814-40-1,5814/40,15625.0,31.8877526167,35.0028420584,2009
2009-07-17,2009-07-17,"כסלו 21, מודיעין-מכבים-רעות",כסלו 21,5734-42-6,דירה בבית קומות,4.0,שניה,92.85,1160000,,,2000.0,,4.0,9170354424,1,573442,False,65% ב 7.1 שנים,מודיעין-מכבים-רעות,כסלו,9.15,5734-42-6,5734/42,12493.268712977922,31.9142620207,35.0074373336,2009
2009-07-17,2009-07-17,"מנחם בגין 124, מודיעין-מכבים-רעות",מנחם בגין 124,5817-17-37,דירה בבית קומות,5.0,"קרקע, ראשונה",120.5,1340000,,,2008.0,,1.0,9169446468,1,581717,False,,מודיעין-מכבים-רעות,מנחם בגין,,5817-17-37,5817/17,11120.331950207468,31.8806323444,35.0029617917,2009
2009-07-16,2009-07-16,"מרום 10, מודיעין-מכבים-רעות",מרום 10,5298-33-1,קוטג' דו משפחתי,5.0,,202.0,2720000,,,1991.0,,2.0,9169677384,1,529833,False,,מודיעין-מכבים-רעות,מרום,,5298-33-1,5298/33,13465.346534653463,31.8841328192,35.0123244647,2009
2009-07-16,2009-07-16,"עמק החולה 17, מודיעין-מכבים-רעות",עמק החולה 17,5691-19-6,דירה בבית קומות,4.0,שניה,110.07,1080000,,,2001.0,,4.0,9169220592,1,569119,False,64% ב 7.2 שנים,מודיעין-מכבים-רעות,עמק החולה,8.89,5691-19-6,5691/19,9811.937857726902,31.8945034888,35.0216069734,2009
2009-07-16,2009-07-16,"יעל הגיבורה 63, מודיעין-מכבים-רעות",יעל הגיבורה 63,5818-83-1,קוטג' חד משפחתי,6.0,"מרתף, קרקע, ראשונה",183.8,2450000,,,2003.0,,2.0,9169260156,1,581883,False,0% ב 1.7 שנים,מודיעין-מכבים-רעות,יעל הגיבורה,0.0,5818-83-1,5818/83,13329.706202393903,31.8821574673,35.0086852497,2009
2009-07-16,2009-07-16,"אסתר המלכה 45, מודיעין-מכבים-רעות",אסתר המלכה 45,5818-66-6,קוטג' דו משפחתי,6.0,קרקע ראשונה ושניה,175.1,2500000,,,2004.0,,,9169127604,1,581866,False,82% ב 4.6 שנים,מודיעין-מכבים-רעות,אסתר המלכה,17.83,5818-66-6,5818/66,14277.555682467162,31.883513038,35.0106813977,2009
2009-07-16,2009-07-16,"שרה אימנו 130, מודיעין-מכבים-רעות",שרה אימנו 130,5816-10-4,דירה בבית קומות,4.0,"שלישית, רביעית",102.0,1350000,,,2007.0,,5.0,9169388928,1,581610,False,,מודיעין-מכבים-רעות,שרה אמנו,,5816-10-4,5816/10,13235.29411764706,31.8824689881,35.00398688,2009
2009-07-15,2009-07-15,"חשוון 11, מודיעין-מכבים-רעות",חשוון 11,5736-34-18,דירת גג,5.0,"שניה, שלישית",112.5,1370000,,,2007.0,,3.0,9169922664,1,573634,False,37% ב 1.7 שנים,מודיעין-מכבים-רעות,חשון,21.76,5736-34-18,5736/34,12177.777777777776,31.9122037668,35.0142838577,2009
2009-07-15,2009-07-15,"שבט 40, מודיעין-מכבים-רעות",שבט 40,5735-20-5,דירה בבית קומות,4.0,שניה,85.71,1003000,,,2010.0,,2.0,9169364652,1,573520,False,,מודיעין-מכבים-רעות,שבט,,5735-20-5,5735/20,11702.25177925563,31.9143052905,35.012436256,2009
2009-07-14,2009-07-14,"עמוס הנביא 22, מודיעין-מכבים-רעות",עמוס הנביא 22,5567-81-8,דירה בבית קומות,4.0,קרקע,98.5,1340000,,,2005.0,,2.0,9169068048,1,556781,False,,מודיעין-מכבים-רעות,עמוס הנביא,,5567-81-8,5567/81,13604.060913705584,31.9145685132,35.0020005124,2009
2009-07-14,2009-07-14,"אדר 39, מודיעין-מכבים-רעות",אדר 39,5735-28-15,דירה בבית קומות,4.0,שניה,87.05,936000,,,2008.0,,2.0,9169474944,1,573528,False,,מודיעין-מכבים-רעות,אדר,,5735-28-15,5735/28,10752.441125789775,31.9154420996,35.0126811725,2009
2009-07-14,2009-07-14,"תכלת 10, מודיעין-מכבים-רעות",תכלת 10,5872-21-40,דירה בבית קומות,5.0,מרתף קרקע וראשונה,129.0,1950000,,,2002.0,,3.0,9169063932,1,587221,False,,מודיעין-מכבים-רעות,תכלת,,5872-21-40,5872/21,15116.279069767445,31.9012514191,34.9991299799,2009
2009-07-14,2009-07-14,"דבורה הנביאה 12, מודיעין-מכבים-רעות",דבורה הנביאה 12,5567-6-14,דירה בבית קומות,3.0,קרקע,85.3,951000,,,2000.0,,2.0,9169107528,1,55676,False,,מודיעין-מכבים-רעות,דבורה הנביאה,,5567-6-14,5567/6,11148.886283704573,31.9162950079,35.001383526,2009
2009-07-14,2009-07-14,"ירח-אב 13, מודיעין-מכבים-רעות",ירח-אב 13,5735-10-51,דירה בבית קומות,5.0,שלוש עשרה,101.89,1290000,,,2010.0,,21.0,9169367508,1,573510,False,,מודיעין-מכבים-רעות,ירח-אב,,5735-10-51,5735/10,12660.712533123957,31.9136512293,35.0120722111,2009
2009-07-14,2009-07-14,"לימון 5, מודיעין-מכבים-רעות",לימון 5,5685-66-4,דירה בבית קומות,4.0,רביעית וחמישית,112.8,1227000,,,1997.0,,4.0,9169260828,1,568566,False,52% ב 6.3 שנים,מודיעין-מכבים-רעות,לימון,8.25,5685-66-4,5685/66,10877.659574468084,31.9017436839,35.011160919,2009
