DEALDATE,DEALDATETIME,FULLADRESS,DISPLAYADRESS,GUSH,DEALNATUREDESCRIPTION,ASSETROOMNUM,FLOORNO,DEALNATURE,DEALAMOUNT,NEWPROJECTTEXT,PROJECTNAME,BUILDINGYEAR,YEARBUILT,BUILDINGFLOORS,KEYVALUE,TYPE,POLYGON_ID,TREND_IS_NEGATIVE,TREND_FORMAT,city_name,street,presentage per year,GUSH - Copy,Gush_Helka,Price per sqm,lat,lon,Year
2021-12-31,2021-12-31,"אריה 24, אשקלון",אריה 24,1297-5-10,דירה בבית קומות,4.0,שלישית,89.8,1220000,,,1992.0,,5.0,10980261000,1,12975,False,22% ב 5.6 שנים,אשקלון,אריה,3.93,1297-5-10,1297/5,13585.74610244989,31.6636151436,34.5801835589,2021
2021-12-30,2021-12-30,"בית אל 7, אשקלון",בית אל 7,2869-37-21,דירה בבית קומות,4.0,ראשונה,100.8,1400000,,,1990.0,,3.0,10980710190,1,286937,False,,אשקלון,בית אל,,2869-37-21,2869/37,13888.888888888889,31.667273712,34.5594356456,2021
2021-12-30,2021-12-30,"אלי כהן 53, אשקלון",אלי כהן 53,2880-13-4,דירה בבית קומות,4.0,חמישית,88.0,1020000,,,1999.0,,,10980336060,1,288013,False,,אשקלון,אלי כהן,,2880-13-4,2880/13,11590.90909090909,31.6702190997,34.5862248873,2021
2021-12-30,2021-12-30,"אריה בן-אליעזר 21, אשקלון",אריה בן-אליעזר 21,1934-57-3,קוטג' חד משפחתי,5.0,קרקע,125.0,2050000,,,1970.0,,,10980068670,1,193457,False,30% ב 2.5 שנים,אשקלון,בן אליעזר אריה,12.0,1934-57-3,1934/57,16400.0,31.6857673399,34.5759610779,2021
2021-12-30,2021-12-30,"ביכורי ענבים 47, אשקלון",ביכורי ענבים 47,2754-161-13,דירה בבית קומות,4.0,קומה ‎4‏,112.5,1630000,,,2008.0,,7.0,10980997470,1,2754161,False,75% ב 9 שנים,אשקלון,ביכורי ענבים,8.33,2754-161-13,2754/161,14488.888888888889,31.6904970392,34.582663538,2021
2021-12-30,2021-12-30,"ביכורי ענבים 27, אשקלון",ביכורי ענבים 27,2754-155-42,,5.0,שניה,140.0,2090000,,,2014.0,,10.0,10980111690,1,2754155,False,,אשקלון,ביכורי ענבים,,2754-155-42,2754/155,14928.57142857143,31.6905818725,34.5849589842,2021
2021-12-30,2021-12-30,"הציונות 74, אשקלון",הציונות 74,2557-7-50,דירה בבית קומות,5.0,חמישית,118.8,1550000,,,2005.0,,7.0,10980104310,1,25577,False,55% ב 8 שנים,אשקלון,נבון אופירה,6.88,2557-7-50,2557/7,13047.138047138047,31.6872524378,34.5813422138,2021
2021-12-30,2021-12-30,"מונטיפיורי 15, אשקלון",מונטיפיורי 15,2904-55-74,דירה בבית קומות,5.0,שישית,123.0,2019000,,,2020.0,,6.0,10981469700,1,290455,False,,אשקלון,מונטיפיורי,,2904-55-74,2904/55,16414.634146341465,31.681553392,34.577469074,2021
2021-12-30,2021-12-30,"היין 6, אשקלון",היין 6,2753-139-36,דירה בבית קומות,4.0,תשיעית,113.11,1685000,,,2009.0,,9.0,10981119420,1,2753139,False,120% ב 12.6 שנים,אשקלון,היין,9.52,2753-139-36,2753/139,14897.002917513924,31.6930961658,34.5790848334,2021
2021-12-30,2021-12-30,"טשרניחובסקי 9, אשקלון",טשרניחובסקי 9,1964-58-10,דירה בבית קומות,2.0,שלישית,31.7,505000,,,1960.0,,4.0,10980837090,1,196458,False,0% ב 5.5 שנים,אשקלון,טשרניחובסקי,0.0,1964-58-10,1964/58,15930.599369085174,31.6564016322,34.5618530982,2021
2021-12-29,2021-12-29,"השומר הצעיר 4, אשקלון",השומר הצעיר 4,2391-76-7,דירה בבית קומות,3.0,שניה,60.3,950000,,,1990.0,,6.0,10980569790,1,239176,False,5% ב 2.1 שנים,אשקלון,השומר הצעיר,2.38,2391-76-7,2391/76,15754.560530679935,31.6562416068,34.5699977559,2021
2021-12-29,2021-12-29,"שילה 1, אשקלון",שילה 1,2869-8-29,דירה בבית קומות,4.0,שלישית,79.0,1330000,,,2000.0,,13.0,10923749550,1,28698,False,,אשקלון,שילה,,2869-8-29,2869/8,16835.443037974685,31.6698945024,34.5563490531,2021
2021-12-29,2021-12-29,"דוד רמז 11, אשקלון",דוד רמז 11,1228-96-4,דירה בבית קומות,4.0,קומה ‎1‏,75.3,1000000,,,1990.0,,9.0,10980327870,1,122896,False,103% ב 12.5 שנים,אשקלון,רמז דוד,8.24,1228-96-4,1228/96,13280.212483399737,31.6642210799,34.5835160995,2021
2021-12-29,2021-12-29,,,2556-4-110,דירה בבית קומות,5.0,אחת עשרה,133.0,2040000,,,2020.0,,,10981999170,2,25564,False,,אשקלון,בלפור,,2556-4-110,2556/4,15338.345864661656,31.6905337687,34.5769245426,2021
2021-12-29,2021-12-29,"הר ארבל 12, אשקלון",הר ארבל 12,1934-221-13,דירה בבית קומות,4.0,ראשונה,98.7,1680000,,,2005.0,,4.0,10981820250,1,1934221,False,171% ב 18.2 שנים,אשקלון,הר ארבל,9.4,1934-221-13,1934/221,17021.27659574468,31.6834075252,34.5757347579,2021
2021-12-29,2021-12-29,"אלי כהן 10, אשקלון",אלי כהן 10,1931-191-53,דירה בבית קומות,3.0,שישית,78.45,1020000,,,1970.0,,8.0,10981230030,1,1931191,False,,אשקלון,אלי כהן,,1931-191-53,1931/191,13001.9120458891,31.6659647869,34.5650624455,2021
2021-12-28,2021-12-28,,,2556-4-109,דירה בבית קומות,5.0,אחת עשרה,133.0,2240000,,,2021.0,,,10981302030,2,25564,False,,אשקלון,בלפור,,2556-4-109,2556/4,16842.105263157893,31.6905337687,34.5769245426,2021
2021-12-28,2021-12-28,,,2556-4-108,דירה בבית קומות,3.0,שניה,103.0,1600000,,,2020.0,,,10981768410,2,25564,False,,אשקלון,בלפור,,2556-4-108,2556/4,15533.980582524273,31.6905337687,34.5769245426,2021
2021-12-28,2021-12-28,"איילה 23, אשקלון",איילה 23,1296-12-48,דירה בבית קומות,5.0,רביעית וחמישית,117.35,1340000,,,1990.0,,4.0,10980199350,1,129612,False,36% ב 6.5 שנים,אשקלון,איילה,5.54,1296-12-48,1296/12,11418.832552194292,31.6619842881,34.5752215428,2021
2021-12-28,2021-12-28,"יוטבתה 1, אשקלון",יוטבתה 1,3054-42-58,דירה בבית קומות,3.0,ראשונה,62.8,1043000,,,1995.0,,4.0,10982164680,1,305442,False,18% ב 2 שנים,אשקלון,יוטבתה,9.0,3054-42-58,3054/42,16608.28025477707,31.6756466069,34.5787208874,2021
2021-12-28,2021-12-28,"אריה עוזר 12, אשקלון",אריה עוזר 12,2855-37-6,דירה בבית קומות,4.0,ראשונה,111.1,1435000,,,2009.0,,9.0,10980385740,1,285537,False,4% ב 4 שנים,אשקלון,עוזר אריה,1.0,2855-37-6,2855/37,12916.291629162915,31.6733848322,34.5745544004,2021
2021-12-28,2021-12-28,,,1936-348-1,מסחרי + משרדים,,,1576.0,5950000,,,,,,10980900900,2,1936348,False,,אשקלון,הרב בוזגלו דוד,,1936-348-1,1936/348,3775.3807106598974,31.6950344467,34.5737182984,2021
2021-12-28,2021-12-28,"הקיקיון 13, אשקלון",הקיקיון 13,1942-153-18,דירה בבית קומות,4.0,חמישית,103.03,1280000,,,1995.0,,7.0,10980911430,1,1942153,False,,אשקלון,הקיקיון,,1942-153-18,1942/153,12423.565951664565,31.6670143665,34.5674459479,2021
2021-12-27,2021-12-27,"אלי כהן 38, אשקלון",אלי כהן 38,2508-27-2,חנות,,"קרקע, ראשונה",119.4,900000,,,2002.0,,8.0,10980182250,1,250827,False,,אשקלון,אלי כהן,,2508-27-2,2508/27,7537.688442211055,31.6690547743,34.5784980252,2021
2021-12-27,2021-12-27,"ניצנים 1, אשקלון",ניצנים 1,3020-6-31,דירה בבית קומות,3.0,רביעית,68.0,820000,,,1970.0,,4.0,10981672470,1,30206,False,,אשקלון,ניצנים,,3020-6-31,3020/6,12058.823529411764,31.655207419,34.5540961397,2021
2021-12-27,2021-12-27,"ההסתדרות 30, אשקלון",ההסתדרות 30,3019-19-6,דירה בבית קומות,3.0,שניה,58.2,261000,,,1970.0,,4.0,10982676510,1,301919,False,,אשקלון,ההסתדרות,,3019-19-6,3019/19,4484.5360824742265,31.655986627,34.5577383079,2021
2021-12-27,2021-12-27,"יונתן נתניהו 2, אשקלון",יונתן נתניהו 2,2556-16-37,דירה בבית קומות,5.0,תשיעית,134.65,1660000,,,2009.0,,13.0,10981691910,1,255616,False,83% ב 11.6 שנים,אשקלון,נתניהו יונתן,7.16,2556-16-37,2556/16,12328.2584478277,31.6897246031,34.5777787226,2021
2021-12-27,2021-12-27,"יעקב מרידור 12, אשקלון",יעקב מרידור 12,2904-102-9,דירה בבית קומות,5.0,קומה ‎3‏,128.6,1500000,,,2015.0,,10.0,10923351390,1,2904102,False,0% ב 2 שנים,אשקלון,מרידור יעקב,0.0,2904-102-9,2904/102,11664.07465007776,31.6811851771,34.5790726581,2021
2021-12-27,2021-12-27,"הטייסים 79, אשקלון",הטייסים 79,1941-110-96,דירה בבית קומות,2.0,שמינית,60.8,1080000,,,1995.0,,10.0,10980690930,1,1941110,False,13% ב 2.9 שנים,אשקלון,הטייסים,4.48,1941-110-96,1941/110,17763.157894736843,31.6759875217,34.5602576601,2021
2021-12-27,2021-12-27,"אשתאול 1, אשקלון",אשתאול 1,2869-28-165,דירה בבית קומות,4.0,שלוש עשרה,93.0,1620000,,,2000.0,,20.0,10980141390,1,286928,False,,אשקלון,אשתאול,,2869-28-165,2869/28,17419.354838709678,31.667375096,34.5578269375,2021
2021-12-26,2021-12-26,"טבריה 2, אשקלון",טבריה 2,2507-14-31,דירה בבית קומות,4.0,חמישית,87.4,1350000,,,1999.0,,10.0,10923512490,1,250714,False,56% ב 8.1 שנים,אשקלון,טבריה,6.91,2507-14-31,2507/14,15446.224256292906,31.6653335144,34.5747712462,2021
2021-12-26,2021-12-26,"איילון 1, אשקלון",איילון 1,1937-425-13,דירה בבית קומות,4.0,רביעית,107.9,1180000,,,1980.0,,6.0,10980652950,1,1937425,False,200% ב 15.5 שנים,אשקלון,איילון,12.9,1937-425-13,1937/425,10936.05189990732,31.6895803176,34.5716646619,2021
2021-12-26,2021-12-26,"אליעזר מילרוד 8, אשקלון",אליעזר מילרוד 8,1997-23-27,דירה בבית קומות,2.0,רביעית,35.9,453000,,,1960.0,,4.0,10982674890,1,199723,False,,אשקלון,מילרוד אליעזר,,1997-23-27,1997/23,12618.384401114206,31.651714702,34.561101223,2021
2021-12-26,2021-12-26,"אליעזר מילרוד 26, אשקלון",אליעזר מילרוד 26,1997-13-16,דירה בבית קומות,3.0,שלישית,38.7,720000,,,1970.0,,4.0,10980518580,1,199713,False,140% ב 6.5 שנים,אשקלון,מילרוד אליעזר,21.54,1997-13-16,1997/13,18604.65116279069,31.6503775589,34.5584427983,2021
2021-12-26,2021-12-26,"אשתאול 1, אשקלון",אשתאול 1,2869-28-164,,4.0,שלוש עשרה,93.0,16200000,1.0,High מול הים אשקלון,2000.0,,20.0,11181209214,1,286928,False,,אשקלון,אשתאול,,2869-28-164,2869/28,174193.5483870968,31.667375096,34.5578269375,2021
2021-12-26,2021-12-26,"הבוסתן 3, אשקלון",הבוסתן 3,2753-145-147,דירה בבית קומות,5.0,רביעית,132.55,1700000,,,2010.0,,11.0,10923341760,1,2753145,False,52% ב 10.5 שנים,אשקלון,קדש,4.95,2753-145-147,2753/145,12825.348924933984,31.6911827399,34.5780591139,2021
2021-12-26,2021-12-26,"יעקב מרידור 12, אשקלון",יעקב מרידור 12,2904-102-28,דירה בבית קומות,4.0,קומה ‎9‏,116.0,1525000,,,2015.0,,10.0,10923401160,1,2904102,False,,אשקלון,מרידור יעקב,,2904-102-28,2904/102,13146.551724137931,31.6811851771,34.5790726581,2021
2021-12-24,2021-12-24,"אצ""ל 46, אשקלון","אצ""ל 46",1934-108-8,דירה בבית קומות,5.0,ראשונה,109.0,1300000,,,1994.0,,9.0,10981859580,1,1934108,False,148% ב 18.4 שנים,אשקלון,"אצ""ל",8.04,1934-108-8,1934/108,11926.605504587156,31.6852679908,34.5779038546,2021
2021-12-24,2021-12-24,"גדוד הפורצים 10, אשקלון",גדוד הפורצים 10,1998-26-4,דירה בבית קומות,4.0,שניה,68.0,1070000,,,1970.0,,4.0,10923748830,1,199826,False,25% ב 3.2 שנים,אשקלון,גדוד הפורצים,7.81,1998-26-4,1998/26,15735.29411764706,31.6538004075,34.5574270194,2021
2021-12-24,2021-12-24,"ניסן 7, אשקלון",ניסן 7,1353-26-7,דירה בבית קומות,4.0,שלישית,81.1,1150000,,,1991.0,,3.0,10923398100,1,135326,False,33% ב 5.4 שנים,אשקלון,ניסן,6.11,1353-26-7,1353/26,14180.024660912455,31.672136208,34.581306891,2021
2021-12-24,2021-12-24,"גולני 11, אשקלון",גולני 11,1938-134-23,דירה בבית קומות,2.0,שמינית,42.0,780000,,,1997.0,,8.0,10923138990,1,1938134,False,,אשקלון,גולני,,1938-134-23,1938/134,18571.42857142857,31.6828118684,34.5610869889,2021
2021-12-23,2021-12-23,"פקיעין 6, אשקלון",פקיעין 6,2507-16-47,דירה בבית קומות,4.0,קרקע,96.5,1825000,,,1998.0,,7.0,10923051510,1,250716,False,206% ב 20.8 שנים,אשקלון,פקיעין,9.9,2507-16-47,2507/16,18911.9170984456,31.6653178419,34.5767048808,2021
2021-12-23,2021-12-23,"אברהם בלסבלג 10, אשקלון",אברהם בלסבלג 10,2556-18-60,דירה בבית קומות,5.0,שניה,127.25,1690000,,,2007.0,,15.0,10923210270,1,255618,False,39% ב 9 שנים,אשקלון,בלסבלג אברהם,4.33,2556-18-60,2556/18,13280.943025540277,31.6886398621,34.5774466841,2021
2021-12-23,2021-12-23,"חודשי השנה 13, אשקלון",חודשי השנה 13,2855-45-8,דירה בבית קומות,4.0,ראשונה,104.0,1400000,,,2015.0,,,10981796490,1,285545,False,,אשקלון,חודשי השנה,,2855-45-8,2855/45,13461.53846153846,31.6745165194,34.5768200324,2021
2021-12-23,2021-12-23,"הציונות 63, אשקלון",הציונות 63,2557-49-49,דירה בבית קומות,5.0,שלישית,119.44,1520000,,,2007.0,,9.0,10980514890,1,255749,False,117% ב 13.5 שנים,אשקלון,הציונות,8.67,2557-49-49,2557/49,12726.05492297388,31.687315494,34.5805544564,2021
2021-12-23,2021-12-23,"היין 15, אשקלון",היין 15,2754-11-48,דירה בבית קומות,4.0,קומה ‎4‏,111.8,1300000,,,2010.0,,10.0,10923121890,1,275411,False,42% ב 11 שנים,אשקלון,היין,3.82,2754-11-48,2754/11,11627.906976744189,31.6940164497,34.5806643522,2021
2021-12-23,2021-12-23,"משה קול 1, אשקלון",משה קול 1,2880-14-9,דירה בבית קומות,3.0,רביעית,70.0,1065000,,,1998.0,,2.0,10923316470,1,288014,False,,אשקלון,קול משה,,2880-14-9,2880/14,15214.285714285714,31.6704293242,34.5867532149,2021
2021-12-23,2021-12-23,"הטייסים 81, אשקלון",הטייסים 81,1941-111-184,דירה בבית קומות,5.0,תשיעית,146.72,2330000,,,2010.0,,10.0,10923205320,1,1941111,False,26% ב 5.2 שנים,אשקלון,הטייסים,5.0,1941-111-184,1941/111,15880.588876772084,31.6751537579,34.5595724786,2021
2021-12-23,2021-12-23,"אריה 14, אשקלון",אריה 14,1296-16-126,דירה בבית קומות,3.0,שמינית,63.3,960000,,,1990.0,,8.0,10980160110,1,129616,False,159% ב 11.5 שנים,אשקלון,אריה,13.83,1296-16-126,1296/16,15165.876777251186,31.6632713144,34.5775026085,2021
2021-12-22,2021-12-22,"יעקב מרידור 14, אשקלון",יעקב מרידור 14,2904-102-39,דירה בבית קומות,5.0,קומה ‎3‏,128.6,1780000,,,2015.0,,10.0,10922992830,1,2904102,False,,אשקלון,מרידור יעקב,,2904-102-39,2904/102,13841.368584758942,31.6811851771,34.5790726581,2021
2021-12-22,2021-12-22,,,2754-153-48,דירה בבית קומות,5.0,ראשונה,141.0,1945000,,,2017.0,,,10981685880,2,2754153,False,,אשקלון,ביכורי ענבים,,2754-153-48,2754/153,13794.326241134751,31.6914957347,34.5853479351,2021
2021-12-22,2021-12-22,"היין 15, אשקלון",היין 15,2754-11-37,דירה בבית קומות,5.0,קומה ‎1‏,133.4,1720000,,,2010.0,,10.0,10980921060,1,275411,False,8% ב 1 שנים,אשקלון,היין,8.0,2754-11-37,2754/11,12893.553223388306,31.6940164497,34.5806643522,2021
2021-12-22,2021-12-22,"אשתאול 1, אשקלון",אשתאול 1,2869-28-194,דירה בבית קומות,5.0,שמונה עשרה,123.0,2150000,,,2000.0,,20.0,10981536480,1,286928,False,,אשקלון,אשתאול,,2869-28-194,2869/28,17479.674796747968,31.667375096,34.5578269375,2021
2021-12-21,2021-12-21,"יואל 3, אשקלון",יואל 3,1654-33-1,דירה בבית קומות,3.0,קרקע,55.0,940000,,,1960.0,,1.0,10923047010,1,165433,False,1% ב 1.5 שנים,אשקלון,יואל,0.67,1654-33-1,1654/33,17090.909090909092,31.6595285788,34.577757504,2021
2021-12-21,2021-12-21,"היין 23, אשקלון",היין 23,2754-31-79,דירה בבית קומות,4.0,רביעית,111.8,1715000,,,2010.0,,9.0,10922844510,1,275431,False,58% ב 8.4 שנים,אשקלון,היין,6.9,2754-31-79,2754/31,15339.89266547406,31.694530764,34.5820562176,2021
2021-12-21,2021-12-21,"יונתן נתניהו 6, אשקלון",יונתן נתניהו 6,2556-14-5,דירה בבית קומות,5.0,ראשונה,124.8,1565000,,,2009.0,,14.0,10980005400,1,255614,False,84% ב 11.3 שנים,אשקלון,נתניהו יונתן,7.43,2556-14-5,2556/14,12540.064102564103,31.6889528319,34.5785167582,2021
2021-12-21,2021-12-21,"אברהם בלסבלג 12, אשקלון",אברהם בלסבלג 12,2556-17-59,דירה בבית קומות,5.0,שניה,128.1,1700000,,,2010.0,,13.0,10980208980,1,255617,False,69% ב 11.1 שנים,אשקלון,בלסבלג אברהם,6.22,2556-17-59,2556/17,13270.88212334114,31.6894534353,34.5771138991,2021
2021-12-21,2021-12-21,"שני אליהו 8, אשקלון",שני אליהו 8,3013-13-16,דירה בבית קומות,4.0,רביעית,79.8,172000,,,1970.0,,4.0,10981048770,1,301313,False,,אשקלון,שני אליהו,,3013-13-16,3013/13,2155.388471177945,31.6521864149,34.5532002067,2021
2021-12-21,2021-12-21,"ש""י עגנון 169, אשקלון","ש""י עגנון 169",1944-203-75,דירה בבית קומות,3.0,שלישית,68.4,1030000,,,1995.0,,9.0,10922664690,1,1944203,False,25% ב 4.9 שנים,אשקלון,"עגנון ש""י",5.1,1944-203-75,1944/203,15058.47953216374,31.6589316864,34.5565212091,2021
2021-12-21,2021-12-21,"הגבורה 1, אשקלון",הגבורה 1,1931-197-26,ללא תיכנון,,,735.0,2000000,,,0.0,,5.0,10981904130,1,1931197,False,,אשקלון,הגבורה,,1931-197-26,1931/197,2721.08843537415,31.6654536303,34.5629594324,2021
2021-12-20,2021-12-20,"הנוער העובד 11, אשקלון",הנוער העובד 11,2390-47-25,דירה בבית קומות,4.0,שביעית,72.8,217000,,,1990.0,,9.0,10923081930,1,239047,False,,אשקלון,הנוער העובד,,2390-47-25,2390/47,2980.769230769231,31.6612201561,34.5708418173,2021
2021-12-20,2021-12-20,,,2556-4-107,דירה בבית קומות,5.0,ארבע עשרה,133.0,2100000,,,2020.0,,,10923215400,2,25564,False,,אשקלון,בלפור,,2556-4-107,2556/4,15789.473684210529,31.6905337687,34.5769245426,2021
2021-12-20,2021-12-20,,,2556-4-180,דירה בבית קומות,4.0,שמינית,106.0,1780000,,,2021.0,,,10981293120,2,25564,False,,אשקלון,בלפור,,2556-4-180,2556/4,16792.45283018868,31.6905337687,34.5769245426,2021
2021-12-20,2021-12-20,"איילה 23, אשקלון",איילה 23,1296-12-33,דירה בבית קומות,4.0,ראשונה,80.0,1080000,,,1990.0,,4.0,10923005520,1,129612,False,162% ב 14 שנים,אשקלון,איילה,11.57,1296-12-33,1296/12,13500.0,31.6619842881,34.5752215428,2021
2021-12-20,2021-12-20,"איילה 7, אשקלון",איילה 7,1296-42-25,דירה בבית קומות,3.0,שביעית,75.0,1010000,,,1992.0,,8.0,10980724320,1,129642,False,,אשקלון,איילה,,1296-42-25,1296/42,13466.666666666666,31.6624106315,34.5794228872,2021
2021-12-20,2021-12-20,"הרב מנצור בן-שמעון 20, אשקלון",הרב מנצור בן-שמעון 20,2433-152-15,דירה בבית קומות,5.0,ראשונה,103.8,1600000,,,2009.0,,2.0,10922977890,1,2433152,False,131% ב 12.3 שנים,אשקלון,הרב מנצור בן שמעון,10.65,2433-152-15,2433/152,15414.258188824664,31.6588589042,34.5532282754,2021
2021-12-20,2021-12-20,"יפה נוף 25, אשקלון",יפה נוף 25,1938-445-3,חנות,,שניה,113.0,2614000,,,2019.0,,2.0,10981085130,1,1938445,False,,אשקלון,יפה נוף,,1938-445-3,1938/445,23132.743362831858,31.6808917694,34.5578122684,2021
2021-12-20,2021-12-20,"ישעיהו 27, אשקלון",ישעיהו 27,1654-24-1,קוטג' דו משפחתי,5.0,"מרתף,קרקע",148.0,2065000,,,1960.0,,,10980271350,1,165424,False,,אשקלון,ישעיהו,,1654-24-1,1654/24,13952.702702702703,31.6595426748,34.5801197978,2021
2021-12-20,2021-12-20,"הגבורה 1, אשקלון",הגבורה 1,1931-197-25,משרד,,חמישית,38.0,430000,,,2014.0,,5.0,10980157770,1,1931197,False,,אשקלון,הגבורה,,1931-197-25,1931/197,11315.78947368421,31.6654536303,34.5629594324,2021
2021-12-20,2021-12-20,"ההסתדרות 26, אשקלון",ההסתדרות 26,3019-17-9,דירה בבית קומות,3.0,שלישית,73.0,870000,,,1970.0,,4.0,10923188130,1,301917,False,50% ב 5.3 שנים,אשקלון,ההסתדרות,9.43,3019-17-9,3019/17,11917.80821917808,31.6565918184,34.5586789541,2021
2021-12-20,2021-12-20,"מגידו 6, אשקלון",מגידו 6,2507-12-2,דירה בבית קומות,3.0,קרקע,68.99,1270000,,,2000.0,,7.0,10981860300,1,250712,False,,אשקלון,מגידו,,2507-12-2,2507/12,18408.4649949268,31.6675204437,34.5759920671,2021
2021-12-19,2021-12-19,"אפרים צור 53, אשקלון",אפרים צור 53,1965-69-43,דירה בבית קומות,2.0,ראשונה,38.0,700000,,,1960.0,,3.0,10923519330,1,196569,False,,אשקלון,צור אפרים,,1965-69-43,1965/69,18421.052631578947,31.6535256446,34.5641019707,2021
2021-12-19,2021-12-19,"הנביאים 38, אשקלון",הנביאים 38,1653-21-1,דירה בבית קומות,4.0,קרקע,97.0,1375000,,,1950.0,,1.0,10923212610,1,165321,False,96% ב 8.1 שנים,אשקלון,הנביאים,11.85,1653-21-1,1653/21,14175.257731958764,31.6601624437,34.5826653936,2021
2021-12-19,2021-12-19,"ביאליק 45, אשקלון",ביאליק 45,1965-138-2,דירה בבית קומות,2.0,קרקע,45.0,350000,,,1960.0,,2.0,10923150240,1,1965138,False,,אשקלון,ביאליק,,1965-138-2,1965/138,7777.777777777777,31.6554130179,34.5637033317,2021
2021-12-19,2021-12-19,"שורשים 33, אשקלון",שורשים 33,2753-18-2,דירה בבית קומות,6.0,ראשונה,285.0,3900000,,,2009.0,,1.0,10980304830,1,275318,False,,אשקלון,שורשים,,2753-18-2,2753/18,13684.21052631579,31.6956723569,34.5811929411,2021
2021-12-19,2021-12-19,"יוספטל 9, אשקלון",יוספטל 9,1996-105-6,דירה בבית קומות,3.0,שניה,50.0,257000,,,1960.0,,3.0,10985413320,1,1996105,False,,אשקלון,יוספטל,,1996-105-6,1996/105,5140.0,31.6536753062,34.5620381812,2021
2021-12-19,2021-12-19,"גבע 3, אשקלון",גבע 3,2869-20-14,דירה בבית קומות,5.0,שלישית,113.3,1520000,,,2000.0,,8.0,10981497330,1,286920,False,188% ב 21.8 שנים,אשקלון,גבע,8.62,2869-20-14,2869/20,13415.710503089143,31.6687028871,34.5575261065,2021
2021-12-19,2021-12-19,"ההסתדרות 32, אשקלון",ההסתדרות 32,1998-93-5,דירה בבית קומות,3.0,שביעית,80.0,163000,,,1985.0,,4.0,10981045800,1,199893,False,,אשקלון,ההסתדרות,,1998-93-5,1998/93,2037.5,31.6559844462,34.5569565116,2021
2021-12-19,2021-12-19,"קדש 23, אשקלון",קדש 23,2556-2-48,דירה בבית קומות,4.0,שלישית,107.89,1420000,,,2010.0,,9.0,10981416420,1,25562,False,57% ב 8.6 שנים,אשקלון,קדש,6.63,2556-2-48,2556/2,13161.553434053203,31.6902651735,34.5785226356,2021
2021-12-19,2021-12-19,"מונטיפיורי 5, אשקלון",מונטיפיורי 5,2878-3-31,דירה בבית קומות,4.0,רביעית,80.0,930000,,,1970.0,,4.0,10922808690,1,28783,False,173% ב 6.5 שנים,אשקלון,מונטיפיורי,26.62,2878-3-31,2878/3,11625.0,31.6817967381,34.5752883164,2021
2021-12-19,2021-12-19,"מונטיפיורי 15, אשקלון",מונטיפיורי 15,2904-55-20,דירה בבית קומות,5.0,שישית,122.0,1959000,,,2020.0,,6.0,10922823630,1,290455,False,,אשקלון,מונטיפיורי,,2904-55-20,2904/55,16057.377049180328,31.681553392,34.577469074,2021
2021-12-19,2021-12-19,,,1225-6-151,דירה בבית קומות,4.0,תשיעית,113.0,1600000,,,2015.0,,,10981795140,2,12256,False,,אשקלון,לוחמי הגטאות,,1225-6-151,1225/6,14159.29203539823,,,2021
2021-12-19,2021-12-19,"אלי כהן 43, אשקלון",אלי כהן 43,1235-93-2,דירה בבית קומות,4.0,חמישית,93.0,1300000,,,2010.0,,3.0,10922515290,1,123593,False,,אשקלון,אלי כהן,,1235-93-2,1235/93,13978.494623655914,31.6696608596,34.5821400858,2021
2021-12-19,2021-12-19,"השומר הצעיר 3, אשקלון",השומר הצעיר 3,2391-15-11,דירה בבית קומות,3.0,שלישית,64.6,950000,,,1992.0,,9.0,10922560020,1,239115,False,21% ב 5.7 שנים,אשקלון,השומר הצעיר,3.68,2391-15-11,2391/15,14705.882352941178,31.656561616,34.5702839454,2021
2021-12-17,2021-12-17,"טבריה 2, אשקלון",טבריה 2,2507-14-49,דירה בבית קומות,4.0,שמינית,87.4,1320000,,,1999.0,,10.0,10922382540,1,250714,False,112% ב 12.3 שנים,אשקלון,טבריה,9.11,2507-14-49,2507/14,15102.974828375283,31.6653335144,34.5747712462,2021
2021-12-16,2021-12-16,"יהודה הלוי 5, אשקלון",יהודה הלוי 5,1964-101-9,דירה בבית קומות,2.0,ראשונה,39.0,620000,,,1960.0,,2.0,10923087150,1,1964101,False,12% ב 2.8 שנים,אשקלון,יהודה הלוי,4.29,1964-101-9,1964/101,15897.435897435897,31.6576030485,34.5657734166,2021
2021-12-16,2021-12-16,"ההסתדרות 28, אשקלון",ההסתדרות 28,3019-18-32,דירה בבית קומות,5.0,רביעית חמישית,95.0,1040000,,,1970.0,,5.0,10923888330,1,301918,False,30% ב 4 שנים,אשקלון,ההסתדרות,7.5,3019-18-32,3019/18,10947.368421052632,31.6563070349,34.5582152193,2021
2021-12-16,2021-12-16,,,2556-4-106,דירה בבית קומות,3.0,,108.0,1540000,,,2020.0,,,10923194790,2,25564,False,,אשקלון,בלפור,,2556-4-106,2556/4,14259.25925925926,31.6905337687,34.5769245426,2021
2021-12-16,2021-12-16,"ש""י עגנון 12, אשקלון","ש""י עגנון 12",3017-18-4,דירה בבית קומות,4.0,ראשונה,80.31,1000000,,,1970.0,,8.0,10980147510,1,301718,False,,אשקלון,"עגנון ש""י",,3017-18-4,3017/18,12451.749470800649,31.6591486005,34.5586197057,2021
2021-12-16,2021-12-16,"משה שרת 42, אשקלון",משה שרת 42,1934-117-19,דירה בבית קומות,4.0,חמישית,89.35,1360000,,,1995.0,,9.0,10923537150,1,1934117,False,23% ב 1.5 שנים,אשקלון,שרת משה,15.33,1934-117-19,1934/117,15221.040850587578,31.6835529972,34.5782299485,2021
2021-12-16,2021-12-16,"שלמה כהן 2, אשקלון",שלמה כהן 2,3062-25-53,דירה בבית קומות,3.0,ראשונה,88.0,1250000,,,2000.0,,7.0,10922308200,1,306225,False,,אשקלון,כהן שלמה,,3062-25-53,3062/25,14204.545454545454,31.6780922804,34.5761169432,2021
2021-12-16,2021-12-16,,,1225-1-112,דירה בבית קומות,4.0,חמישית,110.0,1475000,,,2017.0,,,10923828930,2,12251,False,,אשקלון,לוחמי הגטאות,,1225-1-112,1225/1,13409.09090909091,,,2021
2021-12-15,2021-12-15,"יעקב מרידור 11, אשקלון",יעקב מרידור 11,2904-81-32,דירה בבית קומות,4.0,קומה ‎2‏,103.0,1600000,,,2015.0,,10.0,10923531930,1,290481,False,61% ב 7.1 שנים,אשקלון,מרידור יעקב,8.59,2904-81-32,2904/81,15533.980582524273,31.680192209,34.5780865821,2021
2021-12-15,2021-12-15,"יוספטל 13, אשקלון",יוספטל 13,1996-51-8,דירה בבית קומות,4.0,שישית,75.0,750000,,,1995.0,,3.0,10922434380,1,199651,False,,אשקלון,יוספטל,,1996-51-8,1996/51,10000.0,31.6527276071,34.5614914117,2021
2021-12-15,2021-12-15,"הגבורה 1, אשקלון",הגבורה 1,1931-197-24,חנות,,ראשונה,,1000000,,,2014.0,,5.0,10980340470,1,1931197,False,,אשקלון,הגבורה,,1931-197-24,1931/197,,31.6654536303,34.5629594324,2021
2021-12-14,2021-12-14,"בלפור 10, אשקלון",בלפור 10,2556-17-14,דירה בבית קומות,5.0,שלישית,128.0,1670000,,,2009.0,,12.0,10922807250,1,255617,False,73% ב 11.2 שנים,אשקלון,בלפור,6.52,2556-17-14,2556/17,13046.875,31.6894534353,34.5771138991,2021
2021-12-14,2021-12-14,"כנפי נשרים 5, אשקלון",כנפי נשרים 5,3053-78-18,דירה בבית קומות,4.0,ראשונה,108.0,1411000,,,2010.0,,9.0,10923162840,1,305378,False,23% ב 6.5 שנים,אשקלון,כנפי נשרים,3.54,3053-78-18,3053/78,13064.814814814816,31.6766098816,34.5792767408,2021
2021-12-14,2021-12-14,"העבודה 7, אשקלון",העבודה 7,1995-4-19,דירה בבית קומות,3.0,ראשונה,51.9,219000,,,1970.0,,3.0,10980551970,1,19954,False,,אשקלון,העבודה,,1995-4-19,1995/4,4219.653179190752,31.6657070871,34.5917522832,2021
2021-12-13,2021-12-13,"אברהם בלסבלג 3, אשקלון",אברהם בלסבלג 3,2556-19-68,דירה בבית קומות,5.0,שמינית,115.48,1410000,,,2003.0,,10.0,10921763340,1,255619,False,98% ב 19.4 שנים,אשקלון,בלסבלג אברהם,5.05,2556-19-68,2556/19,12209.906477312088,31.6886710907,34.5766404682,2021
2021-12-13,2021-12-13,"אריה בן-אליעזר 7, אשקלון",אריה בן-אליעזר 7,1934-99-22,דירה בבית קומות,4.0,קומה ‎6‏,95.6,1235000,,,1992.0,,9.0,10923392970,1,193499,False,,אשקלון,בן אליעזר אריה,,1934-99-22,1934/99,12918.410041841003,31.6845577859,34.5766510602,2021
2021-12-13,2021-12-13,,,2556-4-105,דירה בבית קומות,5.0,שישית,134.0,1930000,,,2021.0,,,10980746550,2,25564,False,,אשקלון,בלפור,,2556-4-105,2556/4,14402.985074626866,31.6905337687,34.5769245426,2021
2021-12-13,2021-12-13,"הרב יעקב בן-חמו 30, אשקלון",הרב יעקב בן-חמו 30,1966-415-2,קוטג' חד משפחתי,5.0,ראשונה,279.0,4900000,,,2013.0,,,10921890960,1,1966415,False,,אשקלון,הרב בן חמו יעקב,,1966-415-2,1966/415,17562.724014336916,31.6957514159,34.5824321793,2021
2021-12-13,2021-12-13,,,3069-7-4,מגורים,,,8090.0,9801251000,,,,,,10980479250,2,30697,False,,אשקלון,בר-לב חיים,,3069-7-4,3069/7,1211526.6996291718,31.6325294851,34.5574286256,2021
2021-12-13,2021-12-13,"יורם ורון 4, אשקלון",יורם ורון 4,1942-183-84,חנות,,,160.0,2825000,,,2008.0,,10.0,10922433660,1,1942183,False,,אשקלון,ורון יורם,,1942-183-84,1942/183,17656.25,31.6680529916,34.5697984785,2021
2021-12-13,2021-12-13,"יעקב מרידור 8, אשקלון",יעקב מרידור 8,2904-32-122,דירה בבית קומות,4.0,קומה ‎6‏,92.7,1500000,,,2016.0,,10.0,10980884700,1,290432,False,33% ב 6.3 שנים,אשקלון,מרידור יעקב,5.24,2904-32-122,2904/32,16181.229773462785,31.6801457292,34.5794603934,2021
2021-12-12,2021-12-12,"אפרים צור 46, אשקלון",אפרים צור 46,1965-26-17,דירה בבית קומות,3.0,שלישית,38.7,685000,,,1970.0,,4.0,10981001970,1,196526,False,153% ב 11.5 שנים,אשקלון,צור אפרים,13.3,1965-26-17,1965/26,17700.258397932816,31.6539338589,34.563393721,2021
2021-12-12,2021-12-12,"בן-גוריון 11, אשקלון",בן-גוריון 11,2869-31-35,דירה בבית קומות,3.0,רביעית,85.0,1150000,,,2000.0,,10.0,10923251940,1,286931,False,,אשקלון,בן גוריון,,2869-31-35,2869/31,13529.411764705885,31.6666428624,34.5582958049,2021
2021-12-12,2021-12-12,"חיים ויצמן 3, אשקלון",חיים ויצמן 3,1118-28-1,קוטג' חד משפחתי,6.0,ראשונה,219.0,3540000,,,1997.0,,1.0,10921550130,1,111828,False,,אשקלון,ויצמן חיים,,1118-28-1,1118/28,16164.383561643835,31.6862741521,34.5815120245,2021
2021-12-12,2021-12-12,"הקיקיון 3, אשקלון",הקיקיון 3,1942-142-4,דירה בבית קומות,4.0,ראשונה,103.14,1310000,,,1993.0,,8.0,10923839280,1,1942142,False,,אשקלון,הקיקיון,,1942-142-4,1942/142,12701.18285825092,31.6683903356,34.5676468284,2021
2021-12-12,2021-12-12,"העונות 2, אשקלון",העונות 2,2856-42-77,דירה בבית קומות,3.0,תשיעית,67.5,1300000,,,2010.0,,10.0,10922986800,1,285642,False,146% ב 11.9 שנים,אשקלון,העונות,12.27,2856-42-77,2856/42,19259.25925925926,31.6703175696,34.5747589157,2021
2021-12-12,2021-12-12,"כנפי נשרים 5, אשקלון",כנפי נשרים 5,3053-78-63,דירה בבית קומות,5.0,שישית,132.2,2365000,,,2010.0,,9.0,10980310680,1,305378,False,,אשקלון,כנפי נשרים,,3053-78-63,3053/78,17889.561270801816,31.6766098816,34.5792767408,2021
2021-12-12,2021-12-12,,,2556-4-104,,5.0,שישית,133.0,1930000,1.0,ARIA,,,,11181207108,2,25564,False,,אשקלון,בלפור,,2556-4-104,2556/4,14511.27819548872,31.6905337687,34.5769245426,2021
2021-12-11,2021-11-12,"הגת 9, אשקלון",הגת 9,2753-152-13,דירה בבית קומות,4.0,רביעית,101.05,1500000,,,2010.0,,10.0,10918410750,1,2753152,False,19% ב 4.5 שנים,אשקלון,הגת,4.22,2753-152-13,2753/152,14844.136566056408,31.6926305274,34.5786636002,2021
2021-12-11,2021-11-12,,,1936-206-1,ללא תיכנון,,,600.0,3600000,,,,,,10921337730,2,1936206,False,,אשקלון,הרב בוזגלו דוד,,1936-206-1,1936/206,6000.0,31.6955461479,34.573188221,2021
2021-12-11,2021-11-12,"שני אליהו 4, אשקלון",שני אליהו 4,3013-11-12,דירה בבית קומות,4.0,שלישית,84.1,850000,,,1970.0,,4.0,10919318130,1,301311,False,,אשקלון,שני אליהו,,3013-11-12,3013/11,10107.015457788348,31.6526938884,34.5542522246,2021
2021-12-10,2021-10-12,"נווה שלום 24, אשקלון",נווה שלום 24,1297-8-60,דירה בבית קומות,4.0,שישית,70.9,977000,,,1992.0,,9.0,10916045190,1,12978,False,16% ב 6.1 שנים,אשקלון,נווה שלום,2.62,1297-8-60,1297/8,13779.971791255288,31.6625982037,34.5802016579,2021
2021-12-10,2021-10-12,,,2556-4-97,דירה בבית קומות,4.0,רביעית,108.0,1660000,,,2021.0,,,10917120330,2,25564,False,,אשקלון,בלפור,,2556-4-97,2556/4,15370.37037037037,31.6905337687,34.5769245426,2021
2021-12-10,2021-10-12,"מונטיפיורי 15, אשקלון",מונטיפיורי 15,2904-55-99,דירה בבית קומות,4.0,אחת עשרה,102.0,1683000,,,2020.0,,6.0,10915317630,1,290455,False,,אשקלון,מונטיפיורי,,2904-55-99,2904/55,16500.0,31.681553392,34.577469074,2021
2021-12-10,2021-10-12,"הטייסים 75, אשקלון",הטייסים 75,1941-109-7,דירה בבית קומות,4.0,שניה,92.1,1370000,,,2005.0,,10.0,10915283610,1,1941109,False,128% ב 13.2 שנים,אשקלון,הטייסים,9.7,1941-109-7,1941/109,14875.13572204126,31.6764766656,34.5606701547,2021
2021-12-10,2021-10-12,"הרב יעקב בן-חמו 1, אשקלון",הרב יעקב בן-חמו 1,1966-25-4,דירה בבית קומות,6.0,ראשונה,230.0,5000000,,,2012.0,,1.0,10915180200,1,196625,False,,אשקלון,הרב בן חמו יעקב,,1966-25-4,1966/25,21739.130434782608,31.6967727831,34.5824383729,2021
2021-12-10,2021-10-12,"ש""י עגנון 169, אשקלון","ש""י עגנון 169",1944-203-71,דירה בבית קומות,3.0,שניה,67.1,984000,,,1995.0,,9.0,10915382160,1,1944203,False,89% ב 8.7 שנים,אשקלון,"עגנון ש""י",10.23,1944-203-71,1944/203,14664.679582712371,31.6589316864,34.5565212091,2021
2021-12-10,2021-10-12,"יפה נוף 4, אשקלון",יפה נוף 4,1940-69-85,דירה בבית קומות,5.0,קומה ‎3‏,97.3,2350000,,,2013.0,,14.0,10915348770,1,194069,False,43% ב 7.3 שנים,אשקלון,יפה נוף,5.89,1940-69-85,1940/69,24152.106885919835,31.6777094006,34.5566319839,2021
2021-12-10,2021-10-12,"הפלמ""ח 14, אשקלון","הפלמ""ח 14",1228-96-104,דירה בבית קומות,3.0,קומה ‎3‏,68.3,1110000,,,1998.0,,9.0,10916007390,1,122896,False,,אשקלון,"הפלמ""ח",,1228-96-104,1228/96,16251.830161054171,31.6642210799,34.5835160995,2021
2021-12-10,2021-10-12,,,2556-4-98,דירה בבית קומות,4.0,שמינית,108.0,1740000,,,2021.0,,,10917773010,2,25564,False,,אשקלון,בלפור,,2556-4-98,2556/4,16111.111111111111,31.6905337687,34.5769245426,2021
2021-12-10,2021-10-12,"שיבת ציון 79, אשקלון",שיבת ציון 79,1654-93-1,דירה בבית קומות,5.0,ראשונה,127.0,2700000,,,2014.0,,1.0,10916968950,1,165493,False,,אשקלון,שיבת ציון,,1654-93-1,1654/93,21259.84251968504,31.6578289264,34.5789126579,2021
2021-12-09,2021-09-12,"בר-כוכבא 5, אשקלון",בר-כוכבא 5,2872-120-14,דירה בבית קומות,4.0,רביעית,77.0,850000,,,1970.0,,4.0,10915146000,1,2872120,False,25% ב 6.4 שנים,אשקלון,בר כוכבא,3.91,2872-120-14,2872/120,11038.96103896104,31.6799591973,34.572441922,2021
2021-12-09,2021-09-12,"גבע 2, אשקלון",גבע 2,2869-21-12,דירה בבית קומות,3.0,ראשונה,97.0,750000,,,2015.0,,8.0,10913546700,1,286921,False,,אשקלון,גבע,,2869-21-12,2869/21,7731.958762886598,31.6679184514,34.5576730093,2021
2021-12-09,2021-09-12,"נווה שלום 19, אשקלון",נווה שלום 19,1296-18-44,דירה בבית קומות,3.0,שניה,69.6,970000,,,1992.0,,9.0,10913914260,1,129618,True,-3% ב 0.2 שנים,אשקלון,נווה שלום,-15.0,1296-18-44,1296/18,13936.781609195405,31.6631593516,34.5792806678,2021
2021-12-09,2021-09-12,"חודשי השנה 2, אשקלון",חודשי השנה 2,2856-29-47,דירה בבית קומות,4.0,שלישית,108.93,1490000,,,2011.0,,9.0,10913260770,1,285629,False,4% ב 3.5 שנים,אשקלון,חודשי השנה,1.14,2856-29-47,2856/29,13678.509134306434,31.6717735459,34.5755624145,2021
2021-12-09,2021-09-12,"הטייסים 43, אשקלון",הטייסים 43,2870-104-1,דירה בבית קומות,7.0,ראשונה,213.0,2350000,,,1970.0,,1.0,10913031450,1,2870104,False,,אשקלון,הטייסים,,2870-104-1,2870/104,11032.863849765256,31.6801323414,34.5632457244,2021
2021-12-09,2021-09-12,"היין 15, אשקלון",היין 15,2754-11-45,דירה בבית קומות,5.0,קומה ‎3‏,133.9,1640000,,,2010.0,,10.0,10913499090,1,275411,False,60% ב 10.8 שנים,אשקלון,היין,5.56,2754-11-45,2754/11,12247.946228528752,31.6940164497,34.5806643522,2021
2021-12-09,2021-09-12,"אופירה נבון 9, אשקלון",אופירה נבון 9,2557-6-7,דירה בבית קומות,5.0,שניה,127.4,1470000,,,2007.0,,7.0,10912946850,1,25576,False,40% ב 9.5 שנים,אשקלון,נבון אופירה,4.21,2557-6-7,2557/6,11538.461538461535,31.6879089188,34.5816163817,2021
2021-12-09,2021-09-12,"חובבי ציון 5, אשקלון",חובבי ציון 5,1998-57-9,דירה בבית קומות,4.0,שלישית,77.1,900000,,,1980.0,,7.0,10913422590,1,199857,False,,אשקלון,חובבי ציון,,1998-57-9,1998/57,11673.151750972764,31.6546804689,34.5576703157,2021
2021-12-09,2021-09-12,,,1935-83-2,קרקע למגורים,,,600.0,2470000,,,,,,10913955750,2,193583,False,,אשקלון,ישפה,,1935-83-2,1935/83,4116.666666666667,31.6927674964,34.5745397012,2021
2021-12-08,2021-08-12,"כפר דרום 9, אשקלון",כפר דרום 9,1966-412-2,קוטג' חד משפחתי,5.0,ראשונה,200.0,4100000,,,2013.0,,1.0,10910261700,1,1966412,False,,אשקלון,כפר דרום,,1966-412-2,1966/412,20500.0,31.6966764865,34.580304466,2021
2021-12-08,2021-08-12,"ברייר דב 1, אשקלון",ברייר דב 1,1942-177-116,דירה בבית קומות,4.0,שישית,88.0,1210000,,,2000.0,,9.0,10910344230,1,1942177,False,,אשקלון,ברייר דב,,1942-177-116,1942/177,13750.0,31.6694499419,34.5675342214,2021
2021-12-08,2021-08-12,"מרדכי אנילביץ 438, אשקלון",מרדכי אנילביץ 438,1996-84-7,דירה בבית קומות,3.0,ראשונה,63.5,770000,,,1970.0,,3.0,10911100860,1,199684,False,86% ב 10.5 שנים,אשקלון,אנילביץ מרדכי,8.19,1996-84-7,1996/84,12125.984251968504,31.6531561681,34.5603135187,2021
2021-12-08,2021-08-12,"פקיעין 6, אשקלון",פקיעין 6,2507-16-64,דירת גן,4.0,קרקע,81.2,1500000,,,1998.0,,7.0,10923125580,1,250716,False,44% ב 6.9 שנים,אשקלון,פקיעין,6.38,2507-16-64,2507/16,18472.906403940888,31.6653178419,34.5767048808,2021
2021-12-08,2021-08-12,"שלמה כהן 6, אשקלון",שלמה כהן 6,3062-21-16,דירה בבית קומות,4.0,קומה ‎4‏,90.7,1300000,,,2004.0,,10.0,10910360610,1,306221,False,46% ב 7.8 שנים,אשקלון,כהן שלמה,5.9,3062-21-16,3062/21,14332.965821389194,31.6786969715,34.5771789743,2021
2021-12-08,2021-08-12,"מונטיפיורי 15, אשקלון",מונטיפיורי 15,2904-55-13,דירה בבית קומות,4.0,שניה,102.0,1570785,1.0,,2020.0,,6.0,10910213640,1,290455,False,,אשקלון,מונטיפיורי,,2904-55-13,2904/55,15399.85294117647,31.681553392,34.577469074,2021
2021-12-08,2021-08-12,"העונות 2, אשקלון",העונות 2,2856-42-75,דירה בבית קומות,3.0,תשיעית,67.5,1190000,,,2010.0,,10.0,10912461210,1,285642,False,48% ב 6.5 שנים,אשקלון,העונות,7.38,2856-42-75,2856/42,17629.62962962963,31.6703175696,34.5747589157,2021
2021-12-08,2021-08-12,"אריה בן-אליעזר 13, אשקלון",אריה בן-אליעזר 13,1934-102-19,דירה בבית קומות,4.0,רביעית,95.2,1120000,,,1990.0,,9.0,10910672460,1,1934102,False,,אשקלון,בן אליעזר אריה,,1934-102-19,1934/102,11764.70588235294,31.6844016014,34.5756679587,2021
2021-12-08,2021-08-12,"שילה 1, אשקלון",שילה 1,2869-8-43,דירה בבית קומות,4.0,אחת עשרה,85.0,1110000,,,2000.0,,13.0,10912717350,1,28698,False,,אשקלון,שילה,,2869-8-43,2869/8,13058.823529411764,31.6698945024,34.5563490531,2021
2021-12-08,2021-08-12,"יוספטל 9, אשקלון",יוספטל 9,1996-105-10,דירה בבית קומות,3.0,קרקע,50.0,975000,,,1960.0,,3.0,10911984390,1,1996105,False,29% ב 2.6 שנים,אשקלון,יוספטל,11.15,1996-105-10,1996/105,19500.0,31.6536753062,34.5620381812,2021
2021-12-08,2021-08-12,"מונטיפיורי 15, אשקלון",מונטיפיורי 15,2904-55-14,דירה בבית קומות,4.0,שישית,102.0,1619850,1.0,,2020.0,,6.0,10910249280,1,290455,False,,אשקלון,מונטיפיורי,,2904-55-14,2904/55,15880.882352941177,31.681553392,34.577469074,2021
2021-12-08,2021-08-12,"הנמל 3, אשקלון",הנמל 3,1938-424-21,דירה בבית קומות,3.0,רביעית,68.0,1340000,,,2021.0,,19.0,10910730420,1,1938424,False,,אשקלון,הנמל,,1938-424-21,1938/424,19705.88235294117,31.6796327421,34.5566676609,2021
2021-12-08,2021-08-12,"חודשי השנה 5, אשקלון",חודשי השנה 5,2856-26-17,דירה בבית קומות,5.0,שלישית,118.5,1400000,,,2011.0,,9.0,10910887740,1,285626,False,57% ב 8.4 שנים,אשקלון,חודשי השנה,6.79,2856-26-17,2856/26,11814.345991561182,31.6729481071,34.5754920284,2021
2021-12-08,2021-08-12,"הגת 23, אשקלון",הגת 23,2753-154-92,דירה בבית קומות,4.0,שביעית,,1620000,,,2018.0,,9.0,10911487050,1,2753154,False,,אשקלון,הגת,,2753-154-92,2753/154,,31.6915570022,34.5802818088,2021
2021-12-08,2021-08-12,"הנוער העובד 1, אשקלון",הנוער העובד 1,2390-54-11,דירה בבית קומות,4.0,שלישית,81.0,1060000,,,1993.0,,9.0,10910247120,1,239054,False,68% ב 7.8 שנים,אשקלון,הנוער העובד,8.72,2390-54-11,2390/54,13086.41975308642,31.6593631047,34.572327936,2021
2021-12-05,2021-05-12,,,1966-406-12,בית בודד,6.0,ראשונה,614.0,3890000,,,2017.0,,,10904053680,2,1966406,False,,אשקלון,אדלר חנה,,1966-406-12,1966/406,6335.504885993485,31.6968664146,34.5844835794,2021
2021-12-04,2021-04-12,"דוד רזיאל 18, אשקלון",דוד רזיאל 18,2383-43-6,דירה בבית קומות,3.0,קרקע וראשונה,69.5,750000,,,1980.0,,3.0,10898924580,1,238343,False,63% ב 8.9 שנים,אשקלון,רזיאל דוד,7.08,2383-43-6,2383/43,10791.36690647482,31.6685168407,34.5945781139,2021
2021-12-04,2021-04-12,"הקיקיון 7, אשקלון",הקיקיון 7,1942-146-9,דירה בבית קומות,4.0,שלישית,86.83,1000000,,,1990.0,,6.0,10898674380,1,1942146,True,-11% ב 3.6 שנים,אשקלון,הקיקיון,-3.06,1942-146-9,1942/146,11516.756881262238,31.6678207394,34.566938561,2021
2021-12-04,2021-04-12,"הציונות 2, אשקלון",הציונות 2,2904-102-60,דירה בבית קומות,4.0,קומה ‎1‏,102.7,1335000,,,2013.0,,10.0,10899453870,1,2904102,False,,אשקלון,הציונות,,2904-102-60,2904/102,12999.02629016553,31.6811851771,34.5790726581,2021
2021-12-04,2021-04-12,"טבריה 4, אשקלון",טבריה 4,2507-15-69,דירה בבית קומות,4.0,שביעית + שמינית,82.8,1170000,,,2002.0,,8.0,10899207450,1,250715,False,131% ב 17.5 שנים,אשקלון,טבריה,7.49,2507-15-69,2507/15,14130.434782608696,31.6652295011,34.5755759897,2021
2021-12-04,2021-04-12,"יהודה הלוי 3, אשקלון",יהודה הלוי 3,1964-102-14,דירה בבית קומות,3.0,קרקע,46.0,690000,,,1960.0,,2.0,10899121410,1,1964102,False,,אשקלון,יהודה הלוי,,1964-102-14,1964/102,15000.0,31.6574291487,34.565886808,2021
2021-12-04,2021-04-12,"האילן 261, אשקלון",האילן 261,1942-161-71,דירה בבית קומות,5.0,שישית,121.9,1665000,,,2016.0,,10.0,10900115550,1,1942161,False,15% ב 5 שנים,אשקלון,האילן,3.0,1942-161-71,1942/161,13658.736669401149,31.6670601433,34.5638593674,2021
2021-12-04,2021-04-12,"יוספטל 25, אשקלון",יוספטל 25,1997-103-7,דירה בבית קומות,4.0,רביעית,78.6,727000,,,1970.0,,4.0,10898810370,1,1997103,False,65% ב 6.7 שנים,אשקלון,יוספטל,9.7,1997-103-7,1997/103,9249.363867684478,31.6506073075,34.5570070426,2021
2021-12-04,2021-04-12,"חביב אבשלום 1, אשקלון",חביב אבשלום 1,3013-5-13,דירה בבית קומות,3.0,רביעית,63.0,700000,,,1970.0,,4.0,10898853300,1,30135,False,,אשקלון,חביב אבשלום,,3013-5-13,3013/5,11111.111111111111,31.6543240536,34.5536780502,2021
2021-12-04,2021-04-12,"הצופים 13, אשקלון",הצופים 13,2390-53-7,דירה בבית קומות,4.0,שניה,84.7,1040000,,,1996.0,,6.0,10898700390,1,239053,False,,אשקלון,הצופים,,2390-53-7,2390/53,12278.63046044864,31.6594642137,34.5717817778,2021
2021-12-04,2021-04-12,"יונתן נתניהו 6, אשקלון",יונתן נתניהו 6,2556-14-44,דירה בבית קומות,5.0,אחת עשרה,127.86,1650000,,,2009.0,,14.0,10899008370,1,255614,False,13% ב 5.5 שנים,אשקלון,נתניהו יונתן,2.36,2556-14-44,2556/14,12904.73955889254,31.6889528319,34.5785167582,2021
2021-12-04,2021-04-12,"יונתן נתניהו 8, אשקלון",יונתן נתניהו 8,2556-14-89,דירה בבית קומות,5.0,שמינית,124.64,1590000,,,2009.0,,14.0,10899115290,1,255614,False,65% ב 9 שנים,אשקלון,נתניהו יונתן,7.22,2556-14-89,2556/14,12756.739409499358,31.6889528319,34.5785167582,2021
2021-12-04,2021-04-12,"אצ""ל 40, אשקלון","אצ""ל 40",1934-93-21,דירה בבית קומות,4.0,שישית,87.2,1080000,,,1990.0,,8.0,10898805240,1,193493,False,205% ב 16.7 שנים,אשקלון,"אצ""ל",12.28,1934-93-21,1934/93,12385.32110091743,31.685591288,34.5768768716,2021
2021-12-04,2021-04-12,"בר-כוכבא 9, אשקלון",בר-כוכבא 9,2872-117-32,דירה בבית קומות,4.0,שמינית,79.0,870000,,,1970.0,,8.0,10900610910,1,2872117,False,,אשקלון,בר כוכבא,,2872-117-32,2872/117,11012.658227848102,31.6801026249,34.5718112078,2021
2021-12-03,2021-03-12,"מונטיפיורי 15, אשקלון",מונטיפיורי 15,2904-55-133,דירה בבית קומות,4.0,ראשונה,100.0,1485000,,,2020.0,,6.0,10896215220,1,290455,False,,אשקלון,מונטיפיורי,,2904-55-133,2904/55,14850.0,31.681553392,34.577469074,2021
2021-12-03,2021-03-12,"קרן היסוד 20, אשקלון",קרן היסוד 20,2391-67-17,דירה בבית קומות,3.0,שלישית,61.35,870000,,,1995.0,,3.0,10896183360,1,239167,True,-2% ב 3 שנים,אשקלון,קרן היסוד,-0.67,2391-67-17,2391/67,14180.929095354522,31.6576974891,34.5699528398,2021
2021-12-02,2021-02-12,"הציונות 79, אשקלון",הציונות 79,2754-47-121,דירה בבית קומות,5.0,קומה ‎4‏,119.5,1600000,,,2016.0,,16.0,10895248530,1,275447,False,10% ב 4.5 שנים,אשקלון,הציונות,2.22,2754-47-121,2754/47,13389.121338912131,31.6916039526,34.5823004133,2021
2021-12-02,2021-02-12,"ירושלים 145, אשקלון",ירושלים 145,1935-188-14,דירה בבית קומות,4.0,שלישית,93.0,1270000,,,2006.0,,5.0,10894613580,1,1935188,False,12% ב 5.8 שנים,אשקלון,ירושלים,2.07,1935-188-14,1935/188,13655.913978494624,31.6964536928,34.5773872813,2021
2021-12-02,2021-02-12,"אצ""ל 43, אשקלון","אצ""ל 43",2556-12-26,דירה בבית קומות,4.0,קומה ‎7‏,120.1,1200000,,,1998.0,,10.0,10893703410,1,255612,False,6% ב 4.5 שנים,אשקלון,"אצ""ל",1.33,2556-12-26,2556/12,9991.673605328891,31.6860846527,34.5771364466,2021
2021-12-01,2021-01-12,,,2556-4-211,דירה בבית קומות,3.0,שניה,104.0,1360000,,,2020.0,,,10893266730,2,25564,False,,אשקלון,בלפור,,2556-4-211,2556/4,13076.923076923076,31.6905337687,34.5769245426,2021
2021-12-01,2021-01-12,"הר כנען 15, אשקלון",הר כנען 15,1934-224-16,דירה בבית קומות,4.0,רביעית,76.0,925000,,,1980.0,,6.0,10893213270,1,1934224,False,27% ב 8.9 שנים,אשקלון,הר כנען,3.03,1934-224-16,1934/224,12171.052631578948,31.6833717206,34.5762925869,2021
2021-12-01,2021-01-12,"איילה 1, אשקלון",איילה 1,1297-10-16,דירה בבית קומות,4.0,רביעית,85.35,1050000,,,1990.0,,6.0,10893334320,1,129710,False,,אשקלון,איילה,,1297-10-16,1297/10,12302.284710017577,31.662302171,34.5810779604,2021
2021-12-01,2021-01-12,"השריונאים 4, אשקלון",השריונאים 4,2870-35-1,דירה בבית קומות,6.0,ראשונה,168.0,3092000,,,1994.0,,1.0,10891737090,1,287035,False,,אשקלון,השריונאים,,2870-35-1,2870/35,18404.761904761905,31.6804654349,34.5624884929,2021
2021-11-30,2021-11-30,"החבצלת 85, אשקלון",החבצלת 85,1959-87-1,דירת גן,4.0,ראשונה,71.4,3190000,,,1970.0,,1.0,10920893670,1,195987,False,127% ב 13 שנים,אשקלון,החבצלת,9.77,1959-87-1,1959/87,44677.87114845938,31.6792707166,34.569812677,2021
2021-11-30,2021-11-30,"אצ""ל 47, אשקלון","אצ""ל 47",2556-13-22,דירה בבית קומות,4.0,שישית,82.71,1345000,,,1998.0,,9.0,10920851460,1,255613,False,47% ב 6.9 שנים,אשקלון,"אצ""ל",6.81,2556-13-22,2556/13,16261.63704509733,31.6858987233,34.5779397187,2021
2021-11-30,2021-11-30,"רחבעם זאבי 14, אשקלון",רחבעם זאבי 14,1935-188-49,דירה בבית קומות,5.0,ראשונה,108.0,1530000,,,2008.0,,5.0,10920889260,1,1935188,False,104% ב 13.5 שנים,אשקלון,זאבי רחבעם,7.7,1935-188-49,1935/188,14166.666666666666,31.6964536928,34.5773872813,2021
2021-11-30,2021-11-30,"משה שרת 30, אשקלון",משה שרת 30,1934-110-30,דירה בבית קומות,5.0,שביעית,94.6,1300000,,,1995.0,,8.0,10921995630,1,1934110,False,162% ב 13.9 שנים,אשקלון,שרת משה,11.65,1934-110-30,1934/110,13742.071881606766,31.6849502299,34.5775592578,2021
2021-11-30,2021-11-30,"מונטיפיורי 15, אשקלון",מונטיפיורי 15,2904-55-76,דירה בבית קומות,5.0,תשיעית,123.0,2026000,,,2020.0,,6.0,10920533490,1,290455,False,,אשקלון,מונטיפיורי,,2904-55-76,2904/55,16471.544715447155,31.681553392,34.577469074,2021
2021-11-30,2021-11-30,"נווה שלום 25, אשקלון",נווה שלום 25,1297-7-40,דירה בבית קומות,4.0,ראשונה,80.0,1100000,,,1995.0,,9.0,10920317490,1,12977,False,10% ב 3 שנים,אשקלון,נווה שלום,3.33,1297-7-40,1297/7,13750.0,31.6632556324,34.5810585914,2021
2021-11-30,2021-11-30,"בלפור 9, אשקלון",בלפור 9,2556-8-4,דירה בבית קומות,5.0,מרתף שני,114.4,1780000,,,1999.0,,4.0,10920541050,1,25568,False,53% ב 10.8 שנים,אשקלון,בלפור,4.91,2556-8-4,2556/8,15559.440559440558,31.6879944707,34.5756475044,2021
2021-11-30,2021-11-30,"אשתאול 1, אשקלון",אשתאול 1,2869-28-196,דירה בבית קומות,4.0,חמישית,100.0,1400000,,,2000.0,,20.0,10920380580,1,286928,False,,אשקלון,אשתאול,,2869-28-196,2869/28,14000.0,31.667375096,34.5578269375,2021
2021-11-30,2021-11-30,"עלי 9, אשקלון",עלי 9,1466-67-24,דירה,4.0,,108.0,1325000,1.0,פרירון עלית,2022.0,,7.0,11181188958,1,146667,False,,אשקלון,עלי,,1466-67-24,1466/67,12268.518518518518,31.6553153096,34.5760735728,2021
2021-11-30,2021-11-30,"העבודה 9, אשקלון",העבודה 9,1995-3-30,דירה בבית קומות,4.0,שלישית,84.0,760000,,,1970.0,,3.0,10920699090,1,19953,False,49% ב 8.5 שנים,אשקלון,העבודה,5.76,1995-3-30,1995/3,9047.619047619048,31.6660782987,34.5912101573,2021
2021-11-29,2021-11-29,"מודיעין 5, אשקלון",מודיעין 5,1940-68-155,דירה בבית קומות,5.0,ארבע עשרה,149.0,2547000,,,2021.0,,16.0,10920668040,1,194068,False,,אשקלון,מודיעין,,1940-68-155,1940/68,17093.959731543626,31.6775411974,34.5579888036,2021
2021-11-29,2021-11-29,"הדרור 12, אשקלון",הדרור 12,1958-55-2,דירה בבית קומות,5.0,ראשונה,82.8,2653000,,,1960.0,,1.0,10920157830,1,195855,False,237% ב 14 שנים,אשקלון,הדרור,16.93,1958-55-2,1958/55,32041.062801932367,31.671618195,34.561885867,2021
2021-11-29,2021-11-29,,,1225-6-154,דירה בבית קומות,4.0,שניה,121.0,1450000,,,2013.0,,,10920894390,2,12256,False,,אשקלון,לוחמי הגטאות,,1225-6-154,1225/6,11983.471074380166,,,2021
2021-11-28,2021-11-28,"יפתח הגלעדי 17, אשקלון",יפתח הגלעדי 17,1933-53-2,חנות,,ראשונה,,200000,,,1960.0,,,10923582420,1,193353,False,,אשקלון,יפתח הגלעדי,,1933-53-2,1933/53,,31.6831089043,34.5711321497,2021
2021-11-28,2021-11-28,,,2556-4-181,דירה בבית קומות,5.0,שש עשרה,134.0,2000000,,,2021.0,,,10923182100,2,25564,False,,אשקלון,בלפור,,2556-4-181,2556/4,14925.373134328358,31.6905337687,34.5769245426,2021
2021-11-28,2021-11-28,"המעיין 3, אשקלון",המעיין 3,1936-233-2,דירה בבית קומות,6.0,שלישית,488.0,4700000,,,2014.0,,1.0,10923163560,1,1936233,False,,אשקלון,המעיין,,1936-233-2,1936/233,9631.147540983606,31.6950469902,34.5713957341,2021
2021-11-28,2021-11-28,"בר-כוכבא 33, אשקלון",בר-כוכבא 33,2871-98-41,דירה בבית קומות,3.0,ראשונה,69.0,950000,,,1970.0,,5.0,10921734990,1,287198,False,,אשקלון,בר כוכבא,,2871-98-41,2871/98,13768.115942028986,31.6831667884,34.568324288,2021
2021-11-28,2021-11-28,"משה יוליש 8, אשקלון",משה יוליש 8,3019-10-18,דירה בבית קומות,3.0,חמישית,68.7,845000,,,1970.0,,8.0,10920007890,1,301910,False,,אשקלון,יוליש משה,,3019-10-18,3019/10,12299.854439592433,31.6569052524,34.5552342884,2021
2021-11-28,2021-11-28,"אשתאול 4, אשקלון",אשתאול 4,2869-33-39,דירה בבית קומות,3.0,שמינית,68.6,1130000,,,2000.0,,8.0,10921500990,1,286933,False,14% ב 2.6 שנים,אשקלון,אשתאול,5.38,2869-33-39,2869/33,16472.303206997087,31.6669912863,34.5586116365,2021
2021-11-27,2021-11-27,"מונטיפיורי 14, אשקלון",מונטיפיורי 14,2878-5-23,דירה בבית קומות,4.0,שניה,80.0,1050000,,,1970.0,,4.0,10919923200,1,28785,False,157% ב 22 שנים,אשקלון,מונטיפיורי,7.14,2878-5-23,2878/5,13125.0,31.6811894141,34.5757110842,2021
2021-11-26,2021-11-26,"ז'בוטינסקי 12, אשקלון",ז'בוטינסקי 12,1996-82-30,דירה בבית קומות,4.0,שלישית,67.2,720000,,,1970.0,,3.0,10923511770,1,199682,False,,אשקלון,ז'בוטינסקי,,1996-82-30,1996/82,10714.285714285714,31.6537245914,34.5599229782,2021
2021-11-26,2021-11-26,"ז'בוטינסקי 2, אשקלון",ז'בוטינסקי 2,1996-18-18,דירה בבית קומות,3.0,שלישית,34.8,695000,,,1960.0,,3.0,10980799290,1,199618,False,39% ב 5.9 שנים,אשקלון,ז'בוטינסקי,6.61,1996-18-18,1996/18,19971.264367816093,31.6559077026,34.5605837773,2021
2021-11-26,2021-11-26,"ז'בוטינסקי 9, אשקלון",ז'בוטינסקי 9,1996-155-21,דירה בבית קומות,3.0,שניה,66.1,1150000,,,1970.0,,3.0,10923906150,1,1996155,False,72% ב 2.8 שנים,אשקלון,ז'בוטינסקי,25.71,1996-155-21,1996/155,17397.881996974284,31.6545687867,34.5613048694,2021
2021-11-26,2021-11-26,"הקיקיון 8, אשקלון",הקיקיון 8,1942-101-9,דירה בבית קומות,3.0,שניה,51.8,980000,,,1970.0,,3.0,10923269760,1,1942101,False,,אשקלון,הקיקיון,,1942-101-9,1942/101,18918.91891891892,31.6675145511,34.5663756006,2021
2021-11-26,2021-11-26,"שלום עליכם 6, אשקלון",שלום עליכם 6,1964-36-4,דירה בבית קומות,3.0,ראשונה,40.7,830000,,,1970.0,,3.0,10921637700,1,196436,False,66% ב 7.8 שנים,אשקלון,שלום עליכם,8.46,1964-36-4,1964/36,20393.120393120396,31.6568421323,34.5636169524,2021
2021-11-26,2021-11-26,"משה שרת 40, אשקלון",משה שרת 40,1934-118-22,דירה בבית קומות,3.0,שישית,73.4,850000,,,1995.0,,9.0,10920370320,1,1934118,False,84% ב 12.9 שנים,אשקלון,שרת משה,6.51,1934-118-22,1934/118,11580.381471389645,31.6835987051,34.577861153,2021
2021-11-26,2021-11-26,"ההסתדרות 26, אשקלון",ההסתדרות 26,3019-17-17,דירה בבית קומות,3.0,ראשונה,73.0,800000,,,1970.0,,4.0,10922666940,1,301917,False,196% ב 12.5 שנים,אשקלון,ההסתדרות,15.68,3019-17-17,3019/17,10958.90410958904,31.6565918184,34.5586789541,2021
2021-11-26,2021-11-26,"עמיעוז 11, אשקלון",עמיעוז 11,2843-22-10,דירה בבית קומות,3.0,ראשונה,70.55,1050000,,,1998.0,,4.0,10921839030,1,284322,False,,אשקלון,עמיעוז,,2843-22-10,2843/22,14883.0616583983,31.6485072064,34.5569376918,2021
2021-11-26,2021-11-26,"ז'בוטינסקי 9, אשקלון",ז'בוטינסקי 9,1996-155-14,דירה בבית קומות,3.0,שניה,66.1,810000,,,1970.0,,3.0,10980664920,1,1996155,False,1% ב 0.7 שנים,אשקלון,ז'בוטינסקי,1.43,1996-155-14,1996/155,12254.160363086234,31.6545687867,34.5613048694,2021
2021-11-25,2021-11-25,"ההסתדרות 29, אשקלון",ההסתדרות 29,1962-4-6,דירה בבית קומות,3.0,ראשונה,40.7,900000,,,1970.0,,3.0,10923634440,1,19624,False,8% ב 3.3 שנים,אשקלון,ההסתדרות,2.42,1962-4-6,1962/4,22113.02211302211,31.6582055443,34.5617189167,2021
2021-11-25,2021-11-25,"רחבעם זאבי 31, אשקלון",רחבעם זאבי 31,1966-392-10,דירה בבית קומות,6.0,חמישית,148.0,2510000,,,2007.0,,5.0,10923166620,1,1966392,False,123% ב 12.8 שנים,אשקלון,זאבי רחבעם,9.61,1966-392-10,1966/392,16959.45945945946,31.6972891592,34.5779661109,2021
2021-11-25,2021-11-25,"חננאל 2, אשקלון",חננאל 2,2383-46-9,דירה בבית קומות,4.0,ראשונה,69.4,840000,,,1970.0,,2.0,10984024080,1,238346,False,,אשקלון,חננאל,,2383-46-9,2383/46,12103.746397694524,31.6684621312,34.5935863965,2021
2021-11-25,2021-11-25,"איילה 29, אשקלון",איילה 29,1296-10-9,דירה בבית קומות,4.0,ראשונה,82.65,1150000,,,1990.0,,9.0,10920507660,1,129610,False,55% ב 9.4 שנים,אשקלון,איילה,5.85,1296-10-9,1296/10,13914.095583787052,31.6629030049,34.5747284228,2021
2021-11-25,2021-11-25,"יורם ורון 4, אשקלון",יורם ורון 4,1942-183-85,חנות,,,154.0,2700000,,,2008.0,,10.0,10922418000,1,1942183,False,,אשקלון,ורון יורם,,1942-183-85,1942/183,17532.467532467534,31.6680529916,34.5697984785,2021
2021-11-25,2021-11-25,"לכיש 5, אשקלון",לכיש 5,2508-22-22,דירה בבית קומות,4.0,שניה,90.45,1335000,,,1999.0,,5.0,10921293900,1,250822,False,66% ב 10.3 שנים,אשקלון,לכיש,6.41,2508-22-22,2508/22,14759.535655058042,31.6672744504,34.578741189,2021
2021-11-25,2021-11-25,"בגין מנחם 18, אשקלון",בגין מנחם 18,1353-49-15,דירה בבית קומות,3.0,שלישית,62.4,935000,,,1992.0,,3.0,10920787470,1,135349,False,33% ב 5.1 שנים,אשקלון,בגין מנחם,6.47,1353-49-15,1353/49,14983.97435897436,31.6732726124,34.5824279895,2021
2021-11-25,2021-11-25,"ביכורי ענבים 41, אשקלון",ביכורי ענבים 41,2754-159-13,דירה בבית קומות,5.0,רביעית,104.55,1494000,,,2005.0,,10.0,10919768130,1,2754159,False,19% ב 6 שנים,אשקלון,ביכורי ענבים,3.17,2754-159-13,2754/159,14289.813486370158,31.6895704662,34.5831659222,2021
2021-11-25,2021-11-25,"שני אליהו 16, אשקלון",שני אליהו 16,3013-16-15,דירה בבית קומות,3.0,רביעית,42.7,540000,,,1970.0,,4.0,10980797130,1,301316,False,35% ב 6.9 שנים,אשקלון,שני אליהו,5.07,3013-16-15,3013/16,12646.370023419204,31.6530359463,34.5521068046,2021
2021-11-25,2021-11-25,"שיבת ציון 30, אשקלון",שיבת ציון 30,1655-5-1,קוטג' דו משפחתי,4.0,קרקע,91.0,1750000,,,1960.0,,2.0,10919950830,1,16555,False,15% ב 5 שנים,אשקלון,שיבת ציון,3.0,1655-5-1,1655/5,19230.76923076923,31.6565907666,34.5806416007,2021
2021-11-25,2021-11-25,"חיד""א 11, אשקלון","חיד""א 11",1963-48-11,דירה בבית קומות,3.0,שניה,44.1,1000000,,,1970.0,,2.0,10980419940,1,196348,False,25% ב 4 שנים,אשקלון,"חיד""א",6.25,1963-48-11,1963/48,22675.736961451246,31.6596810471,34.5674444285,2021
2021-11-25,2021-11-25,"הגת 13, אשקלון",הגת 13,2753-153-66,דירה בבית קומות,5.0,ראשונה,151.0,1850000,,,2016.0,,9.0,10920481650,1,2753153,False,,אשקלון,הגת,,2753-153-66,2753/153,12251.655629139072,31.6918760386,34.5790445962,2021
2021-11-25,2021-11-25,"הנמל 3, אשקלון",הנמל 3,1938-424-34,דירה,3.0,חמש עשרה,73.0,1620000,1.0,פרירון עלית,2021.0,,19.0,10923029190,1,1938424,False,,אשקלון,הנמל,,1938-424-34,1938/424,22191.780821917808,31.6796327421,34.5566676609,2021
2021-11-25,2021-11-25,"דרום אפריקה 70, אשקלון",דרום אפריקה 70,1941-144-2,קוטג' חד משפחתי,6.0,ראשונה,250.0,1505000,,,1960.0,,1.0,10923664050,1,1941144,False,,אשקלון,דרום אפריקה,,1941-144-2,1941/144,6020.0,31.6784497291,34.5647281773,2021
2021-11-25,2021-11-25,"ביאליק 40, אשקלון",ביאליק 40,1964-106-23,דירה בבית קומות,2.0,שניה,39.0,630000,,,1960.0,,2.0,10922971320,1,1964106,False,57% ב 6 שנים,אשקלון,ביאליק,9.5,1964-106-23,1964/106,16153.846153846154,31.6562023444,34.5647424729,2021
2021-11-25,2021-11-25,"הרב עוזיאל 136, אשקלון",הרב עוזיאל 136,1963-28-8,דירה בבית קומות,4.0,שניה,68.0,770000,,,1960.0,,3.0,10923817680,1,196328,True,-7% ב 7.7 שנים,אשקלון,הרב עוזיאל,-0.91,1963-28-8,1963/28,11323.529411764706,31.6593084797,34.5668281941,2021
2021-11-25,2021-11-25,"אליעזר מילרוד 6, אשקלון",אליעזר מילרוד 6,1997-22-29,דירה בבית קומות,3.0,רביעית,38.7,595000,,,1970.0,,4.0,10919828970,1,199722,False,,אשקלון,מילרוד אליעזר,,1997-22-29,1997/22,15374.677002583978,31.6519100967,34.5609302527,2021
2021-11-25,2021-11-25,"יהודה הלוי 17, אשקלון",יהודה הלוי 17,1964-71-5,דירה בבית קומות,2.0,שניה,31.7,900000,,,1960.0,,4.0,10919918070,1,196471,False,227% ב 12.1 שנים,אשקלון,יהודה הלוי,18.76,1964-71-5,1964/71,28391.167192429024,31.6576726667,34.5609707714,2021
2021-11-25,2021-11-25,"היין 3, אשקלון",היין 3,2753-135-34,דירה בבית קומות,4.0,שלישית,106.9,1315000,,,2014.0,,9.0,10920945060,1,2753135,False,0% ב 0.4 שנים,אשקלון,היין,0.0,2753-135-34,2753/135,12301.216089803554,31.693949299,34.5784899632,2021
2021-11-25,2021-11-25,"משה יוליש 8, אשקלון",משה יוליש 8,3019-70-5,דירה בבית קומות,4.0,שניה,69.0,850000,,,1980.0,,8.0,10919766600,1,301970,False,21% ב 5.6 שנים,אשקלון,יוליש משה,3.75,3019-70-5,3019/70,12318.840579710144,31.6573019326,34.5552936526,2021
2021-11-25,2021-11-25,"יעקב מרידור 13, אשקלון",יעקב מרידור 13,2904-81-89,דירה בבית קומות,4.0,קומה ‎3‏,104.7,1570000,,,2015.0,,10.0,10920337470,1,290481,False,41% ב 6.6 שנים,אשקלון,מרידור יעקב,6.21,2904-81-89,2904/81,14995.224450811844,31.680192209,34.5780865821,2021
2021-11-25,2021-11-25,"הר כנען 15, אשקלון",הר כנען 15,1934-224-10,דירה בבית קומות,4.0,שלישית,76.0,1070000,,,1980.0,,6.0,10923341040,1,1934224,False,2% ב 4.3 שנים,אשקלון,הר כנען,0.47,1934-224-10,1934/224,14078.947368421052,31.6833717206,34.5762925869,2021
2021-11-25,2021-11-25,"אברהם בלסבלג 8, אשקלון",אברהם בלסבלג 8,2556-18-17,דירה בבית קומות,4.0,שישית,108.36,1450000,,,2005.0,,14.0,10920003390,1,255618,False,119% ב 13.2 שנים,אשקלון,בלסבלג אברהם,9.02,2556-18-17,2556/18,13381.321520856403,31.6886398621,34.5774466841,2021
2021-11-25,2021-11-25,"הטייסים 79, אשקלון",הטייסים 79,1941-110-148,דירה בבית קומות,2.0,שביעית,61.1,1110000,,,1995.0,,10.0,10920188340,1,1941110,False,166% ב 13.1 שנים,אשקלון,הטייסים,12.67,1941-110-148,1941/110,18166.939443535182,31.6759875217,34.5602576601,2021
2021-11-25,2021-11-25,"מונטיפיורי 15, אשקלון",מונטיפיורי 15,2904-55-19,דירה בבית קומות,4.0,חמישית,102.0,1729000,,,2020.0,,6.0,10921106790,1,290455,False,,אשקלון,מונטיפיורי,,2904-55-19,2904/55,16950.980392156864,31.681553392,34.577469074,2021
2021-11-25,2021-11-25,"ברייר דב 1, אשקלון",ברייר דב 1,1942-177-114,דירה בבית קומות,4.0,שניה,96.0,1320000,,,2000.0,,9.0,10920273660,1,1942177,False,,אשקלון,ברייר דב,,1942-177-114,1942/177,13750.0,31.6694499419,34.5675342214,2021
2021-11-25,2021-11-25,"מנדלי מוכר ספרים 8, אשקלון",מנדלי מוכר ספרים 8,1964-22-10,דירה בבית קומות,3.0,שלישית,40.7,700000,,,1970.0,,3.0,10920889980,1,196422,False,22% ב 4.7 שנים,אשקלון,מנדלי מוכר ספרים,4.68,1964-22-10,1964/22,17199.0171990172,31.6569032637,34.5647946477,2021
2021-11-25,2021-11-25,"מונטיפיורי 10, אשקלון",מונטיפיורי 10,2878-5-49,דירה בבית קומות,4.0,ראשונה,80.0,904000,,,1970.0,,4.0,10985274450,1,28785,False,,אשקלון,מונטיפיורי,,2878-5-49,2878/5,11300.0,31.6811894141,34.5757110842,2021
2021-11-24,2021-11-24,"אצ""ל 42, אשקלון","אצ""ל 42",1934-93-45,דירה בבית קומות,4.0,חמישית,89.1,1165000,,,1990.0,,8.0,10919723400,1,193493,False,,אשקלון,"אצ""ל",,1934-93-45,1934/93,13075.196408529742,31.685591288,34.5768768716,2021
2021-11-24,2021-11-24,"אייר 10, אשקלון",אייר 10,1353-24-7,דירה בבית קומות,3.0,שלישית,77.8,970000,,,1993.0,,3.0,10919969370,1,135324,False,7% ב 4.5 שנים,אשקלון,אייר,1.56,1353-24-7,1353/24,12467.866323907456,31.6714459234,34.5808809617,2021
2021-11-24,2021-11-24,"הפנינים 17, אשקלון",הפנינים 17,1216-104-17,חנות,,ראשונה,82.0,900000,,,2010.0,,1.0,10922816160,1,1216104,False,,אשקלון,הפנינים,,1216-104-17,1216/104,10975.60975609756,31.6634017474,34.5998515906,2021
2021-11-24,2021-11-24,"ש""י עגנון 169, אשקלון","ש""י עגנון 169",1944-203-77,דירה בבית קומות,3.0,שלישית,67.1,1050000,,,1995.0,,9.0,10920228390,1,1944203,False,,אשקלון,"עגנון ש""י",,1944-203-77,1944/203,15648.28614008942,31.6589316864,34.5565212091,2021
2021-11-24,2021-11-24,"אצ""ל 46, אשקלון","אצ""ל 46",1934-108-30,דירה בבית קומות,4.0,שביעית,96.2,1350000,,,1994.0,,9.0,10919689380,1,1934108,False,58% ב 10.3 שנים,אשקלון,"אצ""ל",5.63,1934-108-30,1934/108,14033.264033264031,31.6852679908,34.5779038546,2021
2021-11-24,2021-11-24,"משה שרת 34, אשקלון",משה שרת 34,1934-115-30,דירה בבית קומות,4.0,שביעית,91.1,1450000,,,1995.0,,9.0,10921682250,1,1934115,False,,אשקלון,שרת משה,,1934-115-30,1934/115,15916.575192096598,31.6842588195,34.5771596765,2021
2021-11-24,2021-11-24,"בעל שם-טוב 21, אשקלון",בעל שם-טוב 21,1962-25-1,דירה בבית קומות,2.0,ראשונה,30.0,943000,,,1960.0,,1.0,10922842890,1,196225,False,15% ב 4.3 שנים,אשקלון,בעל שם טוב,3.49,1962-25-1,1962/25,31433.33333333333,31.6589793095,34.5632028827,2021
2021-11-24,2021-11-24,"קרן היסוד 20, אשקלון",קרן היסוד 20,2391-67-7,דירת גן,4.0,קרקע,87.5,1200000,,,1995.0,,3.0,10993356540,1,239167,False,103% ב 11.5 שנים,אשקלון,קרן היסוד,8.96,2391-67-7,2391/67,13714.285714285714,31.6576974891,34.5699528398,2021
2021-11-24,2021-11-24,"ביאליק 291, אשקלון",ביאליק 291,1996-17-13,דירה בבית קומות,2.0,רביעית,30.7,690000,,,1970.0,,4.0,10920143880,1,199617,False,,אשקלון,ביאליק,,1996-17-13,1996/17,22475.57003257329,31.656056284,34.5603568733,2021
2021-11-24,2021-11-24,,,1225-6-155,דירה בבית קומות,5.0,שניה,133.0,1480000,,,2013.0,,,10920633840,2,12256,False,,אשקלון,לוחמי הגטאות,,1225-6-155,1225/6,11127.81954887218,,,2021
2021-11-24,2021-11-24,"אבן עזרא 63, אשקלון",אבן עזרא 63,1201-109-4,דירה בבית קומות,4.0,ראשונה,105.0,1130000,,,1995.0,,1.0,10920381300,1,1201109,False,,אשקלון,אבן עזרא,,1201-109-4,1201/109,10761.90476190476,31.6727156472,34.5897264675,2021
2021-11-24,2021-11-24,"שיבת ציון 51, אשקלון",שיבת ציון 51,1655-66-1,דירה בבית קומות,4.0,קרקע,104.0,1300000,,,1970.0,,,10920447450,1,165566,False,,אשקלון,שיבת ציון,,1655-66-1,1655/66,12500.0,31.6575633773,34.57995481,2021
2021-11-24,2021-11-24,"יוטבתה 1, אשקלון",יוטבתה 1,3054-42-38,דירה בבית קומות,4.0,שניה,78.65,1080000,,,1995.0,,4.0,10980099000,1,305442,False,,אשקלון,יוטבתה,,3054-42-38,3054/42,13731.722822631911,31.6756466069,34.5787208874,2021
2021-11-24,2021-11-24,"הבוסתן 17, אשקלון",הבוסתן 17,2753-141-48,דירה בבית קומות,5.0,שמינית,132.65,2400000,,,2007.0,,8.0,10921752090,1,2753141,False,152% ב 16.5 שנים,אשקלון,הבוסתן,9.21,2753-141-48,2753/141,18092.72521673577,31.6931105272,34.5776908714,2021
2021-11-24,2021-11-24,"ההסתדרות 18, אשקלון",ההסתדרות 18,3017-4-28,דירה בבית קומות,4.0,שניה,76.2,970000,,,1970.0,,4.0,10920525300,1,30174,False,,אשקלון,ההסתדרות,,3017-4-28,3017/4,12729.658792650918,31.658090612,34.5605263557,2021
2021-11-24,2021-11-24,"ביאליק 31, אשקלון",ביאליק 31,1965-119-18,דירה בבית קומות,2.0,ראשונה,42.0,645000,,,1970.0,,3.0,10920745980,1,1965119,False,,אשקלון,ביאליק,,1965-119-18,1965/119,15357.142857142857,31.6570275637,34.5668232227,2021
2021-11-24,2021-11-24,"מונטיפיורי 15, אשקלון",מונטיפיורי 15,2904-55-77,דירה בבית קומות,4.0,חמישית,102.0,1706000,,,2020.0,,6.0,10921443210,1,290455,False,,אשקלון,מונטיפיורי,,2904-55-77,2904/55,16725.49019607843,31.681553392,34.577469074,2021
2021-11-23,2021-11-23,"שפינוזה 1, אשקלון",שפינוזה 1,1963-36-8,דירה בבית קומות,5.0,שניה,96.0,1005000,,,1970.0,,3.0,10919506050,1,196336,False,59% ב 8.9 שנים,אשקלון,שפינוזה,6.63,1963-36-8,1963/36,10468.75,31.6604738259,34.5688550042,2021
2021-11-23,2021-11-23,"אהוד 5, אשקלון",אהוד 5,1656-20-1,דירה בבית קומות,3.0,"קרקע,ראשונה",83.0,1465000,,,1970.0,,,10922555610,1,165620,False,,אשקלון,אהוד,,1656-20-1,1656/20,17650.602409638555,31.6547675811,34.582973112,2021
2021-11-23,2021-11-23,"הנמל 3, אשקלון",הנמל 3,1938-424-33,דירה,3.0,שש עשרה,74.0,1364700,1.0,פרירון עלית,2021.0,,19.0,10920858930,1,1938424,False,,אשקלון,הנמל,,1938-424-33,1938/424,18441.891891891893,31.6796327421,34.5566676609,2021
2021-11-23,2021-11-23,"משה יוליש 4, אשקלון",משה יוליש 4,3019-6-7,דירה בבית קומות,3.0,רביעית,62.6,735000,,,1970.0,,4.0,10919769570,1,30196,False,63% ב 4.4 שנים,אשקלון,יוליש משה,14.32,3019-6-7,3019/6,11741.214057507988,31.656454408,34.555057402,2021
2021-11-23,2021-11-23,"טשרניחובסקי 3, אשקלון",טשרניחובסקי 3,1964-55-3,דירה בבית קומות,2.0,ראשונה,31.7,950000,,,1970.0,,4.0,10919466630,1,196455,False,3% ב 3.7 שנים,אשקלון,טשרניחובסקי,0.81,1964-55-3,1964/55,29968.45425867508,31.6571260736,34.5620248278,2021
2021-11-23,2021-11-23,"אשתאול 4, אשקלון",אשתאול 4,2869-33-20,דירה בבית קומות,4.0,רביעית,90.1,1320000,,,2000.0,,8.0,10919971530,1,286933,False,5% ב 2.2 שנים,אשקלון,אשתאול,2.27,2869-33-20,2869/33,14650.3884572697,31.6669912863,34.5586116365,2021
2021-11-23,2021-11-23,"בן-גוריון 30, אשקלון",בן-גוריון 30,1963-80-41,דירה בבית קומות,3.0,רביעית,59.4,655000,,,1970.0,,4.0,10920883410,1,196380,False,,אשקלון,בן גוריון,,1963-80-41,1963/80,11026.936026936028,31.6622349584,34.5681522185,2021
2021-11-23,2021-11-23,"אלי כהן 46, אשקלון",אלי כהן 46,2508-27-188,דירה בבית קומות,3.0,שניה,86.0,1260000,,,2007.0,,8.0,10920711060,1,250827,False,,אשקלון,אלי כהן,,2508-27-188,2508/27,14651.162790697674,31.6690547743,34.5784980252,2021
2021-11-23,2021-11-23,"תמוז 11, אשקלון",תמוז 11,1239-91-18,דירה בבית קומות,4.0,שניה,78.7,1335000,,,2003.0,,5.0,10922832540,1,123991,False,242% ב 13.8 שנים,אשקלון,תמוז,17.54,1239-91-18,1239/91,16963.15120711563,31.6727564425,34.5783849348,2021
2021-11-23,2021-11-23,"סיני 3, אשקלון",סיני 3,2508-29-71,דירה בבית קומות,3.0,רביעית,75.3,1260000,,,2000.0,,7.0,10920817980,1,250829,False,18% ב 3.2 שנים,אשקלון,סיני,5.62,2508-29-71,2508/29,16733.067729083665,31.6686710942,34.5789462899,2021
2021-11-23,2021-11-23,"יואל 2, אשקלון",יואל 2,1654-39-4,דירה בבית קומות,4.0,ראשונה,95.0,1050000,,,1970.0,,1.0,10921696290,1,165439,False,,אשקלון,יואל,,1654-39-4,1654/39,11052.631578947368,31.6591296791,34.5779815622,2021
2021-11-23,2021-11-23,"שפינוזה 17, אשקלון",שפינוזה 17,1963-66-5,דירה בבית קומות,4.0,שניה,61.2,1040000,,,1960.0,,3.0,10922392890,1,196366,False,49% ב 3.9 שנים,אשקלון,שפינוזה,12.56,1963-66-5,1963/66,16993.46405228758,31.6612174031,34.5664012044,2021
2021-11-23,2021-11-23,"אריה 10, אשקלון",אריה 10,1296-9-22,דירה בבית קומות,3.0,שישית,71.2,920000,,,1990.0,,8.0,10919465910,1,12969,False,9% ב 5.1 שנים,אשקלון,אריה,1.76,1296-9-22,1296/9,12921.34831460674,31.6634124972,34.5764498925,2021
2021-11-23,2021-11-23,,,2556-4-182,דירה בבית קומות,4.0,עשירית,106.0,1820000,,,2021.0,,,10921654080,2,25564,False,,אשקלון,בלפור,,2556-4-182,2556/4,17169.811320754718,31.6905337687,34.5769245426,2021
2021-11-23,2021-11-23,"תנובת השדה 4, אשקלון",תנובת השדה 4,2753-155-67,דירה בבית קומות,4.0,קומה ‎8‏,113.2,1600000,,,2013.0,,10.0,10919756970,1,2753155,False,15% ב 4.2 שנים,אשקלון,תנובת השדה,3.57,2753-155-67,2753/155,14134.27561837456,31.6910121935,34.5799453603,2021
2021-11-23,2021-11-23,"כסלו 15, אשקלון",כסלו 15,1353-72-16,דירה בבית קומות,4.0,שלישית,71.7,980000,,,1993.0,,3.0,10921235220,1,135372,False,,אשקלון,כסלו,,1353-72-16,1353/72,13668.061366806136,31.6723287226,34.5794902232,2021
2021-11-23,2021-11-23,"גבע 2, אשקלון",גבע 2,2869-21-14,דירה בבית קומות,5.0,שמונה עשרה,127.0,1800000,,,2015.0,,8.0,10922332590,1,286921,False,,אשקלון,גבע,,2869-21-14,2869/21,14173.228346456694,31.6679184514,34.5576730093,2021
2021-11-23,2021-11-23,"יונתן נתניהו 10, אשקלון",יונתן נתניהו 10,2556-14-147,דירה בבית קומות,5.0,שמינית,124.37,1540000,,,2011.0,,14.0,10922006700,1,255614,False,2% ב 0.2 שנים,אשקלון,נתניהו יונתן,10.0,2556-14-147,2556/14,12382.407332958108,31.6889528319,34.5785167582,2021
2021-11-22,2021-11-22,"בר-כוכבא 5, אשקלון",בר-כוכבא 5,2872-120-25,דירה בבית קומות,4.0,שלישית,79.0,1125000,,,1970.0,,4.0,10919531880,1,2872120,False,,אשקלון,בר כוכבא,,2872-120-25,2872/120,14240.506329113923,31.6799591973,34.572441922,2021
2021-11-22,2021-11-22,"הציונות 63, אשקלון",הציונות 63,2557-49-64,דירה בבית קומות,5.0,שישית,119.44,1600000,,,2007.0,,9.0,10919662650,1,255749,False,120% ב 13.1 שנים,אשקלון,הציונות,9.16,2557-49-64,2557/49,13395.847287340925,31.687315494,34.5805544564,2021
2021-11-22,2021-11-22,"יונתן נתניהו 6, אשקלון",יונתן נתניהו 6,2556-14-31,דירה בבית קומות,4.0,שמינית,106.77,1455000,,,2009.0,,14.0,10920948030,1,255614,False,91% ב 11.5 שנים,אשקלון,נתניהו יונתן,7.91,2556-14-31,2556/14,13627.42343354875,31.6889528319,34.5785167582,2021
2021-11-22,2021-11-22,"משה שרת 42, אשקלון",משה שרת 42,1934-117-4,דירה בבית קומות,4.0,ראשונה,89.35,1300000,,,1995.0,,9.0,10919186730,1,1934117,False,113% ב 12.3 שנים,אשקלון,שרת משה,9.19,1934-117-4,1934/117,14549.52434247342,31.6835529972,34.5782299485,2021
2021-11-22,2021-11-22,"הנוער העובד 4, אשקלון",הנוער העובד 4,2390-40-19,דירה בבית קומות,3.0,חמישית,73.5,1000000,,,1980.0,,6.0,10919496420,1,239040,False,,אשקלון,הנוער העובד,,2390-40-19,2390/40,13605.442176870749,31.6606011809,34.5727819521,2021
2021-11-22,2021-11-22,"מנחם בגין 23, אשקלון",מנחם בגין 23,3051-85-5,דירה בבית קומות,3.0,שניה,68.4,870000,,,1993.0,,2.0,10921813020,1,305185,False,,אשקלון,בגין מנחם,,3051-85-5,3051/85,12719.298245614034,31.6740747181,34.5830577208,2021
2021-11-22,2021-11-22,"גולני 11, אשקלון",גולני 11,1938-134-13,דירה בבית קומות,3.0,שמינית,60.0,1618000,,,1997.0,,8.0,10919563920,1,1938134,False,,אשקלון,גולני,,1938-134-13,1938/134,26966.666666666668,31.6828118684,34.5610869889,2021
2021-11-22,2021-11-22,"אריה 10, אשקלון",אריה 10,1296-9-58,דירה בבית קומות,3.0,שביעית,70.65,920000,,,1990.0,,8.0,10922397300,1,12969,False,,אשקלון,אריה,,1296-9-58,1296/9,13021.939136588817,31.6634124972,34.5764498925,2021
2021-11-22,2021-11-22,"הסנה 6, אשקלון",הסנה 6,1942-157-72,דירה בבית קומות,4.0,חמישית,88.08,1250000,,,2003.0,,,10921573890,1,1942157,False,118% ב 18.8 שנים,אשקלון,הסנה,6.28,1942-157-72,1942/157,14191.64396003633,31.6679442274,34.5647038996,2021
2021-11-22,2021-11-22,"משה קול 1, אשקלון",משה קול 1,2880-14-10,דירה בבית קומות,5.0,שביעית,95.0,1190000,,,1998.0,,2.0,10919866860,1,288014,False,,אשקלון,קול משה,,2880-14-10,2880/14,12526.315789473683,31.6704293242,34.5867532149,2021
2021-11-22,2021-11-22,"הנמל 3, אשקלון",הנמל 3,1938-424-32,דירה,3.0,שתים עשרה,72.0,1540000,1.0,פרירון עלית,2021.0,,19.0,10920022110,1,1938424,False,,אשקלון,הנמל,,1938-424-32,1938/424,21388.88888888889,31.6796327421,34.5566676609,2021
2021-11-22,2021-11-22,"משה יוליש 10, אשקלון",משה יוליש 10,3019-5-14,דירה בבית קומות,3.0,שלישית,62.6,760000,,,1970.0,,4.0,10919339010,1,30195,False,,אשקלון,יוליש משה,,3019-5-14,3019/5,12140.575079872204,31.65671386,34.5545221336,2021
2021-11-21,2021-11-21,"ביל""ו 3, אשקלון","ביל""ו 3",1998-9-7,דירה בבית קומות,3.0,רביעית,58.5,725000,,,1970.0,,4.0,10921674960,1,19989,False,,אשקלון,"ביל""ו",,1998-9-7,1998/9,12393.162393162393,31.655548439,34.5587656164,2021
2021-11-21,2021-11-21,"אהוד 6, אשקלון",אהוד 6,1656-15-3,דירה בבית קומות,4.0,ראשונה,110.0,800000,,,1980.0,,1.0,10921764780,1,165615,False,13% ב 6.5 שנים,אשקלון,אהוד,2.0,1656-15-3,1656/15,7272.727272727273,31.6553020249,34.5837990473,2021
2021-11-21,2021-11-21,"ז'בוטינסקי 5, אשקלון",ז'בוטינסקי 5,1996-39-13,דירה בבית קומות,3.0,שלישית,50.1,570000,,,1970.0,,4.0,10923295140,1,199639,False,159% ב 11.9 שנים,אשקלון,ז'בוטינסקי,13.36,1996-39-13,1996/39,11377.245508982036,31.65514019,34.5609646913,2021
2021-11-21,2021-11-21,"הציונות 63, אשקלון",הציונות 63,2557-49-69,דירה בבית קומות,5.0,שמינית,105.15,1560000,,,2007.0,,9.0,10919396070,1,255749,False,121% ב 14.3 שנים,אשקלון,הציונות,8.46,2557-49-69,2557/49,14835.948644793152,31.687315494,34.5805544564,2021
2021-11-21,2021-11-21,"האילן 23, אשקלון",האילן 23,1961-137-1,קוטג' דו משפחתי,4.0,ראשונה,76.3,2600000,,,1950.0,,1.0,10920057750,1,1961137,False,280% ב 15.7 שנים,אשקלון,האילן,17.83,1961-137-1,1961/137,34076.015727391874,31.6684463894,34.5643067529,2021
2021-11-21,2021-11-21,"ביכורי ענבים 49, אשקלון",ביכורי ענבים 49,2754-161-40,דירה בבית קומות,5.0,קומה ‎4‏,122.6,1590000,,,2009.0,,7.0,10921433400,1,2754161,False,11% ב 4.3 שנים,אשקלון,ביכורי ענבים,2.56,2754-161-40,2754/161,12969.004893964113,31.6904970392,34.582663538,2021
2021-11-21,2021-11-21,"היין 4, אשקלון",היין 4,2753-140-28,דירה בבית קומות,4.0,ראשונה,110.0,1320000,,,2010.0,,8.0,10922756760,1,2753140,False,,אשקלון,היין,,2753-140-28,2753/140,12000.0,31.6930937032,34.578153182,2021
2021-11-21,2021-11-21,"מודיעין 5, אשקלון",מודיעין 5,1940-68-106,דירה בבית קומות,3.0,רביעית,85.0,1560000,,,2021.0,,16.0,10919413890,1,194068,False,,אשקלון,מודיעין,,1940-68-106,1940/68,18352.941176470587,31.6775411974,34.5579888036,2021
2021-11-21,2021-11-21,"יפה נוף 4, אשקלון",יפה נוף 4,1940-69-101,דירה בבית קומות,4.0,קומה ‎6‏,86.9,1860000,,,2013.0,,14.0,10921276080,1,194069,False,,אשקלון,יפה נוף,,1940-69-101,1940/69,21403.91254315305,31.6777094006,34.5566319839,2021
2021-11-21,2021-11-21,"יעקב מרידור 1, אשקלון",יעקב מרידור 1,2904-36-48,דירה בבית קומות,5.0,חמישית,122.7,1550000,,,2013.0,,9.0,10919316600,1,290436,False,58% ב 7.8 שנים,אשקלון,מרידור יעקב,7.44,2904-36-48,2904/36,12632.43683781581,31.6787703751,34.5790713772,2021
2021-11-21,2021-11-21,"יונתן נתניהו 6, אשקלון",יונתן נתניהו 6,2556-14-30,דירה בבית קומות,4.0,שביעית,110.19,1320000,,,2009.0,,14.0,10921605750,1,255614,False,22% ב 6.8 שנים,אשקלון,נתניהו יונתן,3.24,2556-14-30,2556/14,11979.30846719303,31.6889528319,34.5785167582,2021
2021-11-21,2021-11-21,"יונתן נתניהו 8, אשקלון",יונתן נתניהו 8,2556-14-74,דירה בבית קומות,5.0,רביעית,124.66,1800000,,,2009.0,,14.0,10920733290,1,255614,False,20% ב 4.3 שנים,אשקלון,נתניהו יונתן,4.65,2556-14-74,2556/14,14439.274827530884,31.6889528319,34.5785167582,2021
2021-11-21,2021-11-21,"הטייסים 77, אשקלון",הטייסים 77,1941-110-51,דירה בבית קומות,4.0,שישית,97.9,1222000,,,1995.0,,10.0,10918955790,1,1941110,False,205% ב 13.9 שנים,אשקלון,הטייסים,14.75,1941-110-51,1941/110,12482.124616956076,31.6759875217,34.5602576601,2021
2021-11-21,2021-11-21,"חיד""א 6, אשקלון","חיד""א 6",1963-53-31,דירה בבית קומות,3.0,שניה,48.5,770000,,,1970.0,,4.0,10919692440,1,196353,False,,אשקלון,"חיד""א",,1963-53-31,1963/53,15876.288659793814,31.6603259408,34.5671704709,2021
2021-11-21,2021-11-21,"אריה 10, אשקלון",אריה 10,1296-9-21,דירה בבית קומות,3.0,שישית,67.6,900000,,,1990.0,,8.0,10920094110,1,12969,False,28% ב 6.5 שנים,אשקלון,אריה,4.31,1296-9-21,1296/9,13313.609467455624,31.6634124972,34.5764498925,2021
2021-11-21,2021-11-21,"השומר הצעיר 14, אשקלון",השומר הצעיר 14,2391-21-19,דירה בבית קומות,3.0,שישית,63.05,880000,,,1993.0,,6.0,10920236580,1,239121,False,,אשקלון,השומר הצעיר,,2391-21-19,2391/21,13957.176843774783,31.6566107808,34.5715347092,2021
2021-11-21,2021-11-21,"אפרים צור 44, אשקלון",אפרים צור 44,1965-28-4,דירה בבית קומות,3.0,ראשונה,38.7,990000,,,1960.0,,4.0,10919227500,1,196528,False,51% ב 2.3 שנים,אשקלון,צור אפרים,22.17,1965-28-4,1965/28,25581.395348837206,31.6537745509,34.5636674768,2021
2021-11-20,2021-11-20,"ז'בוטינסקי 9, אשקלון",ז'בוטינסקי 9,1996-155-5,דירה בבית קומות,3.0,שניה,66.1,780000,,,1970.0,,3.0,10923379740,1,1996155,False,27% ב 4.4 שנים,אשקלון,ז'בוטינסקי,6.14,1996-155-5,1996/155,11800.30257186082,31.6545687867,34.5613048694,2021
2021-11-20,2021-11-20,"אשתאול 1, אשקלון",אשתאול 1,2869-28-198,דירה בבית קומות,5.0,עשירית,112.0,1378000,,,2000.0,,20.0,10920444390,1,286928,False,,אשקלון,אשתאול,,2869-28-198,2869/28,12303.57142857143,31.667375096,34.5578269375,2021
2021-11-19,2021-11-19,"יוספטל 16, אשקלון",יוספטל 16,1996-86-28,דירה בבית קומות,3.0,שניה,52.2,650000,,,1960.0,,4.0,10923264630,1,199686,False,,אשקלון,יוספטל,,1996-86-28,1996/86,12452.107279693486,31.6525386749,34.5597948353,2021
2021-11-19,2021-11-19,"יעקב מרידור 8, אשקלון",יעקב מרידור 8,2904-32-13,דירה בבית קומות,5.0,קומה ‎4‏,107.9,1600000,,,2016.0,,10.0,10920192030,1,290432,False,17% ב 5.2 שנים,אשקלון,מרידור יעקב,3.27,2904-32-13,2904/32,14828.544949026877,31.6801457292,34.5794603934,2021
2021-11-19,2021-11-19,"חוחית 11, אשקלון",חוחית 11,1282-77-2,דירה בבית קומות,6.0,קרקע וראשונה,129.6,2670000,,,1995.0,,,10921212270,1,128277,False,,אשקלון,חוחית,,1282-77-2,1282/77,20601.85185185185,31.6649899155,34.5798812773,2021
2021-11-19,2021-11-19,"מגידו 3, אשקלון",מגידו 3,2507-6-41,דירה בבית קומות,4.0,עשירית,89.6,1315000,,,2002.0,,15.0,10919266110,1,25076,False,75% ב 11.4 שנים,אשקלון,מגידו,6.58,2507-6-41,2507/6,14676.339285714286,31.6663950193,34.5747620238,2021
2021-11-19,2021-11-19,"תירוש 21, אשקלון",תירוש 21,2753-132-6,דירה בבית קומות,4.0,שניה,96.2,1520000,,,2008.0,,10.0,10921635540,1,2753132,False,26% ב 6.7 שנים,אשקלון,תירוש,3.88,2753-132-6,2753/132,15800.4158004158,31.6950938156,34.5783057976,2021
2021-11-18,2021-11-18,"סיני 3, אשקלון",סיני 3,2508-29-65,דירה בבית קומות,3.0,שניה,75.3,1200000,,,2000.0,,7.0,10919035260,1,250829,False,18% ב 0.8 שנים,אשקלון,סיני,22.5,2508-29-65,2508/29,15936.254980079682,31.6686710942,34.5789462899,2021
2021-11-18,2021-11-18,"בנימין 16, אשקלון",בנימין 16,1658-75-27,דירה בבית קומות,2.0,שלישית,44.0,151000,,,1970.0,,4.0,10920503970,1,165875,False,,אשקלון,בנימין,,1658-75-27,1658/75,3431.818181818182,31.6499771214,34.5869371356,2021
2021-11-18,2021-11-18,"אפרסמון 38, אשקלון",אפרסמון 38,1958-195-2,דירה בבית קומות,6.0,מרתף + קרקע + ראשונה,161.0,2750000,,,1998.0,,,10919205990,1,1958195,False,,אשקלון,אפרסמון,,1958-195-2,1958/195,17080.745341614907,31.6735838664,34.5588718939,2021
2021-11-18,2021-11-18,"ביכורי ענבים 27, אשקלון",ביכורי ענבים 27,2754-155-52,דירה בבית קומות,4.0,חמישית,86.0,1510000,,,2014.0,,10.0,10919765160,1,2754155,False,,אשקלון,ביכורי ענבים,,2754-155-52,2754/155,17558.13953488372,31.6905818725,34.5849589842,2021
2021-11-18,2021-11-18,"יונתן נתניהו 12, אשקלון",יונתן נתניהו 12,2557-47-34,דירה בבית קומות,4.0,תשיעית,106.53,1500000,,,2013.0,,14.0,10919204550,1,255747,False,19% ב 5.9 שנים,אשקלון,נתניהו יונתן,3.22,2557-47-34,2557/47,14080.540692762605,31.689138359,34.5797084707,2021
2021-11-18,2021-11-18,"הנמל 7, אשקלון",הנמל 7,2528-15-1,ללא תיכנון,,,400.0,5500000,,,,,,10922275620,1,252815,False,,אשקלון,הנמל,,2528-15-1,2528/15,13750.0,31.6807275031,34.5561837062,2021
2021-11-18,2021-11-18,"בן-גוריון 11, אשקלון",בן-גוריון 11,2869-31-36,משרד,,,33.0,327000,,,2000.0,,10.0,10919862450,1,286931,False,,אשקלון,בן גוריון,,2869-31-36,2869/31,9909.09090909091,31.6666428624,34.5582958049,2021
2021-11-18,2021-11-18,"הטייסים 63, אשקלון",הטייסים 63,1941-107-18,דירה בבית קומות,4.0,ראשונה,93.2,1100000,,,1990.0,,4.0,10919952990,1,1941107,False,,אשקלון,הטייסים,,1941-107-18,1941/107,11802.575107296138,31.6774448009,34.561492303,2021
2021-11-18,2021-11-18,"הצאלה 2, אשקלון",הצאלה 2,1960-136-12,דירה בבית קומות,3.0,שניה,59.2,1100000,,,1960.0,,2.0,10923790320,1,1960136,False,,אשקלון,הצאלה,,1960-136-12,1960/136,18581.08108108108,31.6738122325,34.5681626823,2021
2021-11-18,2021-11-18,"שפינוזה 16, אשקלון",שפינוזה 16,1963-77-8,דירה בבית קומות,5.0,שניה,88.0,850000,,,1960.0,,3.0,10919081250,1,196377,False,,אשקלון,שפינוזה,,1963-77-8,1963/77,9659.09090909091,31.6620326877,34.5667045307,2021
2021-11-18,2021-11-18,"היין 18, אשקלון",היין 18,2754-33-26,דירה בבית קומות,4.0,שביעית,105.2,1480000,,,2010.0,,10.0,10919673000,1,275433,False,53% ב 8.3 שנים,אשקלון,היין,6.39,2754-33-26,2754/33,14068.441064638782,31.694127024,34.5824593689,2021
2021-11-18,2021-11-18,"אפרים צור 61, אשקלון",אפרים צור 61,1996-110-30,דירה בבית קומות,3.0,שניה,50.6,550000,,,1970.0,,3.0,10920627090,1,1996110,False,,אשקלון,צור אפרים,,1996-110-30,1996/110,10869.565217391304,31.6534906735,34.5622465151,2021
2021-11-18,2021-11-18,"גמלא 10, אשקלון",גמלא 10,2507-17-7,קוטג' דו משפחתי,5.0,קרקע ראשונה ושניה,177.4,3000000,,,1996.0,,,10920452580,1,250717,False,227% ב 23.7 שנים,אשקלון,גמלא,9.58,2507-17-7,2507/17,16910.935738444194,31.6647522885,34.5768217174,2021
2021-11-18,2021-11-18,"מנחם בגין 38, אשקלון",מנחם בגין 38,1201-89-5,דירה בבית קומות,4.0,ראשונה,89.0,1385000,,,1992.0,,1.0,10918983240,1,120189,False,,אשקלון,בגין מנחם,,1201-89-5,1201/89,15561.797752808989,31.6738832374,34.5886064753,2021
2021-11-18,2021-11-18,"הסוכנות היהודית 11, אשקלון",הסוכנות היהודית 11,2391-73-1,דירה בבית קומות,3.0,קרקע,71.15,1200000,,,1990.0,,6.0,10922302350,1,239173,False,,אשקלון,הסוכנות היהודית,,2391-73-1,2391/73,16865.776528460996,31.6584292981,34.5704455278,2021
2021-11-18,2021-11-18,"נוה שלום 16, אשקלון",נוה שלום 16,1296-41-9,דירה בבית קומות,3.0,שלישית,68.9,990000,,,1994.0,,8.0,10920422880,1,129641,False,,אשקלון,נווה שלום,,1296-41-9,1296/41,14368.65021770682,31.6625829178,34.5785164315,2021
2021-11-18,2021-11-18,"דוד רזיאל 22, אשקלון",דוד רזיאל 22,2383-41-11,דירה בבית קומות,4.0,שניה ושלישית,91.3,1000000,,,1970.0,,3.0,10918897830,1,238341,False,,אשקלון,רזיאל דוד,,2383-41-11,2383/41,10952.90251916758,31.6690043428,34.5947739817,2021
2021-11-17,2021-11-17,"ישעיהו 31, אשקלון",ישעיהו 31,1654-25-1,קוטג' דו משפחתי,4.0,קרקע,110.0,1000000,,,1960.0,,,10921887180,1,165425,False,5% ב 3.2 שנים,אשקלון,ישעיהו,1.56,1654-25-1,1654/25,9090.90909090909,31.659678366,34.5798516654,2021
2021-11-17,2021-11-17,"יעקב מרידור 15, אשקלון",יעקב מרידור 15,2904-81-111,דירה בבית קומות,4.0,קומה ‎2‏,101.0,1540000,,,2015.0,,11.0,10920710340,1,290481,False,41% ב 6.3 שנים,אשקלון,מרידור יעקב,6.51,2904-81-111,2904/81,15247.524752475249,31.680192209,34.5780865821,2021
2021-11-17,2021-11-17,"אהוד 10, אשקלון",אהוד 10,1656-13-4,דירה בבית קומות,4.0,ראשונה,87.0,1090000,,,1950.0,,1.0,10919127420,1,165613,False,,אשקלון,אהוד,,1656-13-4,1656/13,12528.735632183909,31.6551633056,34.583348889,2021
2021-11-17,2021-11-17,"דפנה 12, אשקלון",דפנה 12,2848-131-2,דירה בבית קומות,4.0,ראשונה,92.0,2600000,,,1982.0,,1.0,10918923120,1,2848131,False,,אשקלון,דפנה,,2848-131-2,2848/131,28260.869565217392,31.6511928629,34.5781133251,2021
2021-11-17,2021-11-17,"אריה 12, אשקלון",אריה 12,1296-16-81,דירה בבית קומות,3.0,חמישית,64.7,940000,,,1987.0,,8.0,10919638080,1,129616,False,17% ב 4.5 שנים,אשקלון,אריה,3.78,1296-16-81,1296/16,14528.593508500771,31.6632713144,34.5775026085,2021
2021-11-17,2021-11-17,"היין 4, אשקלון",היין 4,2753-140-22,דירה בבית קומות,4.0,ראשונה,100.0,1300000,,,2010.0,,8.0,10919048580,1,2753140,False,,אשקלון,היין,,2753-140-22,2753/140,13000.0,31.6930937032,34.578153182,2021
2021-11-17,2021-11-17,"חיד""א 6, אשקלון","חיד""א 6",1963-53-39,דירה בבית קומות,3.0,שלישית,60.4,670000,,,1970.0,,4.0,10921983660,1,196353,False,,אשקלון,"חיד""א",,1963-53-39,1963/53,11092.71523178808,31.6603259408,34.5671704709,2021
2021-11-17,2021-11-17,"חיד""א 11, אשקלון","חיד""א 11",1963-48-8,דירה בבית קומות,2.0,שניה,40.7,700000,,,1970.0,,2.0,10919595150,1,196348,False,0% ב 0.7 שנים,אשקלון,"חיד""א",0.0,1963-48-8,1963/48,17199.0171990172,31.6596810471,34.5674444285,2021
2021-11-17,2021-11-17,"מנחם בגין 33, אשקלון",מנחם בגין 33,3050-51-45,דירה בבית קומות,5.0,רביעית,108.85,1375000,,,2000.0,,6.0,10919682810,1,305051,False,149% ב 19.5 שנים,אשקלון,בגין מנחם,7.64,3050-51-45,3050/51,12632.062471290768,31.6742942776,34.5860226529,2021
2021-11-17,2021-11-17,"חובבי ציון 7, אשקלון",חובבי ציון 7,1998-57-44,דירה בבית קומות,4.0,רביעית,77.1,920000,,,1970.0,,7.0,10919035980,1,199857,False,130% ב 9.7 שנים,אשקלון,חובבי ציון,13.4,1998-57-44,1998/57,11932.555123216604,31.6546804689,34.5576703157,2021
2021-11-17,2021-11-17,"מיכה 6, אשקלון",מיכה 6,1653-71-3,דירה בבית קומות,2.0,ראשונה,35.0,650000,,,1970.0,,1.0,10920019770,1,165371,False,38% ב 5.4 שנים,אשקלון,מיכה,7.04,1653-71-3,1653/71,18571.42857142857,31.6580974595,34.5823153332,2021
2021-11-17,2021-11-17,"מונטיפיורי 15, אשקלון",מונטיפיורי 15,2904-55-79,דירה בבית קומות,4.0,ראשונה,100.0,1847000,,,2020.0,,6.0,10919446470,1,290455,False,,אשקלון,מונטיפיורי,,2904-55-79,2904/55,18470.0,31.681553392,34.577469074,2021
2021-11-16,2021-11-16,"ביכורי ענבים 41, אשקלון",ביכורי ענבים 41,2754-159-33,דירה בבית קומות,4.0,תשיעית,93.25,1415000,,,2005.0,,10.0,10919298780,1,2754159,False,174% ב 17 שנים,אשקלון,ביכורי ענבים,10.24,2754-159-33,2754/159,15174.26273458445,31.6895704662,34.5831659222,2021
2021-11-16,2021-11-16,"מונטיפיורי 15, אשקלון",מונטיפיורי 15,2904-55-80,דירה בבית קומות,5.0,שניה,122.0,1732000,,,2020.0,,6.0,10920773610,1,290455,False,,אשקלון,מונטיפיורי,,2904-55-80,2904/55,14196.72131147541,31.681553392,34.577469074,2021
2021-11-16,2021-11-16,"ירושלים 29, אשקלון",ירושלים 29,1933-42-41,דירה בבית קומות,4.0,רביעית,102.97,1210000,,,1980.0,,7.0,10918831050,1,193342,False,77% ב 8 שנים,אשקלון,ירושלים,9.62,1933-42-41,1933/42,11750.995435563756,31.6823888193,34.5726520019,2021
2021-11-16,2021-11-16,"הסנה 28, אשקלון",הסנה 28,1942-134-37,דירה בבית קומות,3.0,שלישית,80.6,1040000,,,1980.0,,9.0,10920705840,1,1942134,False,,אשקלון,הסנה,,1942-134-37,1942/134,12903.225806451614,31.6675066528,34.5639403714,2021
2021-11-16,2021-11-16,"הנוער העובד 7, אשקלון",הנוער העובד 7,2390-49-3,דירה בבית קומות,4.0,ראשונה,81.0,1140000,,,1993.0,,9.0,10918528920,1,239049,False,10% ב 2.5 שנים,אשקלון,הנוער העובד,4.0,2390-49-3,2390/49,14074.074074074077,31.6609132028,34.5718942816,2021
2021-11-15,2021-11-15,"זכריה 6, אשקלון",זכריה 6,1654-60-1,קוטג' דו משפחתי,3.0,קרקע,71.0,1580000,,,1960.0,,1.0,10919199420,1,165460,False,,אשקלון,זכריה,,1654-60-1,1654/60,22253.521126760563,31.658912296,34.5796265353,2021
2021-11-15,2021-11-15,"ביאליק 48, אשקלון",ביאליק 48,1964-110-23,דירה בבית קומות,2.0,שניה,39.0,650000,,,1970.0,,2.0,10919548260,1,1964110,False,100% ב 8.5 שנים,אשקלון,ביאליק,11.76,1964-110-23,1964/110,16666.666666666668,31.6559236816,34.5620459901,2021
2021-11-15,2021-11-15,"חודשי השנה 13, אשקלון",חודשי השנה 13,2855-45-9,דירה בבית קומות,5.0,רביעית,119.0,1550000,,,2012.0,,,10919521530,1,285545,False,,אשקלון,חודשי השנה,,2855-45-9,2855/45,13025.210084033612,31.6745165194,34.5768200324,2021
2021-11-15,2021-11-15,,,1225-1-114,דירה בבית קומות,4.0,,122.0,1450000,,,2017.0,,,10918516950,2,12251,False,,אשקלון,לוחמי הגטאות,,1225-1-114,1225/1,11885.245901639344,,,2021
2021-11-15,2021-11-15,"הר חרמון 3, אשקלון",הר חרמון 3,1934-235-4,דירה בבית קומות,4.0,ראשונה,81.13,1150000,,,1980.0,,4.0,10919347020,1,1934235,False,15% ב 3.8 שנים,אשקלון,הר חרמון,3.95,1934-235-4,1934/235,14174.781215333416,31.6820549508,34.5740180436,2021
2021-11-15,2021-11-15,"רמב""ם 22, אשקלון","רמב""ם 22",1201-93-4,דירה בבית קומות,3.0,ראשונה,63.5,700000,,,1992.0,,6.0,10919658240,1,120193,True,-12% ב 4 שנים,אשקלון,"רמב""ם",-3.0,1201-93-4,1201/93,11023.622047244096,31.6735331622,34.5888901089,2021
2021-11-15,2021-11-15,"משה יוליש 7, אשקלון",משה יוליש 7,3020-9-16,דירה בבית קומות,4.0,רביעית,79.8,1030000,,,1970.0,,4.0,10918377270,1,30209,False,18% ב 2.8 שנים,אשקלון,יוליש משה,6.43,3020-9-16,3020/9,12907.268170426065,31.6565812155,34.5541539799,2021
2021-11-15,2021-11-15,"גדוד הפורצים 9, אשקלון",גדוד הפורצים 9,1998-20-12,דירה בבית קומות,3.0,שניה,58.5,820000,,,1970.0,,4.0,10921794300,1,199820,False,105% ב 9.4 שנים,אשקלון,גדוד הפורצים,11.17,1998-20-12,1998/20,14017.094017094018,31.654126641,34.5567565449,2021
2021-11-15,2021-11-15,"נווה שלום 22, אשקלון",נווה שלום 22,1297-8-12,דירה בבית קומות,4.0,שלישית,70.9,1170000,,,1992.0,,9.0,10921484070,1,12978,False,48% ב 6 שנים,אשקלון,נווה שלום,8.0,1297-8-12,1297/8,16502.115655853315,31.6625982037,34.5802016579,2021
2021-11-15,2021-11-15,"אברבנאל 3, אשקלון",אברבנאל 3,1962-51-3,דירה בבית קומות,3.0,ראשונה,73.1,1330000,,,1960.0,,1.0,10919641140,1,196251,False,47% ב 2.6 שנים,אשקלון,אברבנאל,18.08,1962-51-3,1962/51,18194.254445964438,31.6603842329,34.5639805068,2021
2021-11-15,2021-11-15,"אפרים צור 33, אשקלון",אפרים צור 33,1965-49-26,דירה בבית קומות,3.0,רביעית,49.2,670000,,,1960.0,,3.0,10920583440,1,196549,False,6% ב 2.3 שנים,אשקלון,צור אפרים,2.61,1965-49-26,1965/49,13617.886178861789,31.6544482444,34.5655254887,2021
2021-11-15,2021-11-15,"יעקב מרידור 1, אשקלון",יעקב מרידור 1,2904-36-21,דירה בבית קומות,5.0,ראשונה,101.4,1560000,,,2013.0,,9.0,10919131110,1,290436,False,2% ב 4.3 שנים,אשקלון,מרידור יעקב,0.47,2904-36-21,2904/36,15384.615384615385,31.6787703751,34.5790713772,2021
2021-11-15,2021-11-15,"הגת 23, אשקלון",הגת 23,2753-154-89,דירה בבית קומות,5.0,שלישית,132.0,1780000,,,2018.0,,9.0,10918344780,1,2753154,False,,אשקלון,הגת,,2753-154-89,2753/154,13484.848484848484,31.6915570022,34.5802818088,2021
2021-11-15,2021-11-15,"שריג 2, אשקלון",שריג 2,2753-50-1,דירה בבית קומות,5.0,ראשונה,280.0,3800000,,,2016.0,,1.0,10919223090,1,275350,False,,אשקלון,שריג,,2753-50-1,2753/50,13571.42857142857,31.6957552729,34.5789876846,2021
2021-11-15,2021-11-15,"הנמל 3, אשקלון",הנמל 3,1938-424-31,דירה,3.0,חמש עשרה,78.0,1650000,1.0,פרירון עלית,2021.0,,19.0,10919132550,1,1938424,False,,אשקלון,הנמל,,1938-424-31,1938/424,21153.846153846152,31.6796327421,34.5566676609,2021
2021-11-15,2021-11-15,"בר-כוכבא 39, אשקלון",בר-כוכבא 39,2871-99-32,דירה בבית קומות,3.0,שלישית,69.0,1050000,,,1972.0,,5.0,10919176200,1,287199,False,37% ב 5.1 שנים,אשקלון,בר כוכבא,7.25,2871-99-32,2871/99,15217.391304347826,31.6834276459,34.5675631136,2021
2021-11-14,2021-11-14,"מנשה 11, אשקלון",מנשה 11,1207-194-2,קוטג' דו משפחתי,4.0,קרקע,109.0,1980000,,,1960.0,,,10919440620,1,1207194,False,36% ב 5.5 שנים,אשקלון,מנשה,6.55,1207-194-2,1207/194,18165.1376146789,31.654898754,34.5854607347,2021
2021-11-14,2021-11-14,"בנימין 22, אשקלון",בנימין 22,1658-77-26,דירה בבית קומות,2.0,שלישית,44.0,183000,,,1970.0,,4.0,10921896090,1,165877,False,,אשקלון,בנימין,,1658-77-26,1658/77,4159.090909090909,31.6509560279,34.5873407135,2021
2021-11-14,2021-11-14,"אצ""ל 41, אשקלון","אצ""ל 41",2556-11-38,דירה בבית קומות,4.0,ראשונה,99.34,1320000,,,2003.0,,9.0,10921246290,1,255611,False,14% ב 6.5 שנים,אשקלון,"אצ""ל",2.15,2556-11-38,2556/11,13287.698812160255,31.6864237645,34.5761188512,2021
2021-11-14,2021-11-14,"השופטים 18, אשקלון",השופטים 18,1655-70-1,דירה בבית קומות,2.0,קרקע,44.0,1200000,,,1970.0,,1.0,10921815180,1,165570,False,11% ב 4.9 שנים,אשקלון,השופטים,2.24,1655-70-1,1655/70,27272.727272727272,31.6550526963,34.579752417,2021
2021-11-14,2021-11-14,"צבי סגל 26, אשקלון",צבי סגל 26,1937-257-2,קוטג' חד משפחתי,5.0,ראשונה,190.0,3200000,,,1991.0,,1.0,10918763460,1,1937257,False,,אשקלון,סגל צבי,,1937-257-2,1937/257,16842.105263157893,31.68461913,34.569969282,2021
2021-11-14,2021-11-14,"אליעזר מילרוד 5, אשקלון",אליעזר מילרוד 5,1997-29-2,דירה בבית קומות,3.0,ראשונה,42.0,213000,,,1970.0,,4.0,10921895370,1,199729,False,,אשקלון,מילרוד אליעזר,,1997-29-2,1997/29,5071.428571428572,31.6500845093,34.5601436808,2021
2021-11-14,2021-11-14,"בן-גוריון 275, אשקלון",בן-גוריון 275,1963-78-55,דירה בבית קומות,4.0,רביעית,69.9,830000,,,1960.0,,4.0,10918230300,1,196378,False,,אשקלון,בן גוריון,,1963-78-55,1963/78,11874.105865522171,31.6628063362,34.5674341892,2021
2021-11-14,2021-11-14,"בר-כוכבא 39, אשקלון",בר-כוכבא 39,2871-99-45,דירה בבית קומות,3.0,שניה,69.0,1020000,,,1972.0,,5.0,10918416690,1,287199,False,56% ב 6.7 שנים,אשקלון,בר כוכבא,8.36,2871-99-45,2871/99,14782.608695652174,31.6834276459,34.5675631136,2021
2021-11-14,2021-11-14,"יהודה הלוי 11, אשקלון",יהודה הלוי 11,1964-38-11,דירה בבית קומות,3.0,שניה,50.1,795000,,,1970.0,,3.0,10919090880,1,196438,False,59% ב 5.4 שנים,אשקלון,יהודה הלוי,10.93,1964-38-11,1964/38,15868.263473053892,31.657329167,34.5634053235,2021
2021-11-14,2021-11-14,"מרדכי אנילביץ 435, אשקלון",מרדכי אנילביץ 435,1996-89-14,דירה בבית קומות,3.0,שלישית,64.2,775000,,,1970.0,,4.0,10921815900,1,199689,False,,אשקלון,אנילביץ מרדכי,,1996-89-14,1996/89,12071.65109034268,31.652932505,34.5596711281,2021
2021-11-14,2021-11-14,"עמיעוז 11, אשקלון",עמיעוז 11,2843-22-21,דירת גן,4.0,קרקע,75.15,1280000,,,1998.0,,4.0,10919878830,1,284322,False,292% ב 14.1 שנים,אשקלון,עמיעוז,20.71,2843-22-21,2843/22,17032.601463739185,31.6485072064,34.5569376918,2021
2021-11-14,2021-11-14,"הדובדבן 19, אשקלון",הדובדבן 19,1335-19-3,קוטג' דו משפחתי,5.0,ראשונה,150.0,2950000,,,1990.0,,1.0,10918651410,1,133519,False,,אשקלון,הדובדבן,,1335-19-3,1335/19,19666.666666666668,31.6755572791,34.5727028715,2021
2021-11-14,2021-11-14,"איילה 19, אשקלון",איילה 19,1296-12-9,דירה בבית קומות,4.0,שלישית,80.0,1120000,,,1990.0,,4.0,10921671900,1,129612,False,33% ב 6.4 שנים,אשקלון,איילה,5.16,1296-12-9,1296/12,14000.0,31.6619842881,34.5752215428,2021
2021-11-14,2021-11-14,"הציונות 76, אשקלון",הציונות 76,2557-7-24,דירה בבית קומות,5.0,שישית,108.25,1610000,,,2005.0,,7.0,10921399380,1,25577,False,29% ב 6.3 שנים,אשקלון,נבון אופירה,4.6,2557-7-24,2557/7,14872.9792147806,31.6872524378,34.5813422138,2021
2021-11-14,2021-11-14,"ברייר דב 7, אשקלון",ברייר דב 7,1932-72-65,דירה בבית קומות,4.0,שמינית,113.0,1300000,,,2008.0,,11.0,10918116810,1,193272,False,,אשקלון,ברייר דב,,1932-72-65,1932/72,11504.424778761062,31.6707478025,34.568352655,2021
2021-11-11,2021-11-11,,,1225-6-156,דירה בבית קומות,5.0,תשיעית,164.0,2180000,,,2011.0,,,10918894770,2,12256,False,,אשקלון,לוחמי הגטאות,,1225-6-156,1225/6,13292.682926829268,,,2021
2021-11-11,2021-11-11,"הפלמ""ח 14, אשקלון","הפלמ""ח 14",1228-96-113,דירה בבית קומות,4.0,קומה ‎4‏,83.3,1150000,,,1998.0,,9.0,10919122920,1,122896,False,,אשקלון,"הפלמ""ח",,1228-96-113,1228/96,13805.522208883554,31.6642210799,34.5835160995,2021
2021-11-11,2021-11-11,"יצחק חכימי 5, אשקלון",יצחק חכימי 5,1935-190-10,דירה בבית קומות,5.0,שניה,125.0,1520000,,,2003.0,,2.0,10920024990,1,1935190,False,,אשקלון,חכימי יצחק,,1935-190-10,1935/190,12160.0,31.6926342501,34.5762548187,2021
2021-11-11,2021-11-11,"דובב 13, אשקלון",דובב 13,3049-22-8,דירה בבית קומות,4.0,שניה,81.05,1030000,,,1995.0,,4.0,10919658960,1,304922,False,51% ב 9.3 שנים,אשקלון,דובב,5.48,3049-22-8,3049/22,12708.20481184454,31.6781889145,34.5809015803,2021
2021-11-11,2021-11-11,"סיוון 5, אשקלון",סיוון 5,1353-12-7,דירה בבית קומות,2.0,שלישית,45.2,813000,,,1993.0,,3.0,10918199880,1,135312,False,227% ב 17.2 שנים,אשקלון,סיון,13.2,1353-12-7,1353/12,17986.725663716814,31.6703080796,34.5815688678,2021
2021-11-11,2021-11-11,"שלמה כהן 12, אשקלון",שלמה כהן 12,3062-22-45,דירה בבית קומות,5.0,קומה ‎5‏,98.5,1480000,,,2008.0,,8.0,10919752470,1,306222,False,55% ב 8.5 שנים,אשקלון,כהן שלמה,6.47,3062-22-45,3062/22,15025.380710659898,31.6781326305,34.5777081864,2021
2021-11-11,2021-11-11,"מגידו 4, אשקלון",מגידו 4,2507-13-43,דירה בבית קומות,4.0,רביעית,82.85,1140000,,,2000.0,,9.0,10919006190,1,250713,False,160% ב 14.1 שנים,אשקלון,מגידו,11.35,2507-13-43,2507/13,13759.80687990344,31.6667840487,34.5754035197,2021
2021-11-11,2021-11-11,"עולי הגרדום 60, אשקלון",עולי הגרדום 60,3012-30-7,דירה בבית קומות,3.0,קרקע,68.6,620000,,,1976.0,,4.0,10917974970,1,301230,False,,אשקלון,עולי הגרדום,,3012-30-7,3012/30,9037.900874635568,31.6481746918,34.5545553676,2021
2021-11-11,2021-11-11,"מונטיפיורי 15, אשקלון",מונטיפיורי 15,2904-55-81,דירה בבית קומות,5.0,שלישית,122.0,1779000,,,2020.0,,6.0,10918343340,1,290455,False,,אשקלון,מונטיפיורי,,2904-55-81,2904/55,14581.967213114754,31.681553392,34.577469074,2021
2021-11-11,2021-11-11,"בני עקיבא 7, אשקלון",בני עקיבא 7,2390-16-9,דירה בבית קומות,4.0,ראשונה,67.9,1005000,,,1992.0,,2.0,10918098090,1,239016,False,,אשקלון,בני עקיבא,,2390-16-9,2390/16,14801.178203240055,31.6595767714,34.5700415433,2021
2021-11-11,2021-11-11,"אשתאול 1, אשקלון",אשתאול 1,2869-28-163,משרד,,ראשונה,400.0,2500000,,,2000.0,,20.0,10921250790,1,286928,False,,אשקלון,אשתאול,,2869-28-163,2869/28,6250.0,31.667375096,34.5578269375,2021
2021-11-10,2021-10-11,"יעקב מרידור 11, אשקלון",יעקב מרידור 11,2904-81-14,דירה בבית קומות,4.0,קומה ‎4‏,102.9,1458000,,,2015.0,,10.0,10916088300,1,290481,False,1% ב 5.1 שנים,אשקלון,מרידור יעקב,0.2,2904-81-14,2904/81,14169.096209912535,31.680192209,34.5780865821,2021
2021-11-10,2021-10-11,"פקיעין 14, אשקלון",פקיעין 14,2508-28-31,דירה בבית קומות,4.0,רביעית,85.35,1140000,,,2002.0,,8.0,10916340840,1,250828,False,,אשקלון,פקיעין,,2508-28-31,2508/28,13356.76625659051,31.6690335094,34.5769063714,2021
2021-11-10,2021-10-11,"גדעון בן-יואש 40, אשקלון",גדעון בן-יואש 40,1937-422-21,דירה בבית קומות,4.0,שישית,107.9,1000000,,,1980.0,,6.0,10916111340,1,1937422,False,,אשקלון,גדעון בן יואש,,1937-422-21,1937/422,9267.840593141798,31.6900814908,34.5720715428,2021
2021-11-10,2021-10-11,"מגידו 7, אשקלון",מגידו 7,2507-7-28,דירה בבית קומות,4.0,שביעית,90.2,1315000,,,2005.0,,14.0,10915013250,1,25077,False,60% ב 9 שנים,אשקלון,מגידו,6.67,2507-7-28,2507/7,14578.71396895787,31.6673218402,34.5747528889,2021
2021-11-10,2021-10-11,"הסנה 4, אשקלון",הסנה 4,1942-157-39,דירה בבית קומות,2.0,תשיעית,44.08,900000,,,2005.0,,,10917622260,1,1942157,False,0% ב 4.1 שנים,אשקלון,הסנה,0.0,1942-157-39,1942/157,20417.42286751361,31.6679442274,34.5647038996,2021
2021-11-10,2021-10-11,"תירוש 21, אשקלון",תירוש 21,2753-132-27,דירה בבית קומות,4.0,ראשונה,107.8,1310000,,,2008.0,,10.0,10917334170,1,2753132,False,19% ב 6 שנים,אשקלון,תירוש,3.17,2753-132-27,2753/132,12152.133580705007,31.6950938156,34.5783057976,2021
2021-11-10,2021-10-11,"השקמה 16, אשקלון",השקמה 16,1960-40-2,קוטג' דו משפחתי,6.0,ראשונה,83.45,3650000,,,1956.0,,1.0,10915330320,1,196040,False,250% ב 13.2 שנים,אשקלון,השקמה,18.94,1960-40-2,1960/40,43738.765727980826,31.6752587748,34.564356457,2021
2021-11-10,2021-10-11,"בדולח 6, אשקלון",בדולח 6,1937-164-1,דירה בבית קומות,5.0,ראשונה,178.0,2800000,,,1980.0,,1.0,10915552350,1,1937164,False,,אשקלון,בדולח,,1937-164-1,1937/164,15730.337078651686,31.6915978314,34.5699167037,2021
2021-11-10,2021-10-11,"אליעזר מילרוד 6, אשקלון",אליעזר מילרוד 6,1997-22-22,דירה בבית קומות,3.0,שלישית,38.7,680000,,,1970.0,,4.0,10915024950,1,199722,False,74% ב 8.5 שנים,אשקלון,מילרוד אליעזר,8.71,1997-22-22,1997/22,17571.059431524547,31.6519100967,34.5609302527,2021
2021-11-10,2021-10-11,"העונות 1, אשקלון",העונות 1,2856-41-29,דירה בבית קומות,5.0,שמינית,113.6,1620000,,,2011.0,,10.0,10915383600,1,285641,False,4% ב 3.5 שנים,אשקלון,העונות,1.14,2856-41-29,2856/41,14260.56338028169,31.6709094486,34.5747874775,2021
2021-11-10,2021-10-11,"הציונות 63, אשקלון",הציונות 63,2557-49-38,דירת גן,5.0,קרקע,105.2,2240000,,,2007.0,,9.0,10915109820,1,255749,False,37% ב 5.3 שנים,אשקלון,הציונות,6.98,2557-49-38,2557/49,21292.77566539924,31.687315494,34.5805544564,2021
2021-11-10,2021-10-11,"שלמה כהן 8, אשקלון",שלמה כהן 8,3062-21-39,דירה בבית קומות,4.0,קומה ‎0‏,90.7,1440000,,,2006.0,,10.0,10915187670,1,306221,False,40% ב 7.7 שנים,אשקלון,כהן שלמה,5.19,3062-21-39,3062/21,15876.51598676957,31.6786969715,34.5771789743,2021
2021-11-10,2021-10-11,"יוספטל 5, אשקלון",יוספטל 5,1965-21-27,דירה בבית קומות,3.0,רביעית,49.5,665000,,,1970.0,,4.0,10915950240,1,196521,False,23% ב 4.7 שנים,אשקלון,יוספטל,4.89,1965-21-27,1965/21,13434.343434343436,31.6544460247,34.5626768598,2021
2021-11-10,2021-10-11,"קדש 23, אשקלון",קדש 23,2556-2-53,דירה בבית קומות,5.0,חמישית,133.82,1700000,,,2010.0,,9.0,10915145280,1,25562,False,71% ב 10.3 שנים,אשקלון,קדש,6.89,2556-2-53,2556/2,12703.631744133912,31.6902651735,34.5785226356,2021
2021-11-08,2021-08-11,"מגידו 8, אשקלון",מגידו 8,2507-11-41,דירה בבית קומות,3.0,קרקע,69.1,1200000,,,2000.0,,7.0,10915106040,1,250711,False,49% ב 7.2 שנים,אשקלון,מגידו,6.81,2507-11-41,2507/11,17366.136034732273,31.6682058038,34.5765726364,2021
2021-11-08,2021-08-11,"בלפור 39, אשקלון",בלפור 39,2557-44-15,דירה בבית קומות,5.0,רביעית,108.85,1470000,,,2008.0,,9.0,10910244870,1,255744,False,146% ב 13 שנים,אשקלון,בלפור,11.23,2557-44-15,2557/44,13504.823151125403,31.689709805,34.580359485,2021
2021-11-08,2021-08-11,"יונתן נתניהו 2, אשקלון",יונתן נתניהו 2,2556-16-4,דירה בבית קומות,4.0,ראשונה,112.35,1420000,,,2009.0,,13.0,10910066580,1,255616,False,54% ב 9 שנים,אשקלון,נתניהו יונתן,6.0,2556-16-4,2556/16,12639.074321317312,31.6897246031,34.5777787226,2021
2021-11-08,2021-08-11,"מגידו 4, אשקלון",מגידו 4,2507-13-35,דירה בבית קומות,5.0,שביעית +שמינית,134.35,1525000,,,2000.0,,9.0,10910736270,1,250713,False,154% ב 17.7 שנים,אשקלון,מגידו,8.7,2507-13-35,2507/13,11350.949013770003,31.6667840487,34.5754035197,2021
2021-11-08,2021-08-11,,,1936-155-2,קרקע למגורים,,,601.0,3400000,,,,,,10911804030,2,1936155,False,,אשקלון,המפל,,1936-155-2,1936/155,5657.237936772047,31.6973444611,34.5715980399,2021
2021-11-08,2021-08-11,"ניסן 24, אשקלון",ניסן 24,2855-53-1,דירה בבית קומות,5.0,שניה,157.0,1600000,,,2012.0,,3.0,10910215800,1,285553,False,,אשקלון,ניסן,,2855-53-1,2855/53,10191.082802547771,31.6732561275,34.5768549191,2021
2021-11-08,2021-08-11,,,2556-4-89,דירה בבית קומות,5.0,עשרים,133.0,2150000,,,2020.0,,,10911345120,2,25564,False,,אשקלון,בלפור,,2556-4-89,2556/4,16165.413533834586,31.6905337687,34.5769245426,2021
2021-11-08,2021-08-11,"שפינוזה 17, אשקלון",שפינוזה 17,1963-66-7,דירה בבית קומות,3.0,שניה,40.7,700000,,,1960.0,,3.0,10910552130,1,196366,False,,אשקלון,שפינוזה,,1963-66-7,1963/66,17199.0171990172,31.6612174031,34.5664012044,2021
2021-11-08,2021-08-11,"משה יוליש 4, אשקלון",משה יוליש 4,3019-6-32,דירה בבית קומות,3.0,רביעית,62.6,735000,,,1970.0,,4.0,10910163780,1,30196,False,,אשקלון,יוליש משה,,3019-6-32,3019/6,11741.214057507988,31.656454408,34.555057402,2021
2021-11-08,2021-08-11,"רמב""ם 14, אשקלון","רמב""ם 14",1201-122-18,דירת גן,3.0,קומה ‎0‏,66.0,1165000,,,1996.0,,4.0,10910751930,1,1201122,False,49% ב 7 שנים,אשקלון,"רמב""ם",7.0,1201-122-18,1201/122,17651.515151515152,31.6720039589,34.5894869874,2021
2021-11-08,2021-08-11,"ביכורי ענבים 27, אשקלון",ביכורי ענבים 27,2754-155-41,דירה בבית קומות,4.0,חמישית,112.0,1550000,,,2014.0,,10.0,10910501010,1,2754155,False,,אשקלון,ביכורי ענבים,,2754-155-41,2754/155,13839.285714285714,31.6905818725,34.5849589842,2021
2021-11-07,2021-07-11,"בן-גוריון 8, אשקלון",בן-גוריון 8,1962-111-18,דירה בבית קומות,2.0,שלישית,34.0,665000,,,1970.0,,3.0,10908773910,1,1962111,False,,אשקלון,בן גוריון,,1962-111-18,1962/111,19558.82352941177,31.6631858903,34.564079358,2021
2021-11-07,2021-07-11,"מונטיפיורי 15, אשקלון",מונטיפיורי 15,2904-55-4,דירה בבית קומות,5.0,אחת עשרה,122.0,1895849,1.0,,2020.0,,6.0,10907002440,1,290455,False,,אשקלון,מונטיפיורי,,2904-55-4,2904/55,15539.745901639344,31.681553392,34.577469074,2021
2021-11-07,2021-07-11,"עולי הגרדום 21, אשקלון",עולי הגרדום 21,2843-32-40,דירה בבית קומות,1.0,ראשונה,92.0,948000,,,1996.0,,3.0,10907028270,1,284332,False,,אשקלון,עולי הגרדום,,2843-32-40,2843/32,10304.347826086956,31.646793218,34.5562831238,2021
2021-11-07,2021-07-11,"חודשי השנה 16, אשקלון",חודשי השנה 16,2855-46-55,דירה בבית קומות,4.0,חמישית,104.47,1385000,,,2012.0,,10.0,10907011890,1,285546,False,66% ב 9 שנים,אשקלון,חודשי השנה,7.33,2855-46-55,2855/46,13257.39446731119,31.6741898806,34.5773232351,2021
2021-11-07,2021-07-11,"ביאליק 43, אשקלון",ביאליק 43,1965-139-11,דירה בבית קומות,2.0,שניה,42.0,680000,,,1960.0,,3.0,10907090820,1,1965139,False,,אשקלון,ביאליק,,1965-139-11,1965/139,16190.47619047619,31.6554952467,34.5641841119,2021
2021-11-07,2021-07-11,"אנה פרנק 8, אשקלון",אנה פרנק 8,2880-1-16,דירה בבית קומות,3.0,קומה ‎3‏,60.3,795000,,,1992.0,,4.0,10907186490,1,28801,False,,אשקלון,אנה פרנק,,2880-1-16,2880/1,13184.07960199005,31.6712698854,34.5855384049,2021
2021-11-07,2021-07-11,"שלום עליכם 3, אשקלון",שלום עליכם 3,1964-26-1,דירה בבית קומות,2.0,ראשונה,26.5,550000,,,1970.0,,4.0,10907236980,1,196426,False,,אשקלון,שלום עליכם,,1964-26-1,1964/26,20754.716981132075,31.6572436374,34.5641470039,2021
2021-11-06,2021-06-11,"אריה בן-אליעזר 9, אשקלון",אריה בן-אליעזר 9,1934-100-48,דירה בבית קומות,5.0,תשיעית,138.3,1600000,,,1992.0,,9.0,10904206140,1,1934100,False,156% ב 18.7 שנים,אשקלון,בן אליעזר אריה,8.34,1934-100-48,1934/100,11569.052783803323,31.6842281256,34.5764964471,2021
2021-11-06,2021-06-11,"אריה בן-אליעזר 5, אשקלון",אריה בן-אליעזר 5,1934-98-4,דירה בבית קומות,5.0,תשיעית,170.0,1440000,,,1992.0,,3.0,10906740090,1,193498,False,,אשקלון,בן אליעזר אריה,,1934-98-4,1934/98,8470.588235294117,31.6849029271,34.5767754973,2021
2021-11-06,2021-06-11,"ההסתדרות 28, אשקלון",ההסתדרות 28,3019-18-31,דירה בבית קומות,3.0,רביעית,59.0,710000,,,1970.0,,5.0,10904665680,1,301918,False,69% ב 6.8 שנים,אשקלון,ההסתדרות,10.15,3019-18-31,3019/18,12033.898305084746,31.6563070349,34.5582152193,2021
2021-11-06,2021-06-11,"בני עקיבא 11, אשקלון",בני עקיבא 11,2390-9-28,דירה בבית קומות,3.0,שלישית,60.53,870000,,,1992.0,,6.0,10903960170,1,23909,False,,אשקלון,בני עקיבא,,2390-9-28,2390/9,14373.038162894432,31.6592326092,34.5707112811,2021
2021-11-06,2021-06-11,"הבוסתן 5, אשקלון",הבוסתן 5,2753-145-200,דירה בבית קומות,4.0,שישית,113.8,1450000,,,2010.0,,11.0,10904086530,1,2753145,False,64% ב 10.8 שנים,אשקלון,הבוסתן,5.93,2753-145-200,2753/145,12741.65202108963,31.6911827399,34.5780591139,2021
2021-11-05,2021-05-11,"אב""א אחימאיר 107, אשקלון","אב""א אחימאיר 107",1938-53-8,דירה בבית קומות,3.0,שניה,82.0,1000000,,,1970.0,,4.0,10903563000,1,193853,False,,אשקלון,"אחימאיר אב""א",,1938-53-8,1938/53,12195.121951219511,31.6848570354,34.5673244093,2021
