DEALDATE,DEALDATETIME,FULLADRESS,DISPLAYADRESS,GUSH,DEALNATUREDESCRIPTION,ASSETROOMNUM,FLOORNO,DEALNATURE,DEALAMOUNT,NEWPROJECTTEXT,PROJECTNAME,BUILDINGYEAR,YEARBUILT,BUILDINGFLOORS,KEYVALUE,TYPE,POLYGON_ID,TREND_IS_NEGATIVE,TREND_FORMAT,city_name,street,presentage per year,GUSH - Copy,Gush_Helka,Price per sqm,lat,lon,Year
2010-12-31,2010-12-31,"אוסטרובסקי 37, רעננה",אוסטרובסקי 37,6583-386-10,דירה בבית קומות,4.0,שלישית,110.4,1906000,,,1981.0,,5.0,8214537684,1,6583386,False,69% ב 3.1 שנים,רעננה,אוסטרובסקי,22.26,6583-386-10,6583/386,17264.492753623188,32.1775931458,34.8713516151,2010
2010-12-31,2010-12-31,"ויצמן 131, רעננה",ויצמן 131,7654-209-39,דירה בבית קומות,3.0,שניה,60.0,1017000,,,1973.0,,4.0,8216369850,1,7654209,False,,רעננה,ויצמן,,7654-209-39,7654/209,16950.0,,,2010
2010-12-30,2010-12-30,"ויצמן 129, רעננה",ויצמן 129,7654-210-20,דירה בבית קומות,3.0,שלישית,60.0,1150000,,,2020.0,,3.0,8215363080,1,7654210,False,,רעננה,ויצמן,,7654-210-20,7654/210,19166.666666666668,,,2010
2010-12-30,2010-12-30,"השחר 32, רעננה",השחר 32,6579-694-2,קוטג' דו משפחתי,6.0,שניה,160.0,4800000,,,1992.0,,1.0,8214176860,1,6579694,False,,רעננה,השחר,,6579-694-2,6579/694,30000.0,32.1868022456,34.8585404694,2010
2010-12-30,2010-12-30,"ההגנה 31, רעננה",ההגנה 31,7655-41-1,קרקע למגורים,,,637.0,6650000,,,,,,8215455950,1,765541,False,,רעננה,ההגנה,,7655-41-1,7655/41,10439.56043956044,32.1879496096,34.8747120097,2010
2010-12-30,2010-12-30,"ארלוזורוב 12, רעננה",ארלוזורוב 12,6586-264-5,דירה בבית קומות,4.0,שניה,107.0,2050000,,,1999.0,,4.0,8214434528,1,6586264,False,,רעננה,ארלוזורוב,,6586-264-5,6586/264,19158.8785046729,32.1778001957,34.8782456974,2010
2010-12-30,2010-12-30,"אחוזה 100, רעננה",אחוזה 100,6580-590-51,משרד,,ראשונה,,190000,,,1996.0,,4.0,8215875308,1,6580590,False,,רעננה,אחוזה,,6580-590-51,6580/590,,32.1802763152,34.8772285936,2010
2010-12-30,2010-12-30,"בר-אילן 36, רעננה",בר-אילן 36,6580-1082-1,קומבינציה,,,2300.0,9288000,,,0.0,,4.0,8216911382,1,65801082,False,,רעננה,בר אילן,,6580-1082-1,6580/1082,4038.2608695652175,32.1837665925,34.8748483214,2010
2010-12-30,2010-12-30,"העצמאות 16, רעננה",העצמאות 16,7655-45-2,קרקע למגורים,,,601.0,6300000,,,1959.0,,1.0,8216038922,1,765545,False,,רעננה,העצמאות,,7655-45-2,7655/45,10482.52911813644,32.187588772,34.8750217225,2010
2010-12-29,2010-12-29,"יערה 14, רעננה",יערה 14,6578-554-2,דירה בבית קומות,6.0,קרקע,131.3,3388000,,,2010.0,,4.0,8216073110,1,6578554,False,,רעננה,יערה,,6578-554-2,6578/554,25803.5034272658,32.1849006562,34.8874059664,2010
2010-12-29,2010-12-29,"אזולאי 9, רעננה",אזולאי 9,7654-257-1,קרקע למגורים,,,529.0,3225000,,,,,,8215371738,1,7654257,False,,רעננה,אזולאי,,7654-257-1,7654/257,6096.40831758034,32.1912218931,34.8678551408,2010
2010-12-29,2010-12-29,"אחד העם 49, רעננה",אחד העם 49,6581-142-3,קוטג' טורי,4.5,"קרקע,א,ב,",123.15,2200000,,,1977.0,,2.0,8215019498,1,6581142,False,,רעננה,אחד העם,,6581-142-3,6581/142,17864.393016646365,32.1837656168,34.8837491576,2010
2010-12-28,2010-12-28,"אחוזה 199, רעננה",אחוזה 199,6582-198-15,דירה בבית קומות,4.0,רביעית,98.63,1680000,,,1984.0,,5.0,8214084730,1,6582198,False,64% ב 7.5 שנים,רעננה,אחוזה,8.53,6582-198-15,6582/198,17033.3569907736,32.1822415837,34.8646241008,2010
2010-12-28,2010-12-28,"מוצקין 19, רעננה",מוצקין 19,6580-155-2,דירה בבית קומות,4.0,ראשונה,105.0,1350000,,,1970.0,,2.0,8214576830,1,6580155,False,110% ב 5 שנים,רעננה,מוצקין,22.0,6580-155-2,6580/155,12857.142857142857,32.1847990093,34.868770372,2010
2010-12-28,2010-12-28,"קזן 11, רעננה",קזן 11,6586-403-2,דירה בבית קומות,5.0,ראשונה,110.68,1750000,,,1980.0,,2.0,8214711806,1,6586403,False,,רעננה,קזן,,6586-403-2,6586/403,15811.348030357787,32.1779307149,34.8814044554,2010
2010-12-28,2010-12-28,"שברץ 6, רעננה",שברץ 6,6581-547-29,דירה בבית קומות,4.0,שלישית,91.32,1700000,,,1984.0,,6.0,8214189144,1,6581547,False,28% ב 1.4 שנים,רעננה,שברץ,20.0,6581-547-29,6581/547,18615.856329391157,32.1800406004,34.8819443165,2010
2010-12-28,2010-12-28,"בגין 10, רעננה",בגין 10,7649-210-1,דירה בבית קומות,4.0,קרקע,80.64,1640000,,,1995.0,,3.0,8214712398,1,7649210,False,,רעננה,בגין מנחם,,7649-210-1,7649/210,20337.301587301587,32.194175922,34.851322868,2010
2010-12-28,2010-12-28,"רמב""ם 7, רעננה","רמב""ם 7",6586-68-2,דירה בבית קומות,4.0,ראשונה,90.0,1600000,,,1976.0,,6.0,8214504162,1,658668,False,78% ב 9.7 שנים,רעננה,"רמב""ם",8.04,6586-68-2,6586/68,17777.777777777777,32.1790216168,34.8774683411,2010
2010-12-28,2010-12-28,"חנקין 27, רעננה",חנקין 27,6580-55-16,דירה בבית קומות,4.0,רביעית,99.51,1575000,,,1976.0,,6.0,8214241018,1,658055,False,,רעננה,חנקין,,6580-55-16,6580/55,15827.55501959602,32.1834018225,34.8774464549,2010
2010-12-27,2010-12-27,"הסחלב 13, רעננה",הסחלב 13,7651-515-3,דירה בבית קומות,4.0,מרתף + קרקע,97.86,2150000,,,1999.0,,3.0,8214270322,1,7651515,False,,רעננה,הסחלב,,7651-515-3,7651/515,21970.161455139994,32.1795829022,34.8579338684,2010
2010-12-27,2010-12-27,"ידין יגאל 2, רעננה",ידין יגאל 2,6582-223-6,דירה בבית קומות,4.0,שניה,97.75,1540000,,,1988.0,,5.0,8214098198,1,6582223,False,,רעננה,ידין יגאל,,6582-223-6,6582/223,15754.475703324808,32.1824612916,34.8632880205,2010
2010-12-27,2010-12-27,"התעשייה 27, רעננה",התעשייה 27,7656-265-1,תעשיה,,,1005.0,16949000,,,1998.0,,,8214610426,1,7656265,False,,רעננה,התעשיה,,7656-265-1,7656/265,16864.67661691542,32.1958442045,34.8761913132,2010
2010-12-27,2010-12-27,"הרקפת 3, רעננה",הרקפת 3,6578-495-30,דירה בבית קומות,4.0,ראשונה,115.0,1170000,,,1998.0,,3.0,8216509784,1,6578495,False,,רעננה,הרקפת,,6578-495-30,6578/495,10173.91304347826,32.1893717708,34.8868308617,2010
2010-12-27,2010-12-27,"הגליל 37, רעננה",הגליל 37,6580-252-11,דירה בבית קומות,5.0,שלישית,125.0,2872000,1.0,הגליל 37ב',1970.0,2010.0,4.0,8214950530,1,6580252,False,,רעננה,הגליל,,6580-252-11,6580/252,22976.0,32.1827904084,34.8785702364,2010
2010-12-26,2010-12-26,"המעלות 3, רעננה",המעלות 3,6586-470-8,דירה בבית קומות,3.0,ג',76.35,1400000,,,2021.0,,3.0,8214073852,1,6586470,False,,רעננה,המעלות,,6586-470-8,6586/470,18336.6077275704,32.1797623465,34.875142466,2010
2010-12-22,2010-12-22,"אברהם שלונסקי 3, רעננה",אברהם שלונסקי 3,7654-460-21,דירה בבית קומות,6.0,שלישית,148.52,3250000,,,1996.0,,3.0,8158933492,1,7654460,False,,רעננה,שלונסקי אברהם,,7654-460-21,7654/460,21882.5747374091,32.1911535259,34.8625060772,2010
2010-12-22,2010-12-22,"השקמה 7, רעננה",השקמה 7,6578-467-1,קוטג' דו משפחתי,7.0,שניה,250.0,10250000,,,1995.0,,2.0,8214001036,1,6578467,False,,רעננה,השקמה,,6578-467-1,6578/467,41000.0,32.1854243835,34.8860839868,2010
2010-12-22,2010-12-22,"בן-זכאי 9, רעננה",בן-זכאי 9,7656-86-2,קרקע למגורים,,ראשונה,89.33,2780000,,,,,1.0,8156440062,1,765686,False,,רעננה,בן זכאי,,7656-86-2,7656/86,31120.56420015672,32.1955473967,34.8729626087,2010
2010-12-22,2010-12-22,"מנדלי 16, רעננה",מנדלי 16,6583-442-2,קוטג' טורי,6.0,קרקע וראשונה,164.0,3900000,,,1979.0,,2.0,8215582268,1,6583442,False,122% ב 11.4 שנים,רעננה,מנדלי,10.7,6583-442-2,6583/442,23780.48780487805,32.176835009,34.8655994459,2010
2010-12-21,2010-12-21,"רחל המשוררת 1, רעננה",רחל המשוררת 1,7654-438-17,דירה בבית קומות,5.0,ראשונה,119.75,2530000,,,1995.0,,3.0,8215816182,1,7654438,False,,רעננה,רחל המשוררת,,7654-438-17,7654/438,21127.348643006266,32.1913211034,34.8617231303,2010
2010-12-21,2010-12-21,"שרה אהרונסון 16, רעננה",שרה אהרונסון 16,6582-352-24,דירה בבית קומות,5.0,קרקע+ק. תחתונה,118.0,2575000,,,2000.0,,2.0,8159164890,1,6582352,False,,רעננה,אהרונסון שרה,,6582-352-24,6582/352,21822.03389830509,32.1787254513,34.8609302045,2010
2010-12-21,2010-12-21,"יהודה הלוי 31, רעננה",יהודה הלוי 31,6583-541-0,בית בודד,6.0,שניה,1081.0,2525000,,,2000.0,,2.0,8214820956,1,6583541,False,,רעננה,יהודה הלוי,,6583-541-0,6583/541,2335.800185013876,32.1791739072,34.8659233058,2010
2010-12-21,2010-12-21,"נחשון 1, רעננה",נחשון 1,6581-753-1,קוטג' טורי,6.0,שניה,270.0,8400000,,,2000.0,,1.0,8214018204,1,6581753,False,,רעננה,נחשון,,6581-753-1,6581/753,31111.11111111111,32.1848364343,34.8817667073,2010
2010-12-19,2010-12-19,"הגליל 34, רעננה",הגליל 34,6580-908-5,דירה בבית קומות,4.0,שניה,90.0,1900000,,,1984.0,,3.0,8158753376,1,6580908,False,,רעננה,הגליל,,6580-908-5,6580/908,21111.11111111111,32.182590622,34.879267936,2010
2010-12-16,2010-12-16,"משה סנה 10, רעננה",משה סנה 10,7649-203-14,דירה בבית קומות,5.0,ראשונה,105.37,2150000,,,1995.0,,2.0,8158727698,1,7649203,False,,רעננה,סנה משה,,7649-203-14,7649/203,20404.2896460093,32.1949910676,34.8511610039,2010
2010-12-16,2010-12-16,"חביבה רייק 13, רעננה",חביבה רייק 13,7654-345-2,קוטג' דו משפחתי,6.0,שניה,250.0,9250000,,,1985.0,,1.0,8215762532,1,7654345,False,,רעננה,רייק חביבה,,7654-345-2,7654/345,37000.0,32.1891589032,34.8687786066,2010
2010-12-15,2010-12-15,"קוממיות 2, רעננה",קוממיות 2,7655-367-13,דירה בבית קומות,5.0,מרתף+שלישית,123.3,2900000,,,1996.0,,3.0,8215898026,1,7655367,False,,רעננה,קוממיות,,7655-367-13,7655/367,23519.8702351987,32.1891325293,34.8748296029,2010
2010-12-15,2010-12-15,"גורדון 31, רעננה",גורדון 31,6582-114-2,קוטג' דו משפחתי,6.0,שניה,220.0,5100000,,,1987.0,,1.0,8158816202,1,6582114,False,,רעננה,גורדון,,6582-114-2,6582/114,23181.81818181818,32.1782459606,34.8643728244,2010
2010-12-13,2010-12-13,"יהודה הלוי 22, רעננה",יהודה הלוי 22,6583-488-4,דירה בבית קומות,6.0,קרקע+א+ב+ג,159.13,2666000,,,1980.0,,2.0,8158998760,1,6583488,False,,רעננה,יהודה הלוי,,6583-488-4,6583/488,16753.597687425376,32.1801481894,34.8654633949,2010
2010-12-13,2010-12-13,"התמר 5, רעננה",התמר 5,7651-125-2,בית בודד,6.0,ראשונה,210.3,5500000,,,1980.0,,1.0,8214538276,1,7651125,False,,רעננה,התמר,,7651-125-2,7651/125,26153.114598193057,32.1904520303,34.8591079643,2010
2010-12-13,2010-12-13,"דוד אלעזר 9, רעננה",דוד אלעזר 9,6581-462-12,דירה בבית קומות,4.5,שלישית,80.1,1550000,,,1980.0,,3.0,8158467588,1,6581462,False,,רעננה,אלעזר דוד,,6581-462-12,6581/462,19350.81148564295,32.1792343839,34.8856630838,2010
2010-12-12,2010-12-12,"מכבי 1, רעננה",מכבי 1,6580-1071-19,מחסנים,,קרקע,62.6,50000,,,2001.0,,9.0,8214556628,1,65801071,False,,רעננה,מכבי,,6580-1071-19,6580/1071,798.7220447284345,32.1800820199,34.8783805061,2010
2010-12-12,2010-12-12,"בורוכוב 24, רעננה",בורוכוב 24,6580-56-5,דירה בבית קומות,3.0,ראשונה,72.0,1240000,,,1970.0,,3.0,8158938376,1,658056,False,,רעננה,בורוכוב,,6580-56-5,6580/56,17222.222222222223,,,2010
2010-12-10,2010-10-12,"הפרחים 13, רעננה",הפרחים 13,7651-623-22,דירה בבית קומות,3.0,קרקע ושניה,75.0,1370000,,,2000.0,,7.0,8155990068,1,7651623,False,,רעננה,הפרחים,,7651-623-22,7651/623,18266.666666666668,32.1799646053,34.8536566781,2010
2010-12-09,2010-09-12,"קזן 4, רעננה",קזן 4,6586-900-7,דירה בבית קומות,5.0,שלישית,112.58,1965000,,,1996.0,,7.0,8153823644,1,6586900,False,62% ב 5.5 שנים,רעננה,קזן,11.27,6586-900-7,6586/900,17454.25475217623,32.1783835177,34.8806174861,2010
2010-12-09,2010-09-12,"התקומה 15, רעננה",התקומה 15,8573-4-12,דירה בבית קומות,5.0,שלישית+רביעית,117.8,1770000,,,1990.0,,4.0,8154393814,1,85734,False,,רעננה,התקומה,,8573-4-12,8573/4,15025.466893039047,32.1958335142,34.8528299568,2010
2010-12-08,2010-08-12,"אחוזה 201, רעננה",אחוזה 201,6582-222-12,דירה בבית קומות,5.0,שלישית,115.23,1615000,,,1989.0,,5.0,8152895018,1,6582222,False,,רעננה,אחוזה,,6582-222-12,6582/222,14015.44736613729,32.1824999213,34.8636021039,2010
2010-12-08,2010-08-12,"הפרחים 36, רעננה",הפרחים 36,7651-658-10,דירה בבית קומות,5.0,שלישית,123.0,2735000,,,2001.0,,4.0,8152619738,1,7651658,False,47% ב 0.9 שנים,רעננה,הפרחים,52.22,7651-658-10,7651/658,22235.772357723577,32.1801226002,34.8550245626,2010
2010-12-05,2010-05-12,"יערה 10, רעננה",יערה 10,6578-552-20,דירה בבית קומות,4.0,שישית,102.0,1800000,,,2008.0,,15.0,8147269242,1,6578552,False,,רעננה,יערה,,6578-552-20,6578/552,17647.058823529413,32.1851755826,34.88823354,2010
2010-12-03,2010-03-12,"קזן 23, רעננה",קזן 23,6586-654-3,בית בודד,7.0,קרקע+ראשונה,106.71,2625000,,,1985.0,,2.0,8145051906,1,6586654,False,,רעננה,קזן,,6586-654-3,6586/654,24599.381501265118,32.1767656681,34.8808146603,2010
2010-11-30,2010-11-30,"הגדוד העברי 19, רעננה",הגדוד העברי 19,6579-502-22,דירה בבית קומות,6.0,שלישית + גג,127.5,2450000,,,1981.0,,4.0,8157855904,1,6579502,False,,רעננה,הגדוד העברי,,6579-502-22,6579/502,19215.686274509804,32.1865577263,34.8660039111,2010
2010-11-30,2010-11-30,"הרב בן-אור 7, רעננה",הרב בן-אור 7,6580-1013-1,קוטג' דו משפחתי,6.0,שניה,160.0,3850000,,,2000.0,,1.0,8157867448,1,65801013,False,,רעננה,הרב בן אור,,6580-1013-1,6580/1013,24062.5,32.1827709047,34.8678425069,2010
2010-11-30,2010-11-30,"יאנוש קורצ'אק 10, רעננה",יאנוש קורצ'אק 10,6587-249-1,קוטג' דו משפחתי,6.0,קרקע+ראשונה,205.44,4300000,,,1990.0,,,8214333222,1,6587249,False,94% ב 6 שנים,רעננה,קורצ'ק ינוש,15.67,6587-249-1,6587/249,20930.68535825545,32.1754128912,34.8843826595,2010
2010-11-25,2010-11-25,"שליט 5, רעננה",שליט 5,6586-237-3,דירה בבית קומות,5.0,שלישית,126.17,2300000,,,2010.0,,5.0,8157549914,1,6586237,False,,רעננה,שליט,,6586-237-3,6586/237,18229.373068082747,32.1786891275,34.8802808797,2010
2010-11-25,2010-11-25,"מבצע קדש 13, רעננה",מבצע קדש 13,7654-119-8,דירה בבית קומות,2.0,ראשונה,57.0,920000,,,1970.0,,3.0,8159062326,1,7654119,False,103% ב 8.8 שנים,רעננה,מבצע קדש,11.7,7654-119-8,7654/119,16140.350877192985,32.1871135978,34.8663837412,2010
2010-11-24,2010-11-24,"הגדוד העברי 5, רעננה",הגדוד העברי 5,6579-506-12,דירה בבית קומות,5.5,שלישית + גג,119.09,2240000,,,1980.0,,4.0,8158539146,1,6579506,False,,רעננה,הגדוד העברי,,6579-506-12,6579/506,18809.30388781594,32.1836033154,34.8651209291,2010
2010-11-24,2010-11-24,"רמב""ם 66, רעננה","רמב""ם 66",6586-950-8,דירה בבית קומות,5.0,"ראשונה, שניה",134.0,2650000,,,2010.0,,4.0,8214067710,1,6586950,False,,רעננה,"רמב""ם",,6586-950-8,6586/950,19776.119402985078,32.1753658379,34.8755953225,2010
2010-11-24,2010-11-24,"פרדס משותף 65, רעננה",פרדס משותף 65,6588-3-2,בית בודד,6.0,שניה,300.0,1900000,,,1990.0,,1.0,8157829116,1,65883,False,,רעננה,פרדס משותף,,6588-3-2,6588/3,6333.333333333333,32.1754550162,34.8653642399,2010
2010-11-23,2010-11-23,"שברץ 22, רעננה",שברץ 22,6581-555-39,דירה בבית קומות,4.0,רביעית,91.03,1450000,,,1984.0,,6.0,8157462742,1,6581555,False,,רעננה,שברץ,,6581-555-39,6581/555,15928.81467648028,32.1823935963,34.8826055936,2010
2010-11-23,2010-11-23,"הר סיני 33, רעננה",הר סיני 33,6580-927-9,דירה בבית קומות,5.0,שלישית,128.0,3000000,,,1980.0,,3.0,8157653218,1,6580927,False,,רעננה,הר סיני,,6580-927-9,6580/927,23437.5,32.1852432136,34.8697545805,2010
2010-11-21,2010-11-21,"עקיבא 35, רעננה",עקיבא 35,6581-493-13,דירה בבית קומות,4.0,רביעית,97.09,1520000,,,1980.0,,7.0,8157421154,1,6581493,False,,רעננה,עקיבא,,6581-493-13,6581/493,15655.577299412917,32.1828411073,34.880929683,2010
2010-11-21,2010-11-21,"הנשר 55, רעננה",הנשר 55,7650-332-14,דירה בבית קומות,4.0,ראשונה,81.52,1700000,,,1995.0,,3.0,8157461558,1,7650332,False,,רעננה,הנשר,,7650-332-14,7650/332,20853.77821393523,32.1904357668,34.8508178593,2010
2010-11-19,2010-11-19,"חפץ חיים 26, רעננה",חפץ חיים 26,6580-591-1,דירה בבית קומות,5.0,ראשונה,109.0,2000000,,,1985.0,,3.0,8157936490,1,6580591,False,,רעננה,חפץ חיים,,6580-591-1,6580/591,18348.623853211007,32.1842532951,34.8681292058,2010
2010-11-19,2010-11-19,"שברץ 5, רעננה",שברץ 5,6581-374-4,דירה בבית קומות,3.0,ראשונה,57.17,1330000,,,2020.0,,3.0,8158662356,1,6581374,False,0% ב 0.3 שנים,רעננה,שברץ,0.0,6581-374-4,6581/374,23263.949623928635,32.1798907993,34.8811112081,2010
2010-11-18,2010-11-18,"מכבי 1, רעננה",מכבי 1,6580-1071-18,חנות,,קרקע,59.1,1950000,,,2001.0,,9.0,8158227014,1,65801071,False,,רעננה,מכבי,,6580-1071-18,6580/1071,32994.923857868016,32.1800820199,34.8783805061,2010
2010-11-18,2010-11-18,"חפץ חיים 17, רעננה",חפץ חיים 17,6580-748-9,דירה בבית קומות,2.5,ראשונה,44.7,900000,,,1970.0,,4.0,8214642764,1,6580748,False,50% ב 3.5 שנים,רעננה,חפץ חיים,14.29,6580-748-9,6580/748,20134.228187919463,32.1844321817,34.8674233695,2010
2010-11-18,2010-11-18,"המחתרות 22, רעננה",המחתרות 22,7654-401-6,דירה בבית קומות,4.0,שלישית,89.21,1885000,,,1995.0,,4.0,8157293726,1,7654401,False,41% ב 8.2 שנים,רעננה,המחתרות,5.0,7654-401-6,7654/401,21129.91817060868,32.1908348126,34.8610606101,2010
2010-11-17,2010-11-17,"אחוזה 163, רעננה",אחוזה 163,6583-843-7,דירה בבית קומות,4.0,שלישית,96.0,1850000,,,2011.0,,4.0,8157665428,1,6583843,False,,רעננה,אחוזה,,6583-843-7,6583/843,19270.83333333333,32.1812134454,34.8694532884,2010
2010-11-14,2010-11-14,"הגפן 33, רעננה",הגפן 33,7651-221-1,קוטג' דו משפחתי,5.0,קרקע וראשונה,164.0,4100000,,,1978.0,,2.0,8156779500,1,7651221,False,,רעננה,הגפן,,7651-221-1,7651/221,25000.0,32.1919617821,34.8558835033,2010
2010-11-14,2010-11-14,"מכבי 1, רעננה",מכבי 1,6580-1071-70,דירה בבית קומות,2.0,שביעית,44.85,940000,,,2001.0,,9.0,8158230640,1,65801071,False,,רעננה,מכבי,,6580-1071-70,6580/1071,20958.751393534003,32.1800820199,34.8783805061,2010
2010-11-14,2010-11-14,"הגליל 10, רעננה",הגליל 10,6580-264-4,דירה בבית קומות,3.0,א',72.21,1430000,,,1965.0,,3.0,8157217950,1,6580264,False,94% ב 3.7 שנים,רעננה,הגליל,25.41,6580-264-4,6580/264,19803.351336380005,32.1807464347,34.8786409314,2010
2010-11-11,2010-11-11,"החי""ל 53, רעננה","החי""ל 53",6579-583-3,דירה בבית קומות,5.0,ראשונה+שניה+גג,125.06,2800000,,,1990.0,,1.0,8156900416,1,6579583,False,,רעננה,"החי""ל",,6579-583-3,6579/583,22389.253158483927,32.1859635049,34.8626157753,2010
2010-11-11,2010-11-11,"מנדלי 26, רעננה",מנדלי 26,6583-445-1,קוטג' דו משפחתי,5.0,קרקע +ראשונה,164.7,3950000,,,1979.0,,2.0,8157011638,1,6583445,False,109% ב 10.5 שנים,רעננה,מנדלי,10.38,6583-445-1,6583/445,23982.99939283546,32.1760595431,34.8653538011,2010
2010-11-11,2010-11-11,"היובל 26, רעננה",היובל 26,6580-821-23,דירה בבית קומות,4.0,ראשונה,75.4,1540000,,,1983.0,,8.0,8157575000,1,6580821,False,102% ב 9.3 שנים,רעננה,היובל,10.97,6580-821-23,6580/821,20424.40318302387,32.185471701,34.8733370082,2010
2010-11-10,2010-10-11,"פינס 34, רעננה",פינס 34,6583-494-2,קרקע למגורים,,"מרתף,קרקע,א'",163.99,5400000,,,1981.0,,2.0,8155210626,1,6583494,False,84% ב 4.7 שנים,רעננה,פינס,17.87,6583-494-2,6583/494,32928.837124214886,32.1780176115,34.8656327002,2010
2010-11-10,2010-10-11,"אחוזה 163, רעננה",אחוזה 163,6583-843-8,דירה בבית קומות,3.0,שלישית,85.0,1580000,,,2011.0,,4.0,8155131224,1,6583843,False,,רעננה,אחוזה,,6583-843-8,6583/843,18588.235294117647,32.1812134454,34.8694532884,2010
2010-11-08,2010-08-11,"החרצית 7, רעננה",החרצית 7,6582-504-3,דירה בבית קומות,3.0,קרקע תחתונה+ראשונה,68.31,1665000,,,2002.0,,4.0,8151901790,1,6582504,False,,רעננה,החרצית,,6582-504-3,6582/504,24374.176548089592,32.1790375009,34.8588469683,2010
2010-11-08,2010-08-11,"אחוזה 166, רעננה",אחוזה 166,6580-326-3,דירה בבית קומות,5.0,שניה,108.0,1690000,,,1993.0,,3.0,8152214218,1,6580326,False,,רעננה,אחוזה,,6580-326-3,6580/326,15648.148148148148,32.1822238229,34.8689206321,2010
2010-11-05,2010-05-11,"גורדון 5, רעננה",גורדון 5,6582-41-2,דירה בבית קומות,4.0,קרקע,100.0,2500000,,,2010.0,,2.0,8147836970,1,658241,False,,רעננה,גורדון,,6582-41-2,6582/41,25000.0,32.1817326891,34.8654520239,2010
2010-11-05,2010-05-11,"בובר 5, רעננה",בובר 5,6581-575-2,קוטג' דו משפחתי,6.0,קרקע וראשונה,162.46,3600000,,,1975.0,,,8149544520,1,6581575,False,,רעננה,בובר,,6581-575-2,6581/575,22159.30075095408,32.1850285953,34.8829387248,2010
2010-11-05,2010-05-11,"ארלוזורוב 6, רעננה",ארלוזורוב 6,6586-933-4,דירה בבית קומות,3.0,שניה,83.6,1625000,,,2000.0,,6.0,8146937278,1,6586933,False,,רעננה,ארלוזורוב,,6586-933-4,6586/933,19437.7990430622,32.1787517573,34.8785343963,2010
2010-11-04,2010-04-11,"החורש 16, רעננה",החורש 16,6578-560-29,דירה בבית קומות,5.0,שלישית,113.3,2110000,,,2010.0,,6.0,8145776440,1,6578560,False,,רעננה,החורש,,6578-560-29,6578/560,18623.12444836717,32.1857095507,34.8890199576,2010
2010-11-03,2010-03-11,"הגליל 39, רעננה",הגליל 39,6580-253-9,דירה בבית קומות,4.0,שלישית + רביעית,108.39,2000000,,,1980.0,,5.0,8144559214,1,6580253,False,,רעננה,הגליל,,6580-253-9,6580/253,18451.88670541563,32.182964732,34.8786237062,2010
2010-11-03,2010-03-11,"קצין 9, רעננה",קצין 9,6587-127-1,קוטג' דו משפחתי,6.0,"קרקע,א,ב",145.7,2500000,,,1977.0,,3.0,8143937096,1,6587127,False,,רעננה,קצין,,6587-127-1,6587/127,17158.544955387784,32.177302679,34.8835916906,2010
2010-11-03,2010-03-11,"סולד 9, רעננה",סולד 9,6587-83-4,דירה בבית קומות,5.5,"קרקע,א,ב,",131.4,2499000,,,1970.0,,3.0,8145241272,1,658783,False,,רעננה,סולד,,6587-83-4,6587/83,19018.26484018265,32.1769963159,34.8820872286,2010
2010-11-03,2010-03-11,"ניל""י 1, רעננה","ניל""י 1",6587-92-3,קרקע למגורים,,,2000.0,8600000,,,1950.0,,,8146365036,1,658792,False,,רעננה,"ניל""י",,6587-92-3,6587/92,4300.0,32.1775681585,34.8857078988,2010
2010-11-03,2010-03-11,"הגדוד העברי 11, רעננה",הגדוד העברי 11,6579-504-8,דירה בבית קומות,5.0,שניה,121.97,2350000,,,1996.0,,3.0,8144251448,1,6579504,False,,רעננה,הגדוד העברי,,6579-504-8,6579/504,19267.03287693695,32.1854194081,34.8656863619,2010
2010-11-03,2010-03-11,"פרדס משותף 7, רעננה",פרדס משותף 7,6584-47-1,דירה בבית קומות,6.0,,150.0,4200000,,,2009.0,,1.0,8145856508,1,658447,False,,רעננה,פרדס משותף,,6584-47-1,6584/47,28000.0,32.1737683286,34.8720702956,2010
2010-11-02,2010-02-11,"סאלד 8, רעננה",סאלד 8,6586-369-1,קוטג' טורי,5.0,קרקע+ראשונה,161.16,2300000,,,1980.0,,2.0,8142056164,1,6586369,False,,רעננה,סולד,,6586-369-1,6586/369,14271.531397369075,32.1778381436,34.881812839,2010
2010-11-02,2010-02-11,"הפעמונים 17, רעננה",הפעמונים 17,7651-643-6,דירה בבית קומות,3.5,שניה,76.3,1725000,,,1999.0,,4.0,8142584894,1,7651643,False,,רעננה,הפעמונים,,7651-643-6,7651/643,22608.125819134995,32.1812326024,34.8572610791,2010
2010-10-28,2010-10-28,"הלוטוס 14, רעננה",הלוטוס 14,7651-536-11,דירה בבית קומות,3.0,קרקע תחתונה+ראשונה,76.5,1630000,,,2000.0,,1.0,8156824048,1,7651536,False,,רעננה,הלוטוס,,7651-536-11,7651/536,21307.18954248366,32.1804792194,34.8558663039,2010
2010-10-26,2010-10-26,"עגנון 29, רעננה",עגנון 29,6583-576-3,דירה בבית קומות,6.0,קרקע+ראשונה,162.25,3000000,,,1980.0,,,8156554392,1,6583576,False,,רעננה,עגנון,,6583-576-3,6583/576,18489.984591679506,32.1747315133,34.8700639804,2010
2010-10-26,2010-10-26,"הנשר 47, רעננה",הנשר 47,7651-434-1,קוטג' דו משפחתי,7.0,שלישית,200.0,6500000,,,1990.0,,2.0,8157592760,1,7651434,False,,רעננה,הנשר,,7651-434-1,7651/434,32500.0,32.1902457817,34.8524825054,2010
2010-10-25,2010-10-25,"דובנוב 5, רעננה",דובנוב 5,6583-660-14,דירה בבית קומות,3.0,רביעית,67.8,1349000,,,1989.0,,6.0,8155813134,1,6583660,False,61% ב 8.4 שנים,רעננה,דובנוב,7.26,6583-660-14,6583/660,19896.75516224189,32.1768565986,34.8734374455,2010
2010-10-25,2010-10-25,"ויצמן 224, רעננה",ויצמן 224,7649-195-6,דירה בבית קומות,4.5,ראשונה,102.56,1820000,,,1995.0,,3.0,8155937602,1,7649195,False,54% ב 6.1 שנים,רעננה,ויצמן,8.85,7649-195-6,7649/195,17745.709828393134,32.1927647408,34.8501073837,2010
2010-10-25,2010-10-25,"הזית 6, רעננה",הזית 6,6578-486-2,דירה בבית קומות,5.0,ראשונה,114.17,2657000,,,1997.0,,5.0,8157956692,1,6578486,False,57% ב 3.8 שנים,רעננה,הזית,15.0,6578-486-2,6578/486,23272.313217132345,32.1890145211,34.8847231936,2010
2010-10-25,2010-10-25,"חפץ חיים 26, רעננה",חפץ חיים 26,6580-591-3,דירה בבית קומות,5.0,שניה,109.0,1920000,,,1985.0,,3.0,8156035356,1,6580591,False,,רעננה,חפץ חיים,,6580-591-3,6580/591,17614.67889908257,32.1842532951,34.8681292058,2010
2010-10-25,2010-10-25,"החרמון 4, רעננה",החרמון 4,7649-266-22,דירה בבית קומות,3.0,חמישית,72.4,1500000,,,1998.0,,6.0,8156482316,1,7649266,False,54% ב 5.2 שנים,רעננה,החרמון,10.38,7649-266-22,7649/266,20718.23204419889,32.1959532283,34.8485950157,2010
2010-10-25,2010-10-25,"מכבי 1, רעננה",מכבי 1,6580-1071-30,חנות,,קרקע,58.45,880000,,,2001.0,,9.0,8156894274,1,65801071,False,,רעננה,מכבי,,6580-1071-30,6580/1071,15055.603079555174,32.1800820199,34.8783805061,2010
2010-10-25,2010-10-25,"שרה אהרונסון 12, רעננה",שרה אהרונסון 12,6582-352-9,דירה בבית קומות,4.0,קרקע+ק. תחתונה,117.0,2600000,,,1996.0,,6.0,8156171516,1,6582352,False,77% ב 10.1 שנים,רעננה,אהרונסון שרה,7.62,6582-352-9,6582/352,22222.222222222223,32.1787254513,34.8609302045,2010
2010-10-21,2010-10-21,"לוי אשכול 20, רעננה",לוי אשכול 20,6586-614-46,דירה בבית קומות,3.0,ראשונה,55.0,1200000,,,2020.0,,6.0,8155717304,1,6586614,False,,רעננה,אשכול לוי,,6586-614-46,6586/614,21818.18181818182,32.1757099742,34.8782788594,2010
2010-10-21,2010-10-21,"חנקין 44, רעננה",חנקין 44,6580-662-11,דירה בבית קומות,3.0,שלישית,78.3,1645000,,,1970.0,,4.0,8155562866,1,6580662,False,72% ב 3.8 שנים,רעננה,חנקין,18.95,6580-662-11,6580/662,21008.93997445722,32.18364602,34.878236009,2010
2010-10-21,2010-10-21,"התמר 7, רעננה",התמר 7,7651-126-1,קרקע למגורים,,,1035.0,9025000,,,1990.0,,1.0,8157127522,1,7651126,False,,רעננה,התמר,,7651-126-1,7651/126,8719.806763285023,32.1903301105,34.8589375267,2010
2010-10-21,2010-10-21,"יערה 10, רעננה",יערה 10,6578-552-8,דירה בבית קומות,4.0,שלישית,102.0,1800000,,,2008.0,,15.0,8156424966,1,6578552,False,,רעננה,יערה,,6578-552-8,6578/552,17647.058823529413,32.1851755826,34.88823354,2010
2010-10-21,2010-10-21,"החומה 2, רעננה",החומה 2,7654-453-2,דירה בבית קומות,5.0,קרקע,101.8,2200000,,,1998.0,,3.0,8157727662,1,7654453,False,82% ב 11.8 שנים,רעננה,החומה,6.95,7654-453-2,7654/453,21611.001964636544,32.1906311841,34.865621252,2010
2010-10-21,2010-10-21,"דובנוב 3, רעננה",דובנוב 3,6583-659-27,דירה בבית קומות,4.0,שלישית,88.7,1520000,,,1982.0,,5.0,8156354666,1,6583659,False,,רעננה,דובנוב,,6583-659-27,6583/659,17136.41488162345,32.1772368134,34.8735532034,2010
2010-10-20,2010-10-20,"השקד 3, רעננה",השקד 3,6578-486-33,דירה בבית קומות,4.0,רביעית,85.73,2150000,,,1997.0,,5.0,8155654996,1,6578486,False,62% ב 5.3 שנים,רעננה,השקד,11.7,6578-486-33,6578/486,25078.735565146388,32.1890145211,34.8847231936,2010
2010-10-19,2010-10-19,"התאנה 1, רעננה",התאנה 1,7651-238-3,קוטג' דו משפחתי,5.0,שניה,180.0,6400000,,,1988.0,,2.0,8155750308,1,7651238,False,,רעננה,התאנה,,7651-238-3,7651/238,35555.555555555555,32.1926268605,34.8560856332,2010
2010-10-18,2010-10-18,"היובל 18, רעננה",היובל 18,6580-823-37,דירה בבית קומות,5.0,רביעית,112.2,1544000,,,1987.0,,8.0,8155314300,1,6580823,False,65% ב 4 שנים,רעננה,היובל,16.25,6580-823-37,6580/823,13761.140819964348,32.1844536683,34.8729928282,2010
2010-10-17,2010-10-17,"אנה פרנק 6, רעננה",אנה פרנק 6,6582-359-5,דירה בבית קומות,4.0,ראשונה,92.0,2040000,,,2002.0,,4.0,8155921766,1,6582359,False,28% ב 2.6 שנים,רעננה,אנה פרנק,10.77,6582-359-5,6582/359,22173.91304347826,32.1786222493,34.8616198025,2010
2010-10-14,2010-10-14,"סוקולוב 13, רעננה",סוקולוב 13,6583-785-3,דירה בבית קומות,5.0,שניה,103.2,2000000,,,1991.0,,2.0,8155680674,1,6583785,False,,רעננה,סוקולוב,,6583-785-3,6583/785,19379.84496124031,32.1803180505,34.8675495995,2010
2010-10-14,2010-10-14,"חטיבת הראל 31, רעננה",חטיבת הראל 31,6579-565-2,קרקע למגורים,,,600.0,5200000,,,0.0,,1.0,8157737504,1,6579565,False,,רעננה,חטיבת הראל,,6579-565-2,6579/565,8666.666666666666,32.1892700568,34.8633390115,2010
2010-10-10,2010-10-10,"ההגנה 59, רעננה",ההגנה 59,7654-63-2,קוטג' דו משפחתי,5.0,"מרתף ‎-1‏, קומה ‎0‏, קומה ‎1‏",223.5,3450000,,,2008.0,,1.0,8155699544,1,765463,False,16% ב 1.7 שנים,רעננה,ההגנה,9.41,7654-63-2,7654/63,15436.241610738254,32.1883098141,34.8709834341,2010
2010-10-10,2010-10-10,"בר-אילן 3, רעננה",בר-אילן 3,6580-1068-3,דירה בבית קומות,3.0,שניה,80.0,1400000,,,2000.0,,2.0,8154999948,1,65801068,False,,רעננה,בר אילן,,6580-1068-3,6580/1068,17500.0,32.1813132074,34.8732997742,2010
2010-10-08,2010-08-10,"האלה 8, רעננה",האלה 8,6578-492-16,דירה בבית קומות,3.0,ראשונה,80.0,1600000,,,1998.0,,4.0,8151981784,1,6578492,False,30% ב 2.8 שנים,רעננה,האלה,10.71,6578-492-16,6578/492,20000.0,32.1883422435,34.8857418771,2010
2010-10-08,2010-08-10,"התקווה 16, רעננה",התקווה 16,7652-84-8,חנות,,קרקע,33.6,370000,,,1960.0,,,8152331508,1,765284,False,,רעננה,התקוה,,7652-84-8,7652/84,11011.90476190476,32.1953944589,34.8563640189,2010
2010-10-06,2010-06-10,"עגנון 5, רעננה",עגנון 5,6583-600-3,דירה בבית קומות,5.0,ראשונה,114.96,1720000,,,1980.0,,,8148824648,1,6583600,False,71% ב 11.6 שנים,רעננה,עגנון,6.12,6583-600-3,6583/600,14961.725817675717,32.1772029091,34.8708256633,2010
2010-10-06,2010-06-10,"קלישר 24, רעננה",קלישר 24,6583-554-1,קוטג' טורי,6.0,"מרתף,קרקע,ראשונה",135.6,2800000,,,1989.0,,2.0,8149162458,1,6583554,False,,רעננה,קלישר,,6583-554-1,6583/554,20648.96755162242,32.1811333017,34.8669643775,2010
2010-10-06,2010-06-10,"קלאוזנר 17, רעננה",קלאוזנר 17,6586-450-4,דירה בבית קומות,3.5,ב',88.15,1650000,,,1970.0,,3.0,8148744654,1,6586450,False,65% ב 1.9 שנים,רעננה,קלאוזנר,34.21,6586-450-4,6586/450,18718.09415768576,32.1780976555,34.8753048353,2010
2010-10-06,2010-06-10,"המלאכה 12, רעננה",המלאכה 12,7656-207-6,מחסנים,,שניה,65.0,774000,,,1996.0,,3.0,8150590880,1,7656207,False,,רעננה,המלאכה,,7656-207-6,7656/207,11907.692307692309,32.1981623748,34.8794648819,2010
2010-10-03,2010-03-10,"התקווה 19, רעננה",התקווה 19,7652-88-22,דירה בבית קומות,3.0,שלישית,39.5,699000,,,1970.0,,3.0,8144091460,1,765288,False,,רעננה,התקוה,,7652-88-22,7652/88,17696.20253164557,32.1948582468,34.8568725418,2010
2010-09-28,2010-09-28,"המלכים 25, רעננה",המלכים 25,6582-293-5,דירה בבית קומות,3.0,ראשונה,91.41,1725000,,,1997.0,,5.0,8154696030,1,6582293,False,87% ב 9.5 שנים,רעננה,המלכים,9.16,6582-293-5,6582/293,18871.02067607483,32.1789480061,34.8603411517,2010
2010-09-28,2010-09-28,"חטיבת הראל 4, רעננה",חטיבת הראל 4,6579-582-2,קוטג' טורי,5.0,קרקע+ראשונה,140.38,3020000,,,1990.0,,2.0,8154690480,1,6579582,False,,רעננה,חטיבת הראל,,6579-582-2,6579/582,21513.036045020657,32.1871688733,34.8630289002,2010
2010-09-26,2010-09-26,"מכבי 1, רעננה",מכבי 1,6580-1071-23,חנות,,קרקע,59.1,6000000,,,2001.0,,9.0,8156676344,1,65801071,False,,רעננה,מכבי,,6580-1071-23,6580/1071,101522.8426395939,32.1800820199,34.8783805061,2010
2010-09-26,2010-09-26,"הטייסים 8, רעננה",הטייסים 8,6578-400-1,קוטג' טורי,5.0,שניה,224.0,4240000,,,1990.0,,1.0,8154799926,1,6578400,False,,רעננה,הטייסים,,6578-400-1,6578/400,18928.571428571428,32.1881629633,34.8821000395,2010
2010-09-21,2010-09-21,"משה דיין 1, רעננה",משה דיין 1,6582-197-5,דירה בבית קומות,4.0,שניה,97.61,1550000,,,1986.0,,5.0,8155026736,1,6582197,False,,רעננה,דיין משה,,6582-197-5,6582/197,15879.520540928184,32.1822593797,34.8642923484,2010
2010-09-21,2010-09-21,"השחר 30, רעננה",השחר 30,6579-696-3,קוטג' דו משפחתי,7.0,מרתף קרקע ראשונה,263.24,3500000,,,2000.0,,2.0,8154685078,1,6579696,False,,רעננה,השחר,,6579-696-3,6579/696,13295.851694271389,32.1865876025,34.8585980195,2010
2010-09-21,2010-09-21,"המחתרות 4, רעננה",המחתרות 4,7654-456-15,דירה בבית קומות,4.0,קרקע + שלישית,93.45,2020000,,,2004.0,,6.0,8155615332,1,7654456,False,42% ב 5.2 שנים,רעננה,המחתרות,8.08,7654-456-15,7654/456,21615.837346174423,32.1898151454,34.865308899,2010
2010-09-21,2010-09-21,"ויצמן 228, רעננה",ויצמן 228,7649-196-2,דירה בבית קומות,3.5,קרקע,81.39,1710000,,,1995.0,,2.0,8154766774,1,7649196,False,84% ב 9.6 שנים,רעננה,ויצמן,8.75,7649-196-2,7649/196,21009.952082565425,32.1926477217,34.8495126359,2010
2010-09-19,2010-09-19,"סטרומה 4, רעננה",סטרומה 4,7652-207-2,קרקע למגורים,,ראשונה,63.0,1925000,,,1971.0,,1.0,8154193052,1,7652207,False,,רעננה,סטרומה,,7652-207-2,7652/207,30555.555555555555,32.1969585894,34.8568378992,2010
2010-09-16,2010-09-16,"חטיבת גבעתי 11, רעננה",חטיבת גבעתי 11,6579-627-40,תעשיה,,מרתף + קרקע,1358.9,9300000,,,1990.0,,8.0,8156180692,1,6579627,False,131% ב 4.6 שנים,רעננה,חטיבת גבעתי,28.48,6579-627-40,6579/627,6843.770696887188,32.1854639657,34.8636434954,2010
2010-09-16,2010-09-16,"אלימלך רימלט 16, רעננה",אלימלך רימלט 16,7649-260-11,דירה בבית קומות,3.0,שלישית,72.47,1410000,,,1996.0,,3.0,8158651922,1,7649260,False,49% ב 2.9 שנים,רעננה,רימלט אלימלך,16.9,7649-260-11,7649/260,19456.326755898997,32.1957468996,34.8500156097,2010
2010-09-13,2010-09-13,"יפה אליעזר 11, רעננה",יפה אליעזר 11,6580-283-11,דירה בבית קומות,3.0,ב',74.38,1290000,,,1960.0,,3.0,8154323588,1,6580283,False,78% ב 9 שנים,רעננה,יפה אליעזר,8.67,6580-283-11,6580/283,17343.371874159722,32.1816712857,34.87480813,2010
2010-09-12,2010-12-09,"השריון 28, רעננה",השריון 28,6578-423-5,קוטג' דו משפחתי,7.0,שניה,350.0,18000000,,,1970.0,,2.0,8214796018,1,6578423,False,,רעננה,השריון,,6578-423-5,6578/423,51428.57142857143,32.1884256158,34.8790453458,2010
2010-09-11,2010-11-09,"הפרחים 18, רעננה",הפרחים 18,6582-386-18,דירה בבית קומות,5.0,שלישית+רביעית,134.34,2980000,,,2002.0,,3.0,8156667760,1,6582386,False,35% ב 3.6 שנים,רעננה,הפרחים,9.72,6582-386-18,6582/386,22182.521959207977,32.1785825631,34.8582578533,2010
2010-09-11,2010-11-09,"ציפמן 8, רעננה",ציפמן 8,6578-471-1,בית בודד,8.0,שניה,590.0,12640000,,,2010.0,,1.0,8158832778,1,6578471,False,,רעננה,ציפמן,,6578-471-1,6578/471,21423.728813559323,32.1851346663,34.8862588072,2010
2010-09-08,2010-08-09,"היובל 31, רעננה",היובל 31,6580-421-2,דירה בבית קומות,5.0,ראשונה,111.0,1750000,,,1980.0,,5.0,8152139700,1,6580421,False,,רעננה,היובל,,6580-421-2,6580/421,15765.765765765766,32.1853310456,34.8725183902,2010
2010-09-06,2010-06-09,"שברץ 22, רעננה",שברץ 22,6581-555-15,דירה בבית קומות,5.0,שלישית,131.08,1723000,,,1984.0,,6.0,8150332102,1,6581555,False,,רעננה,שברץ,,6581-555-15,6581/555,13144.644491913334,32.1823935963,34.8826055936,2010
2010-09-06,2010-06-09,"הפרחים 13, רעננה",הפרחים 13,7651-623-114,דירה בבית קומות,2.5,שישית,67.0,1315000,,,2000.0,,7.0,8148572678,1,7651623,False,28% ב 5.8 שנים,רעננה,הפרחים,4.83,7651-623-114,7651/623,19626.86567164179,32.1799646053,34.8536566781,2010
2010-09-06,2010-06-09,"הגליל 52, רעננה",הגליל 52,6580-709-4,דירה בבית קומות,3.5,שניה,102.0,1700000,,,1960.0,,3.0,8148492092,1,6580709,False,,רעננה,הגליל,,6580-709-4,6580/709,16666.666666666668,32.1843985525,34.8796305753,2010
2010-09-06,2010-06-09,"הסחלב 8, רעננה",הסחלב 8,7651-513-4,דירה בבית קומות,3.0,ראשונה,75.0,1740000,,,2001.0,,3.0,8148692780,1,7651513,False,69% ב 7.5 שנים,רעננה,הסחלב,9.2,7651-513-4,7651/513,23200.0,32.1792534149,34.8583738314,2010
2010-09-05,2010-05-09,"קרן היסוד 29, רעננה",קרן היסוד 29,6580-726-14,דירה בבית קומות,4.0,רביעית+גג,85.1,1910000,,,1983.0,,5.0,8146839524,1,6580726,False,,רעננה,קרן היסוד,,6580-726-14,6580/726,22444.183313748534,32.1853919884,34.8711500259,2010
2010-09-05,2010-05-09,"הסחלב 15, רעננה",הסחלב 15,7651-514-4,דירה בבית קומות,3.0,ראשונה,77.0,1580000,,,2000.0,,3.0,8146840116,1,7651514,False,93% ב 9.8 שנים,רעננה,הסחלב,9.49,7651-514-4,7651/514,20519.48051948052,32.1796618135,34.8575900635,2010
2010-09-05,2010-05-09,"הסחלב 11, רעננה",הסחלב 11,7651-516-2,דירה בבית קומות,3.0,קרקע,74.0,1635000,,,1997.0,,2.0,8147006246,1,7651516,False,97% ב 12.2 שנים,רעננה,הסחלב,7.95,7651-516-2,7651/516,22094.594594594597,32.1793111965,34.8578606318,2010
2010-09-03,2010-03-09,"הרדוף 94, רעננה",הרדוף 94,6578-473-1,דירה בבית קומות,4.0,קרקע,113.0,2200000,,,1996.0,,,8145794200,1,6578473,False,,רעננה,הרדוף,,6578-473-1,6578/473,19469.02654867257,32.1900729447,34.8838253565,2010
2010-09-03,2010-03-09,"מונטיפיורי 24, רעננה",מונטיפיורי 24,7654-363-2,בית בודד,8.0,קרקע+ראשונה,194.5,3960000,,,1980.0,,2.0,8143919484,1,7654363,False,,רעננה,מונטיפיורי,,7654-363-2,7654/363,20359.897172236502,32.1893362298,34.8711588203,2010
2010-09-03,2010-03-09,"קרן היסוד 27, רעננה",קרן היסוד 27,6580-725-9,דירה בבית קומות,3.0,שלישית,65.4,1150000,,,1983.0,,5.0,8144005546,1,6580725,False,,רעננה,קרן היסוד,,6580-725-9,6580/725,17584.097859327216,32.184984115,34.8710249873,2010
2010-08-31,2010-08-31,"הלוטוס 8, רעננה",הלוטוס 8,7651-560-6,דירה בבית קומות,4.0,ק. תחתונה+קרקע,88.8,2167000,,,2001.0,,4.0,8153335170,1,7651560,False,,רעננה,הלוטוס,,7651-560-6,7651/560,24403.153153153155,32.1808369749,34.8560659626,2010
2010-08-31,2010-08-31,"אשכול 2, רעננה",אשכול 2,6586-531-29,משרד,,ראשונה,21.2,2475000,,,1995.0,,3.0,8154889466,1,6586531,False,,רעננה,אשכול לוי,,6586-531-29,6586/531,116745.28301886792,32.1789859099,34.8792684786,2010
2010-08-30,2010-08-30,"ברנר 15, רעננה",ברנר 15,6586-549-3,דירה בבית קומות,5.0,ראשונה,114.0,1682000,,,1972.0,,4.0,8153830970,1,6586549,False,29% ב 3.2 שנים,רעננה,ברנר,9.06,6586-549-3,6586/549,14754.38596491228,32.177722134,34.8779423541,2010
2010-08-30,2010-08-30,"דוד אלעזר 1, רעננה",דוד אלעזר 1,6581-413-1,דירה בבית קומות,4.0,ראשונה,79.3,1470000,,,1980.0,,3.0,8154640530,1,6581413,False,,רעננה,אלעזר דוד,,6581-413-1,6581/413,18537.20050441362,32.1784620156,34.8853309554,2010
2010-08-25,2010-08-25,"הנשיאים 16, רעננה",הנשיאים 16,6579-586-2,דירה בבית קומות,5.0,ראשונה,115.9,2660000,,,1994.0,,4.0,8152975604,1,6579586,False,,רעננה,הנשיאים,,6579-586-2,6579/586,22950.819672131147,32.1857241605,34.8622782413,2010
2010-08-25,2010-08-25,"גולומב 10, רעננה",גולומב 10,6580-288-5,דירה בבית קומות,3.0,שניה,68.9,1235000,,,1970.0,,3.0,8153283888,1,6580288,False,43% ב 2.5 שנים,רעננה,גולומב,17.2,6580-288-5,6580/288,17924.528301886792,32.1824586265,34.875047854,2010
2010-08-25,2010-08-25,"ויצמן 226, רעננה",ויצמן 226,7649-195-23,דירה בבית קומות,5.0,שלישית+רביעית,124.25,2400000,,,1995.0,,3.0,8154155090,1,7649195,False,71% ב 5.8 שנים,רעננה,ויצמן,12.24,7649-195-23,7649/195,19315.8953722334,32.1927647408,34.8501073837,2010
2010-08-24,2010-08-24,"בר אילן 32, רעננה",בר אילן 32,6580-315-7,דירה בבית קומות,4.0,ב',86.28,1500000,,,1970.0,,3.0,8153055006,1,6580315,False,47% ב 2.5 שנים,רעננה,בר אילן,18.8,6580-315-7,6580/315,17385.257301808066,32.183337034,34.8746884732,2010
2010-08-24,2010-08-24,"אלי כהן 8, רעננה",אלי כהן 8,7654-415-0,קרקע למגורים,,,1290.0,3381000,,,,,,8154383380,1,7654415,False,,רעננה,אלי כהן,,7654-415-0,7654/415,2620.93023255814,32.186955602,34.868347903,2010
2010-08-23,2010-08-23,"גורדון 5, רעננה",גורדון 5,6582-41-4,דירה בבית קומות,5.0,ראשונה,108.0,2725000,,,2010.0,,2.0,8153443876,1,658241,False,,רעננה,גורדון,,6582-41-4,6582/41,25231.48148148148,32.1817326891,34.8654520239,2010
2010-08-23,2010-08-23,"הכלנית 19, רעננה",הכלנית 19,6578-472-1,דירה בבית קומות,5.0,קרקע,124.0,2180000,,,1997.0,,4.0,8153716048,1,6578472,False,,רעננה,הכלנית,,6578-472-1,6578/472,17580.645161290322,32.1902224133,34.8842172624,2010
2010-08-23,2010-08-23,"הזהב 4, רעננה",הזהב 4,6578-549-9,דירה בבית קומות,4.0,שלישית,102.75,1805000,,,2002.0,,15.0,8156087822,1,6578549,False,53% ב 6.3 שנים,רעננה,הזהב,8.41,6578-549-9,6578/549,17566.9099756691,32.1858330799,34.8883861687,2010
2010-08-22,2010-08-22,"השחפים 8, רעננה",השחפים 8,7651-380-1,קוטג' דו משפחתי,7.0,שניה,170.0,6000000,,,1995.0,,1.0,8152601386,1,7651380,False,,רעננה,השחפים,,7651-380-1,7651/380,35294.117647058825,32.1904274725,34.8549105505,2010
2010-08-20,2010-08-20,"הסייפן 5, רעננה",הסייפן 5,7650-326-4,דירה בבית קומות,5.0,קרקע,108.65,2180000,,,1994.0,,2.0,8152853578,1,7650326,False,57% ב 5.3 שנים,רעננה,הסייפן,10.75,7650-326-4,7650/326,20064.42705936493,32.190911773,34.8501763604,2010
2010-08-18,2010-08-18,"אלי כהן 11, רעננה",אלי כהן 11,7654-123-7,קרקע למגורים,,א,69.5,16829000,,,0.0,,3.0,8154742354,1,7654123,False,,רעננה,אלי כהן,,7654-123-7,7654/123,242143.88489208632,32.1866379678,34.867515306,2010
2010-08-17,2010-08-17,"קזן 11, רעננה",קזן 11,6586-403-3,דירת גג,5.0,שניה + גג,118.24,2117000,,,1980.0,,2.0,8154354224,1,6586403,False,,רעננה,קזן,,6586-403-3,6586/403,17904.26251691475,32.1779307149,34.8814044554,2010
2010-08-16,2010-08-16,"השרון 22, רעננה",השרון 22,6583-180-7,דירה בבית קומות,4.0,קומה ‎2‏,122.9,1650000,,,2018.0,,6.0,8152885842,1,6583180,False,149% ב 9.9 שנים,רעננה,השרון,15.05,6583-180-7,6583/180,13425.549227013831,32.178946348,34.8691041563,2010
2010-08-13,2010-08-13,"האלה 12, רעננה",האלה 12,6578-30-1,קרקע למגורים,,,1382.0,8303000,,,,,,8154657476,1,657830,False,,רעננה,האלה,,6578-30-1,6578/30,6007.959479015919,32.1883341726,34.8848819103,2010
2010-08-11,2010-11-08,"המרד 13, רעננה",המרד 13,7655-377-1,דירה בבית קומות,5.0,קרקע,116.97,2900000,,,1995.0,,4.0,8156913292,1,7655377,False,53% ב 4 שנים,רעננה,המרד,13.25,7655-377-1,7655/377,24792.681884243822,32.1895751476,34.8749169464,2010
2010-08-11,2010-11-08,"אשכול 2, רעננה",אשכול 2,6586-531-27,משרד,,ראשונה,21.2,500000,,,1995.0,,3.0,8157841252,1,6586531,False,6% ב 11.5 שנים,רעננה,אשכול לוי,0.52,6586-531-27,6586/531,23584.90566037736,32.1789859099,34.8792684786,2010
2010-08-11,2010-11-08,"דוד אלעזר 9, רעננה",דוד אלעזר 9,6581-462-6,דירה בבית קומות,4.0,שניה,77.7,1500000,,,1980.0,,3.0,8156493268,1,6581462,False,,רעננה,אלעזר דוד,,6581-462-6,6581/462,19305.019305019305,32.1792343839,34.8856630838,2010
2010-08-11,2010-11-08,"אחוזה 163, רעננה",אחוזה 163,6583-843-9,דירה בבית קומות,4.0,שלישית,113.0,2000000,,,2011.0,,4.0,8157096368,1,6583843,False,,רעננה,אחוזה,,6583-843-9,6583/843,17699.11504424779,32.1812134454,34.8694532884,2010
2010-08-08,2010-08-08,"קזן 3, רעננה",קזן 3,6586-755-6,דירה בבית קומות,4.0,שניה,98.5,1470000,,,1970.0,,5.0,8152912186,1,6586755,False,,רעננה,קזן,,6586-755-6,6586/755,14923.857868020305,32.1784597862,34.8814026306,2010
2010-08-08,2010-08-08,"ברוך שפינוזה 16, רעננה",ברוך שפינוזה 16,6579-800-6,דירה בבית קומות,3.5,שניה,84.4,1775000,,,2000.0,,3.0,8151757712,1,6579800,False,54% ב 7.6 שנים,רעננה,שפינוזה ברוך,7.11,6579-800-6,6579/800,21030.80568720379,32.1886693399,34.8642423008,2010
2010-08-08,2010-08-08,"קרן היסוד 11, רעננה",קרן היסוד 11,6580-719-10,דירה בבית קומות,3.0,שלישית,54.0,1275000,,,2021.0,,5.0,8151830972,1,6580719,False,,רעננה,קרן היסוד,,6580-719-10,6580/719,23611.11111111111,32.1831678141,34.8704383914,2010
2010-08-07,2010-07-08,"רש""י 33, רעננה","רש""י 33",6587-262-1,קוטג' דו משפחתי,6.0,קרקע +ראשונה,213.65,4020000,,,1993.0,,,8150987150,1,6587262,False,,רעננה,"רש""י",,6587-262-1,6587/262,18815.82026679148,32.174586813,34.883509065,2010
2010-08-06,2010-06-08,"קצין 2, רעננה",קצין 2,6587-303-3,קוטג' טורי,5.0,מרתף+קרקע+ראשונה,132.0,2195000,,,1975.0,,2.0,8150586588,1,6587303,False,,רעננה,קצין,,6587-303-3,6587/303,16628.78787878788,32.1772684584,34.8832332661,2010
2010-08-06,2010-06-08,"הלבונה 4, רעננה",הלבונה 4,6583-207-2,קוטג' דו משפחתי,6.0,שניה,200.0,8140000,,,1989.0,,1.0,8148416982,1,6583207,False,,רעננה,הלבונה,,6583-207-2,6583/207,40700.0,32.1779163703,34.8674909966,2010
2010-08-06,2010-06-08,"אורי צבי גרינברג 5, רעננה",אורי צבי גרינברג 5,6581-711-9,קוטג' דו משפחתי,6.0,מרתף קרקע ראשונה,191.75,2960000,,,1992.0,,,8150470704,1,6581711,False,,רעננה,גרינברג אורי צבי,,6581-711-9,6581/711,15436.7666232073,32.1824654679,34.8846354711,2010
2010-08-06,2010-06-08,"השריון 12, רעננה",השריון 12,6578-431-3,בית בודד,7.0,שלישית,380.0,17540000,,,1978.0,2009.0,2.0,8148413874,1,6578431,False,,רעננה,השריון,,6578-431-3,6578/431,46157.89473684211,32.188869126,34.8797815103,2010
2010-08-03,2010-03-08,"הגליל 25, רעננה",הגליל 25,6580-246-11,דירה בבית קומות,3.0,ג',66.86,1170000,,,2021.0,,4.0,8143815588,1,6580246,False,64% ב 3.5 שנים,רעננה,הגליל,18.29,6580-246-11,6580/246,17499.25216871074,32.1818604245,34.878283995,2010
2010-07-29,2010-07-29,"לוי אשכול 14, רעננה",לוי אשכול 14,6586-612-2,דירה בבית קומות,3.0,קומה ‎1‏,82.9,1320000,,,1970.0,,3.0,8151294324,1,6586612,False,,רעננה,אשכול לוי,,6586-612-2,6586/612,15922.798552472856,32.1768600143,34.878630144,2010
2010-07-29,2010-07-29,"מכבי 19, רעננה",מכבי 19,6580-107-7,דירה בבית קומות,3.0,ב,72.07,1363000,,,1970.0,,3.0,8151493236,1,6580107,False,,רעננה,מכבי,,6580-107-7,6580/107,18912.16872485084,32.181563319,34.8788908871,2010
2010-07-29,2010-07-29,"הגליל 50, רעננה",הגליל 50,6580-1026-6,דירה בבית קומות,5.0,שלישית,97.5,1620000,,,1986.0,,4.0,8151424860,1,65801026,False,61% ב 6.8 שנים,רעננה,הגליל,8.97,6580-1026-6,6580/1026,16615.384615384617,32.1838586774,34.8794610777,2010
2010-07-29,2010-07-29,"בר-אילן 31, רעננה",בר-אילן 31,6580-400-38,דירה בבית קומות,4.0,ג,115.75,1310000,,,1966.0,,6.0,8151214848,1,6580400,False,81% ב 6.9 שנים,רעננה,בר אילן,11.74,6580-400-38,6580/400,11317.494600431966,32.1838046652,34.8740998394,2010
2010-07-28,2010-07-28,"מבצע קדש 1, רעננה",מבצע קדש 1,7654-117-18,דירה בבית קומות,3.0,שלישית,57.0,1140000,,,1970.0,,3.0,8151218548,1,7654117,False,,רעננה,מבצע קדש,,7654-117-18,7654/117,20000.0,32.1879077674,34.8665470502,2010
2010-07-28,2010-07-28,"המייסדים 28, רעננה",המייסדים 28,6587-109-2,קוטג' דו משפחתי,6.0,ראשונה,200.0,6500000,,,1999.0,,2.0,8151485318,1,6587109,False,,רעננה,המיסדים,,6587-109-2,6587/109,32500.0,32.17497712,34.8817878281,2010
2010-07-27,2010-07-27,"בורוכוב 23, רעננה",בורוכוב 23,6580-628-21,דירה בבית קומות,4.0,ג',74.71,1320000,,,1972.0,,3.0,8151672760,1,6580628,False,86% ב 7.7 שנים,רעננה,בורוכוב,11.17,6580-628-21,6580/628,17668.317494311337,32.1825273666,34.8764240276,2010
2010-07-27,2010-07-27,"יערה 12, רעננה",יערה 12,6578-551-34,דירה בבית קומות,5.5,תשיעית,117.4,2165000,,,2005.0,,14.0,8151488944,1,6578551,False,21% ב 6.5 שנים,רעננה,יערה,3.23,6578-551-34,6578/551,18441.2265758092,32.1853110967,34.8873234607,2010
2010-07-27,2010-07-27,"מכבי 18, רעננה",מכבי 18,6580-881-1,דירה בבית קומות,4.0,ראשונה,86.83,1500000,,,1989.0,,5.0,8151478584,1,6580881,False,,רעננה,מכבי,,6580-881-1,6580/881,17275.135321893355,32.1811195211,34.8794016214,2010
2010-07-26,2010-07-26,"מסדה 5, רעננה",מסדה 5,7655-119-1,קרקע למגורים,,,779.0,7300000,,,,,,8151991478,1,7655119,False,,רעננה,מסדה,,7655-119-1,7655/119,9370.988446726573,32.1857714837,34.8758600963,2010
2010-07-25,2010-07-25,"משה סנה 13, רעננה",משה סנה 13,7649-188-3,דירת גן,4.0,ראשונה,84.2,2150000,,,1995.0,,5.0,8151222174,1,7649188,False,59% ב 6 שנים,רעננה,סנה משה,9.83,7649-188-3,7649/188,25534.44180522565,32.1943374518,34.8498851419,2010
2010-07-25,2010-07-25,"האלה 2, רעננה",האלה 2,6578-497-22,דירת גג,5.0,שלישית + גג,123.9,2350000,,,1997.0,,3.0,8151498786,1,6578497,False,101% ב 11.7 שנים,רעננה,האלה,8.63,6578-497-22,6578/497,18966.908797417276,32.1882753847,34.8865381687,2010
2010-07-22,2010-07-22,"ברוך שפינוזה 6, רעננה",ברוך שפינוזה 6,6579-799-12,דירה בבית קומות,4.0,שניה,103.2,1870000,,,1997.0,,3.0,8153194792,1,6579799,False,,רעננה,שפינוזה ברוך,,6579-799-12,6579/799,18120.15503875969,32.188415422,34.8649224573,2010
2010-07-22,2010-07-22,"הלוטוס 7, רעננה",הלוטוס 7,7651-564-14,דירה בבית קומות,6.0,ק. תחתונה+רביעית+גג,127.6,3450000,,,2001.0,,5.0,8150833896,1,7651564,False,128% ב 9 שנים,רעננה,הלוטוס,14.22,7651-564-14,7651/564,27037.61755485893,32.180664193,34.8571860854,2010
2010-07-22,2010-07-22,"בגין 1, רעננה",בגין 1,7649-214-5,דירה בבית קומות,4.0,ראשונה,102.33,2060000,,,1995.0,,4.0,8150802224,1,7649214,False,63% ב 3.1 שנים,רעננה,בגין מנחם,20.32,7649-214-5,7649/214,20130.94889084335,32.193696823,34.8518489728,2010
2010-07-21,2010-07-21,"התאנה 7, רעננה",התאנה 7,7651-244-1,קוטג' דו משפחתי,5.0,שניה,387.0,6800000,,,1996.0,,1.0,8151717308,1,7651244,False,,רעננה,התאנה,,7651-244-1,7651/244,17571.059431524547,32.1924293865,34.856908764,2010
2010-07-21,2010-07-21,"הרקפת 4, רעננה",הרקפת 4,6578-490-28,דירה בבית קומות,5.0,קרקע + שלישית,117.87,2220000,,,1996.0,,5.0,8150732516,1,6578490,False,81% ב 9 שנים,רעננה,הרקפת,9.0,6578-490-28,6578/490,18834.30898447442,32.1894926539,34.8858091289,2010
2010-07-18,2010-07-18,"אליעזר יפה 39, רעננה",אליעזר יפה 39,6580-817-13,דירה בבית קומות,4.0,שלישית,94.53,1240000,,,2020.0,,4.0,8150697218,1,6580817,False,,רעננה,יפה אליעזר,,6580-817-13,6580/817,13117.528826827462,32.183890938,34.8754607625,2010
2010-07-15,2010-07-15,"אחוזה 201, רעננה",אחוזה 201,6582-222-2,דירה בבית קומות,3.5,ראשונה,97.75,1385000,,,1989.0,,5.0,8150593322,1,6582222,False,43% ב 2.7 שנים,רעננה,אחוזה,15.93,6582-222-2,6582/222,14168.797953964196,32.1824999213,34.8636021039,2010
2010-07-13,2010-07-13,"בר-אילן 39, רעננה",בר-אילן 39,6580-396-30,דירה בבית קומות,4.5,שלישית,79.0,1636000,,,2021.0,,1.0,8150470112,1,6580396,False,,רעננה,בר אילן,,6580-396-30,6580/396,20708.86075949367,,,2010
2010-07-12,2010-12-07,"התבור 1, רעננה",התבור 1,7649-261-8,דירה בבית קומות,3.5,שניה,78.47,1395000,,,1990.0,,4.0,8158021368,1,7649261,False,,רעננה,התבור,,7649-261-8,7649/261,17777.49458391742,32.1958340782,34.8506282033,2010
2010-07-12,2010-12-07,"בן-גוריון 15, רעננה",בן-גוריון 15,6583-607-25,דירה בבית קומות,5.0,שביעית,130.0,2725000,,,1985.0,,7.0,8158138510,1,6583607,False,,רעננה,בן גוריון,,6583-607-25,6583/607,20961.53846153846,32.1787180897,34.8707843815,2010
2010-07-11,2010-11-07,"מכבי 1, רעננה",מכבי 1,6580-1071-80,דירה בבית קומות,2.0,שמינית,42.8,1012000,,,2001.0,,9.0,8156890574,1,65801071,False,,רעננה,מכבי,,6580-1071-80,6580/1071,23644.859813084116,32.1800820199,34.8783805061,2010
2010-07-11,2010-11-07,"עקיבא 88, רעננה",עקיבא 88,6578-475-16,דירה בבית קומות,5.0,שלישית,135.0,3225000,,,1996.0,,,8156915660,1,6578475,False,120% ב 9.4 שנים,רעננה,עקיבא,12.77,6578-475-16,6578/475,23888.88888888889,32.1886558809,34.8837177949,2010
2010-07-11,2010-11-07,"פרדס משותף 65, רעננה",פרדס משותף 65,6588-3-1,קרקע למגורים,,,808.0,2500000,,,1990.0,,1.0,8157802846,1,65883,False,,רעננה,פרדס משותף,,6588-3-1,6588/3,3094.059405940594,32.1754550162,34.8653642399,2010
2010-07-10,2010-10-07,"מכבי 1, רעננה",מכבי 1,6580-1071-16,משרד,,קרקע,33.55,1350000,,,2001.0,,9.0,8156886948,1,65801071,True,-14% ב 8 שנים,רעננה,מכבי,-1.75,6580-1071-16,6580/1071,40238.450074515655,32.1800820199,34.8783805061,2010
2010-07-10,2010-10-07,"חטיבת גבעתי 11, רעננה",חטיבת גבעתי 11,6579-627-45,דירה בבית קומות,4.0,שלישית,105.14,1750000,,,1990.0,,8.0,8156611668,1,6579627,False,,רעננה,חטיבת גבעתי,,6579-627-45,6579/627,16644.474034620507,32.1854639657,34.8636434954,2010
2010-07-09,2010-09-07,"גאולה 6, רעננה",גאולה 6,7652-93-3,חנות,,,39.0,456000,,,1950.0,,2.0,8155773396,1,765293,False,,רעננה,גאולה,,7652-93-3,7652/93,11692.307692307691,32.1940631483,34.8562095294,2010
2010-07-09,2010-09-07,"ציפמן 103, רעננה",ציפמן 103,6580-896-1,בית בודד,7.0,קרקע ראשונה,261.3,5800000,,,1975.0,,2.0,8155830302,1,6580896,False,,רעננה,ציפמן,,6580-896-1,6580/896,22196.708763872943,32.186235937,34.8789749195,2010
2010-07-07,2010-07-07,"הטייסים 17, רעננה",הטייסים 17,6578-161-2,קוטג' דו משפחתי,7.0,שניה,187.0,7402000,,,1983.0,,1.0,8150065850,1,6578161,False,,רעננה,הטייסים,,6578-161-2,6578/161,39582.88770053476,32.1878316932,34.8809230067,2010
2010-07-07,2010-07-07,"עקיבא 15, רעננה",עקיבא 15,6581-517-6,דירה בבית קומות,4.0,שניה,99.75,1475000,,,1980.0,,7.0,8150422530,1,6581517,False,,רעננה,עקיבא,,6581-517-6,6581/517,14786.967418546366,32.1810988458,34.880406389,2010
2010-07-06,2010-06-07,"ההגנה 95, רעננה",ההגנה 95,7654-111-1,קרקע למגורים,3.0,ראשונה,90.0,58333000,,,1970.0,,6.0,8371401478,1,7654111,False,,רעננה,ההגנה,,7654-111-1,7654/111,648144.4444444445,32.1888717056,34.8668030242,2010
2010-07-06,2010-06-07,"רמב""ם 69, רעננה","רמב""ם 69",6586-94-3,קוטג' טורי,5.0,,200.0,5800000,,,1946.0,,1.0,8149918812,1,658694,False,,רעננה,"רמב""ם",,6586-94-3,6586/94,29000.0,32.1745846011,34.8761023074,2010
2010-07-04,2010-04-07,"דוד אלעזר 54, רעננה",דוד אלעזר 54,6581-442-1,בית בודד,5.0,קרקע וראשונה,156.3,3750000,,,1980.0,,,8145315716,1,6581442,False,,רעננה,אלעזר דוד,,6581-442-1,6581/442,23992.322456813818,32.1824621094,34.8869206743,2010
2010-07-04,2010-04-07,"המחתרות 10, רעננה",המחתרות 10,7654-445-3,דירה בבית קומות,5.0,ראשונה,122.54,2250000,,,1995.0,,3.0,8145098970,1,7654445,False,62% ב 7.3 שנים,רעננה,המחתרות,8.49,7654-445-3,7654/445,18361.351395462705,32.190233492,34.8637419592,2010
2010-07-04,2010-04-07,"האלה 4, רעננה",האלה 4,6578-497-10,דירה בבית קומות,5.0,שלישית + גג,125.6,2335000,,,1997.0,,3.0,8145162388,1,6578497,False,47% ב 3.5 שנים,רעננה,האלה,13.43,6578-497-10,6578/497,18590.764331210197,32.1882753847,34.8865381687,2010
2010-07-03,2010-03-07,"חנקין 38, רעננה",חנקין 38,6580-71-6,דירה בבית קומות,5.0,שניה,106.0,1500000,,,1983.0,,5.0,8144263806,1,658071,False,,רעננה,חנקין,,6580-71-6,6580/71,14150.943396226416,32.1831503188,34.8780514662,2010
2010-07-03,2010-03-07,"לוי אשכול 11, רעננה",לוי אשכול 11,6586-809-11,דירה בבית קומות,3.0,שלישית,67.12,1250000,,,1973.0,,3.0,8144194764,1,6586809,False,62% ב 5.9 שנים,רעננה,אשכול לוי,10.51,6586-809-11,6586/809,18623.361144219307,32.1778389883,34.8793510217,2010
2010-07-03,2010-03-07,"הזית 2, רעננה",הזית 2,6578-487-16,דירה בבית קומות,3.0,שניה,74.94,1600000,,,1997.0,,4.0,8144495722,1,6578487,False,,רעננה,הזית,,6578-487-16,6578/487,21350.413664264743,32.1885893475,34.8844786202,2010
2010-07-02,2010-02-07,"ז'בוטינסקי 8, רעננה",ז'בוטינסקי 8,6583-417-26,דירה בבית קומות,3.0,שלישית,75.0,1111000,,,1970.0,,3.0,8142004142,1,6583417,False,,רעננה,ז'בוטינסקי,,6583-417-26,6583/417,14813.333333333334,32.1794576391,34.8735744402,2010
2010-06-30,2010-06-30,"התחייה 5, רעננה",התחייה 5,8573-3-24,דירה בבית קומות,4.5,שניה+גג,101.7,1660000,,,1991.0,,3.0,8150087828,1,85733,False,,רעננה,התחיה,,8573-3-24,8573/3,16322.51720747296,32.1951717007,34.8526491519,2010
2010-06-30,2010-06-30,"ברנדייס 14, רעננה",ברנדייס 14,6583-765-5,דירה בבית קומות,5.0,שניה,110.33,1745000,,,1990.0,,3.0,8150802816,1,6583765,False,2% ב 1.9 שנים,רעננה,ברנדיס,1.05,6583-765-5,6583/765,15816.187800235655,32.1797662461,34.872208748,2010
2010-06-30,2010-06-30,"אחוזה 37, רעננה",אחוזה 37,6587-345-9,דירה בבית קומות,4.0,רביעית,93.0,1400000,,,1999.0,,7.0,8152303314,1,6587345,False,,רעננה,אחוזה,,6587-345-9,6587/345,15053.763440860215,32.1781048094,34.8839844532,2010
2010-06-30,2010-06-30,"הגליל 59, רעננה",הגליל 59,6580-752-2,דירה בבית קומות,3.5,ראשונה,72.2,1460000,,,1970.0,,3.0,8150002358,1,6580752,False,80% ב 6.6 שנים,רעננה,הגליל,12.12,6580-752-2,6580/752,20221.60664819945,32.1849147777,34.8792104232,2010
2010-06-29,2010-06-29,"דוכיפת 29, רעננה",דוכיפת 29,7651-411-2,קוטג' דו משפחתי,6.0,שניה,300.0,8536000,,,2007.0,,2.0,8149970094,1,7651411,False,,רעננה,דוכיפת,,7651-411-2,7651/411,28453.33333333333,32.1911717086,34.851971761,2010
2010-06-28,2010-06-28,"הר סיני 5, רעננה",הר סיני 5,6580-683-3,דירה בבית קומות,5.0,ראשונה,117.0,2000000,,,1994.0,,4.0,8154838776,1,6580683,False,60% ב 10.1 שנים,רעננה,הר סיני,5.94,6580-683-3,6580/683,17094.017094017094,32.1821301844,34.8694452881,2010
2010-06-28,2010-06-28,"המיתר 9, רעננה",המיתר 9,6582-450-1,קוטג' דו משפחתי,5.0,שניה,200.0,4540000,,,2007.0,,1.0,8150874892,1,6582450,False,,רעננה,המיתר,,6582-450-1,6582/450,22700.0,32.183234424,34.8574270259,2010
2010-06-27,2010-06-27,"בר אילן 34, רעננה",בר אילן 34,6580-314-3,דירה בבית קומות,4.0,א',89.19,1850000,,,1973.0,,3.0,8149846662,1,6580314,False,102% ב 6.7 שנים,רעננה,בר אילן,15.22,6580-314-3,6580/314,20742.235676645363,32.1835113033,34.8747421191,2010
2010-06-25,2010-06-25,"הפרחים 38, רעננה",הפרחים 38,7651-535-4,דירה בבית קומות,4.0,קרקע+קרקע תחתונה,97.5,2500000,,,2000.0,,1.0,8150188616,1,7651535,False,56% ב 4.9 שנים,רעננה,הפרחים,11.43,7651-535-4,7651/535,25641.02564102564,32.1805315709,34.8551888583,2010
2010-06-24,2010-06-24,"ארלוזורוב 27, רעננה",ארלוזורוב 27,6586-622-11,דירה בבית קומות,3.0,שלישית,69.5,1250000,,,1970.0,,3.0,8149488280,1,6586622,False,,רעננה,ארלוזורוב,,6586-622-11,6586/622,17985.61151079137,32.1769993973,34.8784025004,2010
2010-06-24,2010-06-24,"יצחק טבנקין 17, רעננה",יצחק טבנקין 17,6579-866-1,קרקע למגורים,,,600.0,6400000,,,,,,8151228390,1,6579866,False,,רעננה,טבנקין יצחק,,6579-866-1,6579/866,10666.666666666666,32.1883602694,34.8605875262,2010
2010-06-24,2010-06-24,"מכבי 47, רעננה",מכבי 47,6580-93-12,דירה בבית קומות,3.0,שלישית,75.94,1195000,,,1970.0,,3.0,8149475552,1,658093,False,,רעננה,מכבי,,6580-93-12,6580/93,15736.107453252567,32.1836757992,34.8796986758,2010
2010-06-23,2010-06-23,"הזהב 4, רעננה",הזהב 4,6578-549-20,דירה בבית קומות,4.0,שישית,99.5,1880000,,,2002.0,,15.0,8150189800,1,6578549,False,60% ב 6.9 שנים,רעננה,הזהב,8.7,6578-549-20,6578/549,18894.472361809047,32.1858330799,34.8883861687,2010
2010-06-23,2010-06-23,"יציאת אירופה 11, רעננה",יציאת אירופה 11,7652-220-1,בית בודד,3.0,ראשונה,70.2,1790000,,,1965.0,,1.0,8149325924,1,7652220,False,,רעננה,יציאת אירופה,,7652-220-1,7652/220,25498.575498575497,32.1965291302,34.8559468954,2010
2010-06-22,2010-06-22,"גאולה 7, רעננה",גאולה 7,7649-140-31,דירה בבית קומות,5.0,שלישית,84.0,1120000,,,2023.0,,3.0,8150832712,1,7649140,False,73% ב 4.7 שנים,רעננה,גאולה,15.53,7649-140-31,7649/140,13333.333333333334,32.194438498,34.8554493122,2010
2010-06-22,2010-06-22,"מאפו 27, רעננה",מאפו 27,6578-192-1,קוטג' דו משפחתי,6.0,קרקע וראשונה,124.67,3900000,,,1973.0,,2.0,8149442548,1,6578192,False,121% ב 10.7 שנים,רעננה,מאפו,11.31,6578-192-1,6578/192,31282.58602711157,32.1873365922,34.8834312668,2010
2010-06-22,2010-06-22,"עגנון 1, רעננה",עגנון 1,6583-604-5,חנות,,קרקע,45.63,3310000,,,1979.0,,6.0,8151796118,1,6583604,False,,רעננה,עגנון,,6583-604-5,6583/604,72539.99561691869,32.1778169498,34.8710227475,2010
2010-06-22,2010-06-22,"בן-גוריון 13, רעננה",בן-גוריון 13,6583-608-4,דירה בבית קומות,5.0,ראשונה,119.94,1800000,,,1980.0,,7.0,8149264208,1,6583608,False,,רעננה,בן גוריון,,6583-608-4,6583/608,15007.503751875938,32.178750132,34.8712233992,2010
2010-06-21,2010-06-21,"הוורד 21, רעננה",הוורד 21,6582-339-1,קוטג' דו משפחתי,5.0,שניה,266.0,3750000,,,2000.0,,2.0,8149325332,1,6582339,False,,רעננה,הורד,,6582-339-1,6582/339,14097.744360902256,32.1799767868,34.8597674461,2010
2010-06-21,2010-06-21,"התאנה 26, רעננה",התאנה 26,7651-261-1,קוטג' דו משפחתי,7.0,שלישית,249.0,8200000,,,1985.0,,2.0,8149539710,1,7651261,False,,רעננה,התאנה,,7651-261-1,7651/261,32931.726907630524,32.1918995573,34.8585671424,2010
2010-06-21,2010-06-21,"אחוזה 109, רעננה",אחוזה 109,6586-513-12,מחסנים,,קרקע,,2560000,,,1950.0,,3.0,8150638018,1,6586513,False,,רעננה,אחוזה,,6586-513-12,6586/513,,32.1800996935,34.8755283432,2010
2010-06-21,2010-06-21,"אחוזה 110, רעננה",אחוזה 110,6580-43-46,דירה בבית קומות,3.0,ג,73.27,965000,,,1960.0,,3.0,8149446174,1,658043,False,,רעננה,אחוזה,,6580-43-46,6580/43,13170.465401938038,32.180661728,34.8757162481,2010
2010-06-20,2010-06-20,"השקד 4, רעננה",השקד 4,6578-491-6,דירה בבית קומות,4.0,קרקע תחתונה+ראשונה,91.5,1775000,,,1997.0,,1.0,8149581150,1,6578491,False,,רעננה,השקד,,6578-491-6,6578/491,19398.90710382513,32.1888633038,34.8857851468,2010
2010-06-17,2010-06-17,"השרון 10, רעננה",השרון 10,6583-174-7,דירה בבית קומות,6.0,קרקע+רביעית+גג,147.27,2980000,,,1991.0,,4.0,8149568274,1,6583174,False,,רעננה,השרון,,6583-174-7,6583/174,20234.94262239424,32.1801235338,34.8694619757,2010
2010-06-17,2010-06-17,"דוד רזיאל 1, רעננה",דוד רזיאל 1,6583-429-32,דירה בבית קומות,3.0,שלישית,59.0,1300000,,,2026.0,,4.0,8149308904,1,6583429,False,,רעננה,רזיאל דוד,,6583-429-32,6583/429,22033.898305084746,32.1799042413,34.8737504125,2010
2010-06-17,2010-06-17,"אנילביץ 17, רעננה",אנילביץ 17,7654-115-0,קרקע למגורים,,,1496.0,16756000,,,1970.0,,8.0,8151557986,1,7654115,False,,רעננה,אנילביץ,,7654-115-0,7654/115,11200.534759358288,32.1876799243,34.8675115019,2010
2010-06-16,2010-06-16,"פוזין 2, רעננה",פוזין 2,6580-282-25,דירה בבית קומות,2.5,ראשונה,60.0,1090000,,,1970.0,,1.0,8149111620,1,6580282,False,,רעננה,פוזין,,6580-282-25,6580/282,18166.666666666668,,,2010
2010-06-16,2010-06-16,"יפה אליעזר 37, רעננה",יפה אליעזר 37,6580-741-14,דירה בבית קומות,4.0,רביעית,93.0,1300000,,,1979.0,,5.0,8149460308,1,6580741,False,,רעננה,יפה אליעזר,,6580-741-14,6580/741,13978.494623655914,32.1835559676,34.875359462,2010
2010-06-16,2010-06-16,"רמב""ם 71, רעננה","רמב""ם 71",6586-95-1,קוטג' דו משפחתי,6.0,שניה,400.0,9000000,,,1990.0,,1.0,8148799784,1,658695,False,,רעננה,"רמב""ם",,6586-95-1,6586/95,22500.0,32.1744538618,34.8760615138,2010
2010-06-15,2010-06-15,"מכבי 19, רעננה",מכבי 19,6580-107-9,דירה בבית קומות,5.0,ג,84.47,1370000,,,1970.0,,3.0,8150809402,1,6580107,False,51% ב 2.7 שנים,רעננה,מכבי,18.89,6580-107-9,6580/107,16218.775896768084,32.181563319,34.8788908871,2010
2010-06-15,2010-06-15,"הרקפת 4, רעננה",הרקפת 4,6578-490-30,דירה בבית קומות,4.0,קרקע + רביעית,93.04,1850000,,,1996.0,,5.0,8150244782,1,6578490,False,,רעננה,הרקפת,,6578-490-30,6578/490,19883.92089423904,32.1894926539,34.8858091289,2010
2010-06-14,2010-06-14,"הגלים 39, רעננה",הגלים 39,6579-745-2,קוטג' דו משפחתי,6.0,שניה,285.0,7460000,,,1979.0,,1.0,8149094008,1,6579745,False,,רעננה,הגלים,,6579-745-2,6579/745,26175.43859649123,32.1873058555,34.8567216067,2010
2010-06-13,2010-06-13,"רמב""ם 21, רעננה","רמב""ם 21",6586-72-18,דירה בבית קומות,4.0,שלישית,89.98,1430000,,,1974.0,,3.0,8149571382,1,658672,False,94% ב 8.9 שנים,רעננה,"רמב""ם",10.56,6586-72-18,6586/72,15892.42053789731,32.1779744029,34.8771468501,2010
2010-06-13,2010-06-13,"הנגב 23, רעננה",הנגב 23,6580-1040-6,מחסנים,,,31.0,400000,,,1996.0,,4.0,8149412652,1,65801040,False,,רעננה,הנגב,,6580-1040-6,6580/1040,12903.225806451614,32.1802393016,34.8777964889,2010
2010-06-10,2010-10-06,"בר-אילן 39, רעננה",בר-אילן 39,6580-396-29,דירה בבית קומות,5.0,ראשונה,95.0,1512000,,,2021.0,,1.0,8156903524,1,6580396,False,,רעננה,בר אילן,,6580-396-29,6580/396,15915.78947368421,,,2010
2010-06-10,2010-10-06,"הנשיאים 1, רעננה",הנשיאים 1,6579-557-5,דירה בבית קומות,5.0,שלישית+גג,113.0,2592000,,,2001.0,,4.0,8154755230,1,6579557,False,35% ב 4.1 שנים,רעננה,הנשיאים,8.54,6579-557-5,6579/557,22938.05309734513,32.1838365131,34.8611966105,2010
2010-06-10,2010-10-06,"ביל""ו 51, רעננה","ביל""ו 51",6582-253-5,קוטג' דו משפחתי,7.0,מרתף+קרקע+ראשונה,275.81,5200000,,,2003.0,,2.0,8155387634,1,6582253,False,,רעננה,"ביל""ו",,6582-253-5,6582/253,18853.558609187483,32.1801047342,34.8622013283,2010
2010-06-09,2010-09-06,"הקישון 2, רעננה",הקישון 2,6578-445-0,קרקע למגורים,,,1484.0,1227000,,,0.0,,3.0,8155300240,1,6578445,False,,רעננה,הקישון,,6578-445-0,6578/445,826.8194070080863,32.1910926325,34.8832964061,2010
2010-06-09,2010-09-06,"מכבי 24, רעננה",מכבי 24,6580-964-15,דירה בבית קומות,4.0,רביעית,99.24,1720000,,,1990.0,,5.0,8154155682,1,6580964,False,,רעננה,מכבי,,6580-964-15,6580/964,17331.721080209594,32.1816504832,34.8795630515,2010
2010-06-09,2010-09-06,"ויצמן 251, רעננה",ויצמן 251,7650-299-17,דירה בבית קומות,3.5,שניה,80.85,1475000,,,1994.0,,4.0,8154036098,1,7650299,False,58% ב 6.3 שנים,רעננה,ויצמן,9.21,7650-299-17,7650/299,18243.66110080396,32.1922270081,34.8513409704,2010
2010-06-07,2010-07-06,"הרב בן-אור 6, רעננה",הרב בן-אור 6,6580-1000-1,קוטג' דו משפחתי,5.0,שניה,180.0,7200000,,,1981.0,,1.0,8150197866,1,65801000,False,,רעננה,הרב בן אור,,6580-1000-1,6580/1000,40000.0,32.1829439308,34.8681804044,2010
2010-06-06,2010-06-06,"אחד העם 3, רעננה",אחד העם 3,6581-803-20,דירה בבית קומות,3.0,שלישית,53.1,1270000,,,2002.0,,7.0,8148574380,1,6581803,False,17% ב 0.9 שנים,רעננה,אחד העם,18.89,6581-803-20,6581/803,23917.13747645951,32.1793555109,34.8821482038,2010
2010-06-06,2010-06-06,"משה סנה 7, רעננה",משה סנה 7,7649-206-6,דירה בבית קומות,4.0,ראשונה,104.1,2000000,,,1994.0,,4.0,8149739880,1,7649206,False,93% ב 10.2 שנים,רעננה,סנה משה,9.12,7649-206-6,7649/206,19212.29586935639,32.1945118768,34.851084858,2010
2010-06-06,2010-06-06,"המחתרות 22, רעננה",המחתרות 22,7654-401-1,דירה בבית קומות,4.0,ראשונה,125.13,2000000,,,1995.0,,4.0,8148289924,1,7654401,False,28% ב 8.5 שנים,רעננה,המחתרות,3.29,7654-401-1,7654/401,15983.377287620877,32.1908348126,34.8610606101,2010
2010-06-06,2010-06-06,"העיט 5, רעננה",העיט 5,7650-328-16,דירה בבית קומות,4.0,ראשונה + קרקע,105.07,2375000,,,1999.0,,,8148820430,1,7650328,False,,רעננה,העיט,,7650-328-16,7650/328,22603.978300180832,32.1903767879,34.8498261839,2010
2010-06-01,2010-01-06,"זבוטינסקי 5, רעננה",זבוטינסקי 5,6583-658-101,משרד,,שלישית,32.49,232000,,,2000.0,,3.0,8141268508,1,6583658,False,,רעננה,ז'בוטינסקי,,6583-658-101,6583/658,7140.65866420437,32.1798183167,34.8743224017,2010
2010-05-31,2010-05-31,"לוי אשכול 16, רעננה",לוי אשכול 16,6586-611-8,דירה בבית קומות,3.0,ראשונה,58.32,1200000,,,1970.0,,4.0,8148084722,1,6586611,False,66% ב 6 שנים,רעננה,אשכול לוי,11.0,6586-611-8,6586/611,20576.1316872428,32.176446372,34.8785048014,2010
2010-05-31,2010-05-31,"החורש 16, רעננה",החורש 16,6578-560-27,דירה בבית קומות,5.0,שלישית,113.1,2039000,,,2010.0,,6.0,8149018972,1,6578560,False,,רעננה,החורש,,6578-560-27,6578/560,18028.293545534925,32.1857095507,34.8890199576,2010
2010-05-31,2010-05-31,"קזן 29, רעננה",קזן 29,6586-671-4,קוטג' טורי,5.0,קרקע וראשונה,119.11,2740000,,,1982.0,,2.0,8148039064,1,6586671,False,,רעננה,קזן,,6586-671-4,6586/671,23003.94593233146,32.1761542484,34.880726375,2010
2010-05-31,2010-05-31,"היובל 27, רעננה",היובל 27,6580-772-3,דירה בבית קומות,4.0,ראשונה,98.93,1650000,,,1980.0,,4.0,8148598134,1,6580772,False,,רעננה,היובל,,6580-772-3,6580/772,16678.45951683008,32.1851010394,34.8724398826,2010
2010-05-31,2010-05-31,"דוד אלעזר 9, רעננה",דוד אלעזר 9,6581-462-24,דירה בבית קומות,4.0,שלישית,77.7,1764000,,,1980.0,,3.0,8148254626,1,6581462,False,,רעננה,אלעזר דוד,,6581-462-24,6581/462,22702.702702702703,32.1792343839,34.8856630838,2010
2010-05-31,2010-05-31,"המעלות 7, רעננה",המעלות 7,6586-586-1,דירה בבית קומות,4.0,ראשונה,80.0,1400000,,,1970.0,,3.0,8147982898,1,6586586,False,,רעננה,המעלות,,6586-586-1,6586/586,17500.0,32.1791578857,34.8749464889,2010
2010-05-30,2010-05-30,"הנשר 43, רעננה",הנשר 43,7651-435-3,קוטג' דו משפחתי,6.0,שניה,210.0,7400000,,,1994.0,,1.0,8148480400,1,7651435,False,,רעננה,הנשר,,7651-435-3,7651/435,35238.09523809524,32.1901815073,34.852695763,2010
2010-05-30,2010-05-30,"אחוזה 80, רעננה",אחוזה 80,6581-147-20,דירה בבית קומות,2.0,ב,49.42,607000,,,1960.0,,2.0,8150624550,1,6581147,False,,רעננה,אחוזה,,6581-147-20,6581/147,12282.476730068798,32.1797780435,34.8795546424,2010
2010-05-30,2010-05-30,"אחוזה 80, רעננה",אחוזה 80,6581-147-19,דירה בבית קומות,2.0,ב,59.34,742000,,,1960.0,,2.0,8150627066,1,6581147,False,,רעננה,אחוזה,,6581-147-19,6581/147,12504.213009774185,32.1797780435,34.8795546424,2010
2010-05-30,2010-05-30,"קזן 1, רעננה",קזן 1,6586-754-15,דירה בבית קומות,3.0,"חמישית, שישית",96.1,1875000,,,2010.0,,5.0,8148341946,1,6586754,False,,רעננה,קזן,,6586-754-15,6586/754,19510.92611862643,32.1786978098,34.8814021178,2010
2010-05-27,2010-05-27,"ברוך שפינוזה 5, רעננה",ברוך שפינוזה 5,6579-808-2,קוטג' דו משפחתי,6.0,שניה,287.0,4200000,,,2001.0,,2.0,8150597614,1,6579808,False,,רעננה,שפינוזה ברוך,,6579-808-2,6579/808,14634.146341463416,32.1887660051,34.8655583876,2010
2010-05-27,2010-05-27,"הכרמל 3, רעננה",הכרמל 3,7649-270-8,דירה בבית קומות,3.0,שניה,72.47,1430000,,,1998.0,,4.0,8147988300,1,7649270,False,59% ב 4.5 שנים,רעננה,הכרמל,13.11,7649-270-8,7649/270,19732.30302194011,32.1964042206,34.85191196,2010
2010-05-27,2010-05-27,"ידין יגאל 2, רעננה",ידין יגאל 2,6582-223-5,דירה בבית קומות,4.0,שניה,97.75,1410000,,,1988.0,,5.0,8147876560,1,6582223,False,,רעננה,ידין יגאל,,6582-223-5,6582/223,14424.55242966752,32.1824612916,34.8632880205,2010
2010-05-27,2010-05-27,"אחד העם 3, רעננה",אחד העם 3,6581-803-30,דירה בבית קומות,3.0,חמישית,58.95,1550000,,,2002.0,,7.0,8148284448,1,6581803,False,61% ב 8.3 שנים,רעננה,אחד העם,7.35,6581-803-30,6581/803,26293.46904156064,32.1793555109,34.8821482038,2010
2010-05-27,2010-05-27,"ההסתדרות 56, רעננה",ההסתדרות 56,7654-68-1,קוטג' חד משפחתי,6.0,שניה,167.0,3110000,,,1999.0,,2.0,8148413282,1,765468,False,,רעננה,ההסתדרות,,7654-68-1,7654/68,18622.754491017964,32.1879214389,34.8706255982,2010
2010-05-27,2010-05-27,"לוי אשכול 20, רעננה",לוי אשכול 20,6586-614-47,דירה בבית קומות,3.0,שניה,54.0,1200000,,,2020.0,,6.0,8148573196,1,6586614,False,,רעננה,אשכול לוי,,6586-614-47,6586/614,22222.222222222223,32.1757099742,34.8782788594,2010
2010-05-26,2010-05-26,"אברהם שלונסקי 3, רעננה",אברהם שלונסקי 3,7654-460-16,דירת גן,5.0,קרקע עליונה+קרקע תחתונה,122.16,1935000,,,1996.0,,3.0,8149256882,1,7654460,False,,רעננה,שלונסקי אברהם,,7654-460-16,7654/460,15839.882121807466,32.1911535259,34.8625060772,2010
2010-05-25,2010-05-25,"החורש 16, רעננה",החורש 16,6578-560-26,דירה בבית קומות,5.0,שניה,113.4,2050000,,,2010.0,,6.0,8148282746,1,6578560,False,,רעננה,החורש,,6578-560-26,6578/560,18077.60141093474,32.1857095507,34.8890199576,2010
2010-05-25,2010-05-25,"הכלנית 24, רעננה",הכלנית 24,6578-598-59,דירה בבית קומות,4.0,שניה,98.1,1950000,,,2006.0,,6.0,8147849106,1,6578598,False,52% ב 4 שנים,רעננה,הכלנית,13.0,6578-598-59,6578/598,19877.675840978594,32.1908881241,34.8842313801,2010
2010-05-25,2010-05-25,"הגלים 8, רעננה",הגלים 8,6579-726-0,קוטג' טורי,5.0,שניה,596.0,3200000,,,1998.0,,2.0,8147360188,1,6579726,False,,רעננה,הגלים,,6579-726-0,6579/726,5369.127516778523,32.1881128125,34.8575697866,2010
2010-05-24,2010-05-24,"רמב""ם 27, רעננה","רמב""ם 27",6586-74-14,דירה בבית קומות,4.5,רביעית,107.8,1600000,,,1980.0,,5.0,8148276604,1,658674,False,,רעננה,"רמב""ם",,6586-74-14,6586/74,14842.300556586271,32.1775786996,34.8770273376,2010
2010-05-24,2010-05-24,"שברץ 6, רעננה",שברץ 6,6581-547-12,דירה בבית קומות,4.0,שלישית,93.28,1520000,,,1984.0,,6.0,8147797232,1,6581547,False,67% ב 7.6 שנים,רעננה,שברץ,8.82,6581-547-12,6581/547,16295.025728987994,32.1800406004,34.8819443165,2010
2010-05-24,2010-05-24,"מסדה 1, רעננה",מסדה 1,7655-121-2,בית בודד,1.0,שניה,700.0,19786000,,,1990.0,,1.0,8148844332,1,7655121,False,,רעננה,מסדה,,7655-121-2,7655/121,28265.714285714286,32.1861630053,34.8759840926,2010
2010-05-24,2010-05-24,"קזן 4, רעננה",קזן 4,6586-900-15,דירה בבית קומות,5.5,שלישית,113.17,1800000,,,1996.0,,7.0,8147715388,1,6586900,False,,רעננה,קזן,,6586-900-15,6586/900,15905.27524962446,32.1783835177,34.8806174861,2010
2010-05-24,2010-05-24,"אוסטרובסקי 13, רעננה",אוסטרובסקי 13,6586-860-6,דירה בבית קומות,4.0,שניה,99.5,1930000,,,1998.0,,4.0,8148123276,1,6586860,False,,רעננה,אוסטרובסקי,,6586-860-6,6586/860,19396.98492462312,32.1767703408,34.875324934,2010
2010-05-24,2010-05-24,"התאנה 6, רעננה",התאנה 6,7651-241-1,קוטג' דו משפחתי,6.0,שניה,280.0,4250000,,,1981.0,,1.0,8147853398,1,7651241,False,,רעננה,התאנה,,7651-241-1,7651/241,15178.57142857143,32.192170986,34.8563825358,2010
2010-05-23,2010-05-23,"שברץ 21, רעננה",שברץ 21,6581-402-10,דירה בבית קומות,3.0,שלישית,82.05,1450000,,,1970.0,,4.0,8148094564,1,6581402,False,55% ב 6.1 שנים,רעננה,שברץ,9.02,6581-402-10,6581/402,17672.151127361365,32.1813577061,34.881560203,2010
2010-05-20,2010-05-20,"יערה 12, רעננה",יערה 12,6578-551-41,דירה בבית קומות,4.0,אחת עשרה,114.89,5830000,,,2005.0,,14.0,8148697812,1,6578551,False,,רעננה,יערה,,6578-551-41,6578/551,50744.19009487336,32.1853110967,34.8873234607,2010
2010-05-19,2010-05-19,"ההגנה 92, רעננה",ההגנה 92,7654-362-2,בית בודד,6.0,קרקע תחתונה+קרקע+,236.28,4891000,,,1985.0,,2.0,8149015938,1,7654362,False,63% ב 1.9 שנים,רעננה,ההגנה,33.16,7654-362-2,7654/362,20700.01692906721,32.1888198756,34.8707252723,2010
2010-05-17,2010-05-17,"האגם 20, רעננה",האגם 20,7651-580-1,דירה בבית קומות,5.0,מרתף+קרקע+ראשונה,207.48,3150000,,,1996.0,,2.0,8149953666,1,7651580,False,4% ב 3.1 שנים,רעננה,האגם,1.29,7651-580-1,7651/580,15182.186234817817,32.1831902029,34.8540354706,2010
2010-05-17,2010-05-17,"בגין 15, רעננה",בגין 15,7649-191-16,דירה בבית קומות,5.5,שניה+שלישית,125.42,2690000,,,1995.0,,3.0,8147605646,1,7649191,False,98% ב 8.2 שנים,רעננה,בגין מנחם,11.95,7649-191-16,7649/191,21447.93493860628,32.1933420226,34.8493760655,2010
2010-05-17,2010-05-17,"מגדל 5, רעננה",מגדל 5,6579-383-2,דירה בבית קומות,3.0,ראשונה,45.15,950000,,,1940.0,,2.0,8147377356,1,6579383,False,,רעננה,מגדל,,6579-383-2,6579/383,21040.974529346626,32.1837209491,34.8643177224,2010
2010-05-16,2010-05-16,"היצירה 5, רעננה",היצירה 5,7656-282-7,תעשיה,,שניה,125.0,780000,,,1994.0,,2.0,8147747208,1,7656282,False,,רעננה,היצירה,,7656-282-7,7656/282,6240.0,32.1946359943,34.8777633336,2010
2010-05-14,2010-05-14,"הנשר 59, רעננה",הנשר 59,7650-330-17,דירה בבית קומות,6.0,שניה + שלישית,124.81,2667000,,,1995.0,,2.0,8148690486,1,7650330,False,,רעננה,הנשר,,7650-330-17,7650/330,21368.4800897364,32.191015611,34.8507168111,2010
2010-05-13,2010-05-13,"משה סנה 19, רעננה",משה סנה 19,7649-186-16,דירה בבית קומות,3.5,קרקע,80.78,1850000,,,1995.0,,2.0,8147326666,1,7649186,False,90% ב 8.1 שנים,רעננה,סנה משה,11.11,7649-186-16,7649/186,22901.708343649418,32.194251266,34.8491176183,2010
2010-05-13,2010-05-13,"דיין משה 38, רעננה",דיין משה 38,6582-282-7,בית בודד,5.0,שלישית,140.3,1450000,,,1997.0,,3.0,8147369438,1,6582282,False,,רעננה,דיין משה,,6582-282-7,6582/282,10334.996436208125,32.1791741126,34.8624625385,2010
2010-05-13,2010-05-13,"הלוטוס 7, רעננה",הלוטוס 7,7651-564-13,דירה בבית קומות,5.0,ק. תחתונה+רביעית+גג,127.6,3050000,,,2001.0,,5.0,8146950746,1,7651564,False,51% ב 3.3 שנים,רעננה,הלוטוס,15.45,7651-564-13,7651/564,23902.82131661442,32.180664193,34.8571860854,2010
2010-05-12,2010-12-05,"בגין 11, רעננה",בגין 11,7649-193-1,דירה בבית קומות,4.0,קרקע,103.71,2250000,,,1995.0,,6.0,8214208680,1,7649193,False,83% ב 10.3 שנים,רעננה,בגין מנחם,8.06,7649-193-1,7649/193,21695.11136823836,32.1934554225,34.8502698122,2010
2010-05-12,2010-12-05,"מבצע קדש 13, רעננה",מבצע קדש 13,7654-119-6,דירה בבית קומות,2.0,ארבע עשרה,69.0,930000,,,1970.0,,3.0,8158009158,1,7654119,False,72% ב 10.9 שנים,רעננה,מבצע קדש,6.61,7654-119-6,7654/119,13478.260869565218,32.1871135978,34.8663837412,2010
2010-05-10,2010-10-05,"השקד 3, רעננה",השקד 3,6578-486-30,דירה בבית קומות,4.0,שלישית,85.73,1600000,,,1997.0,,5.0,8155926650,1,6578486,False,0% ב 0.7 שנים,רעננה,השקד,0.0,6578-486-30,6578/486,18663.24507173685,32.1890145211,34.8847231936,2010
2010-05-10,2010-10-05,"הכלנית 1, רעננה",הכלנית 1,6578-494-2,דירה בבית קומות,5.0,ראשונה,119.0,2000000,,,1996.0,,3.0,8155678898,1,6578494,False,,רעננה,הכלנית,,6578-494-2,6578/494,16806.722689075632,32.1897747575,34.8868513301,2010
2010-05-08,2010-08-05,"עציון 3, רעננה",עציון 3,6579-279-2,קוטג' דו משפחתי,6.0,שניה,200.0,5500000,,,1975.0,,1.0,8151829640,1,6579279,False,,רעננה,עציון,,6579-279-2,6579/279,27500.0,,,2010
2010-05-08,2010-08-05,"החורש 16, רעננה",החורש 16,6578-560-6,דירה בבית קומות,5.0,שניה,113.8,2270000,,,2010.0,,6.0,8152127712,1,6578560,False,,רעננה,החורש,,6578-560-6,6578/560,19947.275922671357,32.1857095507,34.8890199576,2010
2010-05-08,2010-08-05,"עקיבא 7, רעננה",עקיבא 7,6581-507-24,דירה בבית קומות,5.0,שישית וגג,105.0,1400000,,,1984.0,,6.0,8151758304,1,6581507,False,,רעננה,עקיבא,,6581-507-24,6581/507,13333.333333333334,32.1802499692,34.8801183553,2010
2010-05-07,2010-07-05,"דיין משה 44, רעננה",דיין משה 44,6582-278-4,דירה בבית קומות,4.0,שניה,91.15,1950000,,,1997.0,,3.0,8150046314,1,6582278,False,52% ב 6.1 שנים,רעננה,דיין משה,8.52,6582-278-4,6582/278,21393.307734503564,32.1783374722,34.8621413966,2010
2010-05-07,2010-07-05,"דרור 7, רעננה",דרור 7,8573-6-4,דירה בבית קומות,3.5,שניה,74.5,1325000,,,1992.0,,3.0,8150020710,1,85736,False,25% ב 8 שנים,רעננה,דרור,3.12,8573-6-4,8573/6,17785.234899328858,32.1968832848,34.8541766786,2010
2010-05-06,2010-06-05,"הכלנית 4, רעננה",הכלנית 4,6578-539-1,קוטג' דו משפחתי,6.0,"מרתף,קרקע,ראשנה,שניה",211.16,3160000,,,2001.0,,2.0,8149884032,1,6578539,False,,רעננה,הכלנית,,6578-539-1,6578/539,14964.95548399318,32.19049322,34.8856493968,2010
2010-05-05,2010-05-05,"מכבי 28, רעננה",מכבי 28,6580-130-2,דירה בבית קומות,2.0,קרקע,45.0,1070000,,,1960.0,,5.0,8147318748,1,6580130,False,,רעננה,מכבי,,6580-130-2,6580/130,23777.777777777777,32.1818564323,34.879703834,2010
2010-05-01,2010-01-05,"נורדאו 4, רעננה",נורדאו 4,6578-277-1,קוטג' דו משפחתי,6.0,שניה,220.0,9200000,,,1980.0,,1.0,8140671994,1,6578277,False,,רעננה,נורדאו,,6578-277-1,6578/277,41818.181818181816,32.1855903051,34.885572217,2010
2010-04-29,2010-04-29,"ברנר 41, רעננה",ברנר 41,6586-935-1,בית בודד,8.0,שניה,280.0,5450000,,,2000.0,,2.0,8146449248,1,6586935,False,,רעננה,ברנר,,6586-935-1,6586/935,19464.285714285717,32.1744451805,34.8769232008,2010
2010-04-29,2010-04-29,"הפרחים 6, רעננה",הפרחים 6,6582-361-9,דירה בבית קומות,4.0,שלישית,91.4,1880000,,,1999.0,,4.0,8147040952,1,6582361,False,61% ב 5 שנים,רעננה,הפרחים,12.2,6582-361-9,6582/361,20568.927789934354,32.1778301621,34.8613720831,2010
2010-04-28,2010-04-28,"הגליל 11, רעננה",הגליל 11,6580-922-2,דירה בבית קומות,5.0,ראשונה,116.0,1530000,,,1980.0,,5.0,8146718016,1,6580922,False,,רעננה,הגליל,,6580-922-2,6580/922,13189.655172413792,32.1808201115,34.8780646709,2010
2010-04-27,2010-04-27,"המלאכה 2, רעננה",המלאכה 2,7656-203-4,מחסנים,,קרקע,,122000,,,2009.0,,4.0,8147729448,1,7656203,False,,רעננה,המלאכה,,7656-203-4,7656/203,,32.1982492116,34.8806247718,2010
2010-04-27,2010-04-27,"עקיבא 9, רעננה",עקיבא 9,6581-503-8,דירה בבית קומות,4.0,שניה,93.0,1610000,,,1984.0,,5.0,8146941496,1,6581503,False,88% ב 11.3 שנים,רעננה,עקיבא,7.79,6581-503-8,6581/503,17311.827956989247,32.1804798961,34.880197898,2010
2010-04-26,2010-04-26,"יעקב דורי 19, רעננה",יעקב דורי 19,6582-464-4,דירה בבית קומות,4.0,רביעית,100.0,2850000,,,2000.0,,3.0,8146723566,1,6582464,False,,רעננה,דורי יעקב,,6582-464-4,6582/464,28500.0,32.1793454081,34.861736521,2010
2010-04-26,2010-04-26,"דוכיפת 8, רעננה",דוכיפת 8,7651-423-3,בית בודד,6.0,שניה,180.0,8500000,,,1996.0,,2.0,8145915856,1,7651423,False,,רעננה,דוכיפת,,7651-423-3,7651/423,47222.22222222222,32.1912594853,34.8536277734,2010
2010-04-25,2010-04-25,"המרד 7, רעננה",המרד 7,7655-374-1,דירה בבית קומות,5.0,קרקע,128.24,2640000,,,1993.0,,3.0,8146039806,1,7655374,False,,רעננה,המרד,,7655-374-1,7655/374,20586.400499064253,32.1896360161,34.873935003,2010
2010-04-25,2010-04-25,"הכלנית 13, רעננה",הכלנית 13,6578-483-25,דירה בבית קומות,4.0,ראשונה,88.95,1925000,,,2004.0,,4.0,8146017088,1,6578483,False,57% ב 4.7 שנים,רעננה,הכלנית,12.13,6578-483-25,6578/483,21641.371557054525,32.1901304954,34.8849116851,2010
2010-04-22,2010-04-22,"הזהב 3, רעננה",הזהב 3,6578-550-37,דירה בבית קומות,5.0,עשירית,113.0,1950000,,,2008.0,,14.0,8147022082,1,6578550,False,,רעננה,הזהב,,6578-550-37,6578/550,17256.63716814159,32.1859523546,34.8874676243,2010
2010-04-22,2010-04-22,"כצנלסון ברל 12, רעננה",כצנלסון ברל 12,7655-254-3,קרקע למגורים,,קרקע,73.7,1850000,,,1960.0,,,8148177666,1,7655254,False,68% ב 0.9 שנים,רעננה,כצנלסון ברל,75.56,7655-254-3,7655/254,25101.763907734057,32.192096077,34.8802805648,2010
2010-04-22,2010-04-22,"סאלד 36, רעננה",סאלד 36,6586-383-1,בית בודד,6.0,שניה,277.0,5700000,,,1991.0,,2.0,8146050166,1,6586383,False,,רעננה,סולד,,6586-383-1,6586/383,20577.617328519857,32.1755119569,34.8811102676,2010
2010-04-22,2010-04-22,"אלימלך רימלט 15, רעננה",אלימלך רימלט 15,7649-181-4,דירה בבית קומות,4.0,ראשונה,84.2,2075000,,,1995.0,,4.0,8145784506,1,7649181,False,72% ב 7 שנים,רעננה,רימלט אלימלך,10.29,7649-181-4,7649/181,24643.705463182898,32.1951510127,34.8496892292,2010
2010-04-21,2010-04-21,"אח""י דקר 23, רעננה","אח""י דקר 23",6578-245-1,בית בודד,6.0,שניה,250.0,3950000,,,1990.0,,1.0,8145937094,1,6578245,False,,רעננה,"אח""י דקר",,6578-245-1,6578/245,15800.0,32.1875045616,34.8805059164,2010
2010-04-21,2010-04-21,"הפרחים 36, רעננה",הפרחים 36,7651-658-21,דירה בבית קומות,4.0,שניה,85.0,1810000,,,2001.0,,4.0,8146106332,1,7651658,False,50% ב 1.8 שנים,רעננה,הפרחים,27.78,7651-658-21,7651/658,21294.117647058825,32.1801226002,34.8550245626,2010
2010-04-21,2010-04-21,"בגין 15, רעננה",בגין 15,7649-191-15,דירה בבית קומות,4.5,ראשונה,101.85,1925000,,,1995.0,,3.0,8145993334,1,7649191,False,73% ב 8.6 שנים,רעננה,בגין מנחם,8.49,7649-191-15,7649/191,18900.34364261169,32.1933420226,34.8493760655,2010
2010-04-21,2010-04-21,"הלוטוס 11, רעננה",הלוטוס 11,7651-662-9,דירה בבית קומות,4.0,קרקע,89.0,2230000,,,1999.0,,3.0,8145661148,1,7651662,False,,רעננה,הלוטוס,,7651-662-9,7651/662,25056.1797752809,32.180128585,34.8565447862,2010
2010-04-21,2010-04-21,"בורוכוב 31, רעננה",בורוכוב 31,6580-547-5,דירה בבית קומות,3.5,א',78.51,1300000,,,1970.0,,3.0,8146268096,1,6580547,False,,רעננה,בורוכוב,,6580-547-5,6580/547,16558.400203795693,,,2010
2010-04-18,2010-04-18,"התאנה 1, רעננה",התאנה 1,7651-238-1,קוטג' טורי,5.0,שניה,230.0,3035000,,,1988.0,,2.0,8145692376,1,7651238,False,,רעננה,התאנה,,7651-238-1,7651/238,13195.652173913044,32.1926268605,34.8560856332,2010
2010-04-18,2010-04-18,"בן-יהודה 16, רעננה",בן-יהודה 16,6578-93-2,קוטג' דו משפחתי,6.0,שניה,224.0,7800000,,,1988.0,,1.0,8145593438,1,657893,False,,רעננה,בן יהודה,,6578-93-2,6578/93,34821.42857142857,32.1869795261,34.8849732507,2010
2010-04-18,2010-04-18,"השקד 4, רעננה",השקד 4,6578-491-23,דירה בבית קומות,4.0,קרקע תחתונה+קרקע,91.5,1870000,,,1997.0,,1.0,8145608682,1,6578491,False,,רעננה,השקד,,6578-491-23,6578/491,20437.15846994536,32.1888633038,34.8857851468,2010
2010-04-16,2010-04-16,"האלה 2, רעננה",האלה 2,6578-497-25,דירה בבית קומות,5.0,קרקע עליונה,118.7,2440000,,,1997.0,,3.0,8145413840,1,6578497,False,,רעננה,האלה,,6578-497-25,6578/497,20556.02358887953,32.1882753847,34.8865381687,2010
2010-04-15,2010-04-15,"גולומב 25, רעננה",גולומב 25,6580-754-2,דירה בבית קומות,5.0,ראשונה,109.3,1885000,,,1970.0,,6.0,8145522620,1,6580754,False,,רעננה,גולומב,,6580-754-2,6580/754,17246.111619396157,32.1827790814,34.871719264,2010
2010-04-15,2010-04-15,"יערה 10, רעננה",יערה 10,6578-552-2,דירה בבית קומות,5.0,ראשונה,124.0,2400000,,,2008.0,,15.0,8147146550,1,6578552,False,29% ב 2.3 שנים,רעננה,יערה,12.61,6578-552-2,6578/552,19354.83870967742,32.1851755826,34.88823354,2010
2010-04-15,2010-04-15,"יהודה הלוי 17, רעננה",יהודה הלוי 17,6583-779-4,דירה בבית קומות,6.0,שניה+גג,121.39,3150000,,,1997.0,,2.0,8145335178,1,6583779,False,,רעננה,יהודה הלוי,,6583-779-4,6583/779,25949.41922728396,32.180368957,34.8664358677,2010
2010-04-14,2010-04-14,"ויצמן 127, רעננה",ויצמן 127,7654-211-37,דירה בבית קומות,3.0,שלישית,60.0,870000,,,1975.0,,6.0,8145846074,1,7654211,False,,רעננה,ויצמן,,7654-211-37,7654/211,14500.0,,,2010
2010-04-14,2010-04-14,"פרדס משותף 23, רעננה",פרדס משותף 23,6584-68-2,קרקע למגורים,,קרקע + ראשונה,172.15,3385000,,,1988.0,,2.0,8147030518,1,658468,False,50% ב 5.9 שנים,רעננה,פרדס משותף,8.47,6584-68-2,6584/68,19663.08451931455,32.174240442,34.8699378536,2010
2010-04-13,2010-04-13,"הסחלב 17, רעננה",הסחלב 17,7651-661-8,דירה בבית קומות,5.0,שניה,105.0,2270000,,,2000.0,,4.0,8145412138,1,7651661,False,,רעננה,הסחלב,,7651-661-8,7651/661,21619.04761904762,32.1801384363,34.8569755727,2010
2010-04-11,2010-11-04,"החי""ל 38, רעננה","החי""ל 38",6579-503-22,דירה בבית קומות,4.5,שלישית+גג,106.82,2350000,,,1980.0,,3.0,8157281442,1,6579503,False,99% ב 6.3 שנים,רעננה,"החי""ל",15.71,6579-503-22,6579/503,21999.62553828871,32.1859661812,34.8658404229,2010
2010-04-11,2010-11-04,"ביל""ו 55, רעננה","ביל""ו 55",6582-190-3,קוטג' דו משפחתי,6.0,מרתף+קרקע+ראשונה,185.46,4225000,,,1991.0,,2.0,8157232602,1,6582190,False,91% ב 10.2 שנים,רעננה,"ביל""ו",8.92,6582-190-3,6582/190,22781.19271001833,32.1802483078,34.861562441,2010
2010-04-11,2010-11-04,"ביאליק 26, רעננה",ביאליק 26,6586-227-4,דירה בבית קומות,4.0,שניה,84.2,1535000,,,1980.0,,3.0,8156698914,1,6586227,False,46% ב 2.9 שנים,רעננה,ביאליק,15.86,6586-227-4,6586/227,18230.40380047506,32.1769765528,34.8793770259,2010
2010-04-11,2010-11-04,"מכבי 1, רעננה",מכבי 1,6580-1071-38,דירה בבית קומות,2.0,שלישית,44.85,1012000,,,2001.0,,9.0,8156892498,1,65801071,False,,רעננה,מכבי,,6580-1071-38,6580/1071,22564.102564102563,32.1800820199,34.8783805061,2010
2010-04-10,2010-10-04,"חיים לסקוב 1, רעננה",חיים לסקוב 1,6582-184-5,קוטג' טורי,6.0,קרקע+ראשונה,145.7,3115000,,,1985.0,,,8154612928,1,6582184,False,,רעננה,לסקוב חיים,,6582-184-5,6582/184,21379.54701441318,32.1820207306,34.8619596873,2010
2010-04-10,2010-10-04,"החרצית 6, רעננה",החרצית 6,6582-397-11,דירה בבית קומות,4.0,שלישית,91.0,2085000,,,1998.0,,4.0,8155308306,1,6582397,False,45% ב 4.6 שנים,רעננה,החרצית,9.78,6582-397-11,6582/397,22912.08791208791,32.1785427952,34.8594154643,2010
2010-04-08,2010-08-04,"אחוזה 137, רעננה",אחוזה 137,6583-364-6,חנות,,קרקע,87.3,1176000,,,1973.0,,3.0,8154256470,1,6583364,True,-36% ב 5.8 שנים,רעננה,אחוזה,-6.21,6583-364-6,6583/364,13470.790378006874,32.1807038942,34.8725660248,2010
2010-04-08,2010-08-04,"קלאוזנר 14, רעננה",קלאוזנר 14,6586-519-6,דירה בבית קומות,4.0,ב',90.0,1560000,,,1969.0,,3.0,8152686264,1,6586519,False,73% ב 7.3 שנים,רעננה,קלאוזנר,10.0,6586-519-6,6586/519,17333.333333333332,32.1785575009,34.8750558404,2010
2010-04-08,2010-08-04,"הנשיאים 48, רעננה",הנשיאים 48,7654-441-14,דירה בבית קומות,5.0,שלישית,152.5,3950000,,,1997.0,,3.0,8151500562,1,7654441,False,95% ב 6.7 שנים,רעננה,הנשיאים,14.18,7654-441-14,7654/441,25901.63934426229,32.1912857328,34.863943317,2010
2010-04-08,2010-08-04,"סולד 16, רעננה",סולד 16,6586-666-4,קוטג' דו משפחתי,7.0,קרקע וראשונה,159.97,3380000,,,1980.0,,2.0,8151999322,1,6586666,False,,רעננה,סולד,,6586-666-4,6586/666,21128.96168031506,32.1771764286,34.8816060345,2010
2010-04-07,2010-07-04,"התקווה 16, רעננה",התקווה 16,7652-84-1,חנות,,קרקע,33.6,400000,,,1960.0,,,8152504372,1,765284,False,,רעננה,התקוה,,7652-84-1,7652/84,11904.761904761905,32.1953944589,34.8563640189,2010
2010-04-06,2010-06-04,"יצחק שדה 22, רעננה",יצחק שדה 22,6582-166-2,דירת גן,5.0,שניה,178.0,3000000,,,1996.0,,,8150003542,1,6582166,False,,רעננה,יצחק שדה,,6582-166-2,6582/166,16853.932584269663,32.1835703079,34.8589490214,2010
2010-04-06,2010-06-04,"ביל""ו 41, רעננה","ביל""ו 41",6582-213-5,קוטג' טורי,5.0,קרקע+ראשונה,132.58,3450000,,,1980.0,,2.0,8149675278,1,6582213,False,,רעננה,"ביל""ו",,6582-213-5,6582/213,26022.02443807512,32.1797782537,34.8636759237,2010
2010-04-05,2010-05-04,"אשכול 2, רעננה",אשכול 2,6586-531-30,משרד,,ראשונה,21.2,250000,,,1995.0,,3.0,8147863758,1,6586531,False,,רעננה,אשכול לוי,,6586-531-30,6586/531,11792.45283018868,32.1789859099,34.8792684786,2010
2010-04-05,2010-05-04,"היובל 26, רעננה",היובל 26,6580-821-22,דירה בבית קומות,5.0,שישית,106.2,2295000,,,1983.0,,8.0,8146524432,1,6580821,False,,רעננה,היובל,,6580-821-22,6580/821,21610.169491525423,32.185471701,34.8733370082,2010
2010-04-05,2010-05-04,"חנקין 36, רעננה",חנקין 36,6580-188-15,דירה בבית קומות,4.5,שלישית,65.26,1655000,,,1975.0,,3.0,8148387086,1,6580188,False,,רעננה,חנקין,,6580-188-15,6580/188,25360.09806926141,32.1829255492,34.8779811158,2010
2010-04-03,2010-03-04,"המחתרות 4, רעננה",המחתרות 4,7654-456-4,דירה בבית קומות,4.0,קרקע + שניה,92.85,2100000,,,2004.0,,6.0,8143966400,1,7654456,False,60% ב 5 שנים,רעננה,המחתרות,12.0,7654-456-4,7654/456,22617.124394184168,32.1898151454,34.865308899,2010
2010-04-03,2010-03-04,"עקיבא 23, רעננה",עקיבא 23,6581-593-33,דירה בבית קומות,5.0,שלישית,114.0,1812000,,,1980.0,,6.0,8143802120,1,6581593,False,90% ב 11.8 שנים,רעננה,עקיבא,7.63,6581-593-33,6581/593,15894.736842105263,32.1819399179,34.880695573,2010
2010-04-02,2010-02-04,"ארלוזורוב 55, רעננה",ארלוזורוב 55,6586-608-3,דירה בבית קומות,5.5,"קרקע,א,ב,",138.94,2400000,,,1976.0,,2.0,8142329594,1,6586608,False,94% ב 10.7 שנים,רעננה,ארלוזורוב,8.79,6586-608-3,6586/608,17273.64329926587,32.1753248698,34.877880906,2010
2010-04-02,2010-02-04,"הוורד 8, רעננה",הוורד 8,6582-502-9,דירה בבית קומות,5.0,קרקע עליונה,100.85,2800000,,,2001.0,,3.0,8143271614,1,6582502,False,,רעננה,הורד,,6582-502-9,6582/502,27764.005949429848,32.1802592192,34.8591662039,2010
2010-03-28,2010-03-28,"הרצל 17, רעננה",הרצל 17,6583-507-9,דירה בבית קומות,6.0,שלישית וגג,130.0,2750000,,,1975.0,,3.0,8145237572,1,6583507,False,,רעננה,הרצל,,6583-507-9,6583/507,21153.846153846152,32.17994861,34.8688708093,2010
2010-03-28,2010-03-28,"עציון 70, רעננה",עציון 70,6579-864-1,קוטג' דו משפחתי,8.0,שניה,285.0,7764000,,,1980.0,,1.0,8144865130,1,6579864,False,,רעננה,עציון,,6579-864-1,6579/864,27242.105263157893,32.188617849,34.8604049086,2010
2010-03-25,2010-03-25,"יערה 12, רעננה",יערה 12,6578-551-2,קוטג' דו משפחתי,5.0,ראשונה,140.5,2200000,,,2005.0,,14.0,8145680166,1,6578551,False,43% ב 4.5 שנים,רעננה,יערה,9.56,6578-551-2,6578/551,15658.362989323845,32.1853110967,34.8873234607,2010
2010-03-25,2010-03-25,"בר אילן 33, רעננה",בר אילן 33,6580-399-2,דירה בבית קומות,3.0,א,72.12,1220000,,,1970.0,,4.0,8146547594,1,6580399,False,63% ב 3.6 שנים,רעננה,בר אילן,17.5,6580-399-2,6580/399,16916.250693288963,32.1839789616,34.8741511216,2010
2010-03-25,2010-03-25,"ציפמן 101, רעננה",ציפמן 101,6580-209-4,בית בודד,1.0,שניה,360.0,6250000,,,1977.0,,2.0,8144867572,1,6580209,False,,רעננה,ציפמן,,6580-209-4,6580/209,17361.11111111111,32.1862172139,34.8791997714,2010
2010-03-25,2010-03-25,"אשר 4, רעננה",אשר 4,6579-255-0,קרקע למגורים,,,711.0,5130000,,,0.0,,1.0,8146508078,1,6579255,False,,רעננה,אשר,,6579-255-0,6579/255,7215.189873417721,32.1841038239,34.8607317897,2010
2010-03-25,2010-03-25,"הצנחנים 15, רעננה",הצנחנים 15,6578-409-0,בית בודד,6.0,שניה,750.0,4280000,,,1974.0,,2.0,8146232058,1,6578409,False,,רעננה,הצנחנים,,6578-409-0,6578/409,5706.666666666667,32.1891457984,34.8809978633,2010
2010-03-24,2010-03-24,"הקישון 10, רעננה",הקישון 10,6578-440-2,קוטג' טורי,6.0,קרקע+ראשונה+שניה,166.5,3000000,,,1997.0,,2.0,8144846778,1,6578440,False,,רעננה,הקישון,,6578-440-2,6578/440,18018.018018018018,32.1912843286,34.8830194912,2010
2010-03-24,2010-03-24,"האופק 9, רעננה",האופק 9,6579-682-1,קוטג' דו משפחתי,5.0,שניה,280.0,8320000,,,1990.0,,1.0,8145148920,1,6579682,False,,רעננה,האופק,,6579-682-1,6579/682,29714.285714285717,32.1885793335,34.8592638872,2010
2010-03-24,2010-03-24,"מוצקין 8, רעננה",מוצקין 8,6580-172-3,קוטג' טורי,6.0,קרקע+א'+ב',158.04,2530000,,,1975.0,,2.0,8144753390,1,6580172,False,,רעננה,מוצקין,,6580-172-3,6580/172,16008.605416350292,32.1831062535,34.8686218717,2010
2010-03-23,2010-03-23,"מוצקין 3, רעננה",מוצקין 3,6580-181-2,קוטג' טורי,6.0,ראשונה,142.0,10222000,,,1990.0,,1.0,8145064708,1,6580181,False,,רעננה,מוצקין,,6580-181-2,6580/181,71985.91549295775,32.183182095,34.8682735103,2010
2010-03-23,2010-03-23,"יערה 8, רעננה",יערה 8,6578-553-8,דירה בבית קומות,6.0,"רביעית, עלית גג, קרקע תחתונה",160.9,3552000,,,2009.0,,5.0,8144690490,1,6578553,False,,רעננה,יערה,,6578-553-8,6578/553,22075.8234928527,32.1847503564,34.8881623354,2010
2010-03-22,2010-03-22,"הקישון 24, רעננה",הקישון 24,6578-436-1,בית בודד,5.0,שניה,230.0,3570000,,,1990.0,,1.0,8144793054,1,6578436,False,,רעננה,הקישון,,6578-436-1,6578/436,15521.739130434782,32.1914131301,34.8824602747,2010
2010-03-22,2010-03-22,"הסנונית 3, רעננה",הסנונית 3,7650-300-16,דירה בבית קומות,6.0,שניה ושלישית,123.36,2515000,,,1994.0,,2.0,8144489580,1,7650300,False,,רעננה,הסנונית,,7650-300-16,7650/300,20387.483787289235,32.1918099347,34.8514158991,2010
2010-03-19,2010-03-19,"התקומה 15, רעננה",התקומה 15,8573-4-9,דירה בבית קומות,3.5,שניה,75.9,1200000,,,1990.0,,4.0,8144362670,1,85734,False,,רעננה,התקומה,,8573-4-9,8573/4,15810.276679841896,32.1958335142,34.8528299568,2010
2010-03-18,2010-03-18,"הנשר 1, רעננה",הנשר 1,7651-485-2,קרקע למגורים,,,594.0,1300000,,,2004.0,,1.0,8145499458,1,7651485,False,,רעננה,הנשר,,7651-485-2,7651/485,2188.5521885521885,32.1896750412,34.8545968459,2010
2010-03-18,2010-03-18,"בר-אילן 7, רעננה",בר-אילן 7,6580-1024-7,דירה בבית קומות,3.0,ראשונה,100.0,1400000,,,1999.0,,4.0,8144344392,1,65801024,False,,רעננה,בר אילן,,6580-1024-7,6580/1024,14000.0,32.1817172884,34.873427163,2010
2010-03-18,2010-03-18,"קזן 9, רעננה",קזן 9,6586-404-2,בית בודד,7.0,שניה,300.0,3600000,,,1998.0,,1.0,8146033664,1,6586404,False,,רעננה,קזן,,6586-404-2,6586/404,12000.0,32.1780009415,34.881108647,2010
2010-03-18,2010-03-18,"שמואל הנגיד 24, רעננה",שמואל הנגיד 24,7654-298-2,בית בודד,4.0,ראשונה,130.0,2000000,,,1990.0,,1.0,8145213152,1,7654298,False,,רעננה,שמואל הנגיד,,7654-298-2,7654/298,15384.615384615385,32.1900722575,34.8712777627,2010
2010-03-17,2010-03-17,"המעפילים 3, רעננה",המעפילים 3,6579-417-7,דירה בבית קומות,4.0,שניה,103.0,1350000,,,1970.0,,3.0,8144264398,1,6579417,False,,רעננה,המעפילים,,6579-417-7,6579/417,13106.796116504856,32.1847879317,34.8669685651,2010
2010-03-17,2010-03-17,"בורוכוב 11, רעננה",בורוכוב 11,6580-713-14,דירה בבית קומות,5.0,שלישית + גג,107.77,1750000,,,1970.0,,5.0,8144222144,1,6580713,False,86% ב 8 שנים,רעננה,בורוכוב,10.75,6580-713-14,6580/713,16238.285237078964,32.1814696836,34.8760963243,2010
2010-03-17,2010-03-17,"מכבי 1, רעננה",מכבי 1,6580-1071-57,דירה בבית קומות,2.0,חמישית,40.2,850000,,,2001.0,,9.0,8146214446,1,65801071,False,21% ב 4.8 שנים,רעננה,מכבי,4.38,6580-1071-57,6580/1071,21144.27860696517,32.1800820199,34.8783805061,2010
2010-03-16,2010-03-16,"אליעזר יפה 24, רעננה",אליעזר יפה 24,6580-614-9,דירה בבית קומות,5.0,שלישית וגג,98.86,1900000,,,1977.0,,3.0,8144255740,1,6580614,False,,רעננה,יפה אליעזר,,6580-614-9,6580/614,19219.097713938903,32.1848575682,34.876390757,2010
2010-03-16,2010-03-16,"עגנון 12, רעננה",עגנון 12,6583-593-16,דירה בבית קומות,4.5,רביעית,105.4,1600000,,,1982.0,,5.0,8144451766,1,6583593,False,34% ב 4.5 שנים,רעננה,עגנון,7.56,6583-593-16,6583/593,15180.265654648956,32.1766621548,34.8700512842,2010
2010-03-15,2010-03-15,"הטייסים 36, רעננה",הטייסים 36,6578-419-1,קרקע למגורים,,,381.0,3599000,,,0.0,,1.0,8144340692,1,6578419,False,,רעננה,הטייסים,,6578-419-1,6578/419,9446.194225721783,32.1883350248,34.8798057083,2010
2010-03-15,2010-03-15,"הנשר 1, רעננה",הנשר 1,7651-485-1,תעשיה,,שניה,891.0,8549000,,,2004.0,,1.0,8145498866,1,7651485,False,,רעננה,הנשר,,7651-485-1,7651/485,9594.837261503928,32.1896750412,34.8545968459,2010
2010-03-15,2010-03-15,"השביט 1, רעננה",השביט 1,6579-699-1,קוטג' דו משפחתי,6.0,שניה,230.0,4000000,,,1994.0,,1.0,8145601948,1,6579699,False,,רעננה,השביט,,6579-699-1,6579/699,17391.304347826088,32.1851774856,34.858008225,2010
2010-03-15,2010-03-15,"התדהר 17, רעננה",התדהר 17,7657-121-8,משרד,,שניה,171.4,2462000,,,2002.0,,4.0,8146394340,1,7657121,False,,רעננה,התדהר,,7657-121-8,7657/121,14364.060676779463,32.1971298659,34.8838909819,2010
2010-03-14,2010-03-14,"ביאליק 28, רעננה",ביאליק 28,6586-226-1,דירה בבית קומות,4.0,א,78.59,1450000,,,1970.0,,3.0,8144183812,1,6586226,False,67% ב 6 שנים,רעננה,ביאליק,11.17,6586-226-1,6586/226,18450.18450184502,32.1768124562,34.8793280441,2010
2010-03-14,2010-03-14,"בורוכוב 4, רעננה",בורוכוב 4,6580-337-6,דירה בבית קומות,3.0,א,85.97,970000,,,1960.0,,3.0,8145759494,1,6580337,False,,רעננה,בורוכוב,,6580-337-6,6580/337,11283.005699662674,32.1805674444,34.8764450071,2010
2010-03-12,2010-12-03,"בורוכוב 8, רעננה",בורוכוב 8,6580-555-25,משרד,,שניה,211.0,2000000,,,1960.0,,2.0,8214628704,1,6580555,False,,רעננה,בורוכוב,,6580-555-25,6580/555,9478.67298578199,32.1808222701,34.8766386636,2010
2010-03-11,2010-11-03,"השחר 64, רעננה",השחר 64,6579-677-1,בית בודד,6.0,שניה,365.0,5100000,,,2000.0,,1.0,8156449904,1,6579677,False,,רעננה,השחר,,6579-677-1,6579/677,13972.602739726028,32.1892017352,34.8592215741,2010
2010-03-10,2010-10-03,"אחוזה 199, רעננה",אחוזה 199,6582-198-2,דירה בבית קומות,4.0,ראשונה,98.63,1510000,,,1984.0,,5.0,8154790676,1,6582198,False,,רעננה,אחוזה,,6582-198-2,6582/198,15309.74348575484,32.1822415837,34.8646241008,2010
2010-03-10,2010-10-03,"הסחלב 12, רעננה",הסחלב 12,7651-511-10,דירה בבית קומות,3.0,רביעית,78.19,1800000,,,1998.0,,7.0,8154494528,1,7651511,False,63% ב 7 שנים,רעננה,הסחלב,9.0,7651-511-10,7651/511,23020.846655582554,32.179946717,34.8583700802,2010
2010-03-08,2010-08-03,"המחתרות 4, רעננה",המחתרות 4,7654-456-19,דירה בבית קומות,5.0,קרקע + חמישית + שישית,134.35,3090000,,,2004.0,,6.0,8151954256,1,7654456,False,46% ב 5 שנים,רעננה,המחתרות,9.2,7654-456-19,7654/456,22999.62783773725,32.1898151454,34.865308899,2010
2010-03-06,2010-06-03,"חטיבת הראל 29, רעננה",חטיבת הראל 29,6579-567-2,קוטג' דו משפחתי,7.0,רביעית,200.0,3170000,,,1990.0,,1.0,8148467672,1,6579567,False,,רעננה,חטיבת הראל,,6579-567-2,6579/567,15850.0,32.189008115,34.8632584868,2010
2010-03-06,2010-06-03,"קצין 7, רעננה",קצין 7,6587-126-3,קוטג' טורי,6.0,"קרקע,א,ב",143.4,2300000,,,1970.0,,2.0,8148466340,1,6587126,False,,רעננה,קצין,,6587-126-3,6587/126,16039.05160390516,32.1776914421,34.8836900033,2010
2010-03-06,2010-06-03,"המלאכה 18, רעננה",המלאכה 18,7656-343-105,תעשיה,,ראשונה,116.56,420000,,,1980.0,,2.0,8149518324,1,7656343,False,,רעננה,המלאכה,,7656-343-105,7656/343,3603.2944406314346,32.1980304085,34.8775863636,2010
2010-03-05,2010-05-03,"זבוטינסקי 5, רעננה",זבוטינסקי 5,6583-658-77,משרד,,שניה,32.52,233000,,,2000.0,,3.0,8147324298,1,6583658,False,,רעננה,ז'בוטינסקי,,6583-658-77,6583/658,7164.821648216482,32.1798183167,34.8743224017,2010
2010-03-05,2010-05-03,"אחוזה 178, רעננה",אחוזה 178,6580-536-1,קרקע למגורים,,,79.28,3120000,,,,,,8148877262,1,6580536,False,,רעננה,אחוזה,,6580-536-1,6580/536,39354.18768920282,32.1823645284,34.8677570766,2010
2010-03-05,2010-05-03,"הפלמ""ח 8, רעננה","הפלמ""ח 8",7655-383-8,דירה בבית קומות,5.0,שניה+קרקע,116.76,2030000,,,1995.0,,3.0,8148033440,1,7655383,False,,רעננה,"הפלמ""ח",,7655-383-8,7655/383,17386.09112709832,32.1903518921,34.8750493472,2010
2010-03-02,2010-02-03,"בורוכוב 37, רעננה",בורוכוב 37,6580-664-8,דירה בבית קומות,3.0,ראשונה,77.63,1400000,,,1970.0,,3.0,8143329186,1,6580664,False,,רעננה,בורוכוב,,6580-664-8,6580/664,18034.265103697024,32.1842022816,34.876931737,2010
2010-03-02,2010-02-03,"בורוכוב 8, רעננה",בורוכוב 8,6580-555-13,חנות,,ראשונה,,360000,,,1960.0,,2.0,8143518330,1,6580555,False,,רעננה,בורוכוב,,6580-555-13,6580/555,,32.1808222701,34.8766386636,2010
2010-02-28,2010-02-28,"התקומה 11, רעננה",התקומה 11,8573-10-17,דירה בבית קומות,4.0,ראשונה,88.2,1620000,,,1990.0,,5.0,8144703366,1,857310,False,,רעננה,התקומה,,8573-10-17,8573/10,18367.34693877551,32.1955733886,34.8533086684,2010
2010-02-25,2010-02-25,"הרצוג 14, רעננה",הרצוג 14,6583-330-11,דירה בבית קומות,5.0,שלישית,94.86,1800000,,,1976.0,,3.0,8143556662,1,6583330,False,115% ב 8.1 שנים,רעננה,הרצוג,14.2,6583-330-11,6583/330,18975.3320683112,32.1798678474,34.8734278356,2010
2010-02-25,2010-02-25,"הכוכב 47, רעננה",הכוכב 47,6579-664-1,קוטג' דו משפחתי,6.0,קרקע+ראשונה,171.08,3350000,,,1990.0,,4.0,8144094568,1,6579664,False,,רעננה,הכוכב,,6579-664-1,6579/664,19581.482347439796,32.1885261913,34.8579723299,2010
2010-02-23,2010-02-23,"התקווה 19, רעננה",התקווה 19,7652-88-9,דירה בבית קומות,3.0,שניה,39.5,800000,,,1970.0,,3.0,8143088612,1,765288,False,,רעננה,התקוה,,7652-88-9,7652/88,20253.164556962027,32.1948582468,34.8568725418,2010
2010-02-23,2010-02-23,"ניל""י 31, רעננה","ניל""י 31",6587-169-1,קוטג' דו משפחתי,6.0,קרקע + ראשונה,200.6,3300000,,,1987.0,,2.0,8144874898,1,6587169,False,,רעננה,"ניל""י",,6587-169-1,6587/169,16450.648055832502,32.175890478,34.8855876656,2010
2010-02-23,2010-02-23,"אלימלך רימלט 8, רעננה",אלימלך רימלט 8,7649-262-15,דירה בבית קומות,3.0,קרקע,84.55,1450000,,,1998.0,,3.0,8142904130,1,7649262,False,,רעננה,רימלט אלימלך,,7649-262-15,7649/262,17149.61561206387,32.1959332819,34.8513251362,2010
2010-02-18,2010-02-18,"דגניה 14, רעננה",דגניה 14,7655-287-1,קוטג' דו משפחתי,9.0,שניה,440.0,13103000,,,2005.0,,1.0,8143665442,1,7655287,False,,רעננה,דגניה,,7655-287-1,7655/287,29779.545454545456,32.1907147341,34.8802032915,2010
2010-02-18,2010-02-18,"היובל 35, רעננה",היובל 35,6580-419-5,דירה בבית קומות,4.0,שניה,92.19,1455000,,,1982.0,,5.0,8144170270,1,6580419,False,45% ב 1.3 שנים,רעננה,היובל,34.62,6580-419-5,6580/419,15782.62284412626,32.1856429915,34.8726097226,2010
2010-02-17,2010-02-17,"החרצית 8, רעננה",החרצית 8,6582-396-9,דירה בבית קומות,5.0,שניה,101.0,2150000,,,1997.0,,3.0,8142890588,1,6582396,False,,רעננה,החרצית,,6582-396-9,6582/396,21287.128712871287,32.1788558529,34.8595116011,2010
2010-02-17,2010-02-17,"אחוזה 186, רעננה",אחוזה 186,6580-484-1,קרקע למגורים,,,2497.0,10200000,,,,,,8144993298,1,6580484,False,,רעננה,אחוזה,,6580-484-1,6580/484,4084.9018822587104,32.1828746194,34.8667692287,2010
2010-02-16,2010-02-16,"בורוכוב 33, רעננה",בורוכוב 33,6580-546-4,דירה בבית קומות,4.0,ראשונה,102.91,1350000,,,1980.0,,4.0,8142430456,1,6580546,False,,רעננה,בורוכוב,,6580-546-4,6580/546,13118.258672626567,32.1837096127,34.8768015658,2010
2010-02-16,2010-02-16,"הר סיני 8, רעננה",הר סיני 8,6580-680-11,דירה בבית קומות,3.0,שלישית,68.0,1400000,,,1970.0,,4.0,8142548264,1,6580680,False,102% ב 11.2 שנים,רעננה,הר סיני,9.11,6580-680-11,6580/680,20588.235294117647,32.1830938417,34.8698611484,2010
2010-02-16,2010-02-16,"ויצמן 127, רעננה",ויצמן 127,7654-211-38,דירה בבית קומות,4.0,שניה,98.0,1070000,,,1976.0,,6.0,8143256962,1,7654211,False,,רעננה,ויצמן,,7654-211-38,7654/211,10918.367346938776,,,2010
2010-02-14,2010-02-14,"אחוזה 41, רעננה",אחוזה 41,6587-8-5,דירה בבית קומות,4.0,שניה  +  מרתף,94.9,1580000,,,2001.0,,4.0,8142413880,1,65878,False,70% ב 4.6 שנים,רעננה,אחוזה,15.22,6587-8-5,6587/8,16649.104320337196,32.1781180335,34.8835760782,2010
2010-02-14,2010-02-14,"ששת הימים 21, רעננה",ששת הימים 21,6581-497-3,דירה בבית קומות,6.0,מרתף+קרקע+א',175.24,3250000,,,1980.0,,3.0,8143672768,1,6581497,False,,רעננה,ששת הימים,,6581-497-3,6581/497,18545.9940652819,32.1814182576,34.8848434641,2010
2010-02-12,2010-12-02,"רימלט אלימלך 5, רעננה",רימלט אלימלך 5,7649-201-1,דירה בבית קומות,3.5,קרקע,83.49,2020000,,,1995.0,,2.0,8157853388,1,7649201,False,100% ב 8.4 שנים,רעננה,רימלט אלימלך,11.9,7649-201-1,7649/201,24194.51431309139,32.1955099783,34.851720744,2010
2010-02-12,2010-12-02,"חנקין 38, רעננה",חנקין 38,6580-71-19,דירה בבית קומות,5.0,חמישית,115.5,3007000,,,1983.0,,5.0,8158626466,1,658071,False,,רעננה,חנקין,,6580-71-19,6580/71,26034.632034632035,32.1831503188,34.8780514662,2010
2010-02-12,2010-12-02,"מכבי 1, רעננה",מכבי 1,6580-1071-27,מבנים חקלאיים,,קרקע,41.65,899000,,,2001.0,,9.0,8214347874,1,65801071,False,,רעננה,מכבי,,6580-1071-27,6580/1071,21584.633853541414,32.1800820199,34.8783805061,2010
2010-02-11,2010-11-02,"עקיבא 86, רעננה",עקיבא 86,6578-475-21,דירה בבית קומות,5.0,ראשונה+שניה,129.0,2395000,,,1990.0,,4.0,8156248994,1,6578475,False,,רעננה,עקיבא,,6578-475-21,6578/475,18565.891472868218,32.1886558809,34.8837177949,2010
2010-02-11,2010-11-02,"יהודה בורלא 1, רעננה",יהודה בורלא 1,7654-449-16,דירה בבית קומות,4.0,שלישית+קרקע,100.3,2150000,,,1998.0,,1.0,8156656142,1,7654449,False,77% ב 7.3 שנים,רעננה,בורלא יהודה,10.55,7654-449-16,7654/449,21435.69292123629,32.1913893725,34.8655808683,2010
2010-02-09,2010-09-02,"הלבונה 13, רעננה",הלבונה 13,6583-683-1,קוטג' דו משפחתי,7.0,שניה,250.0,22400000,,,1991.0,,2.0,8154697214,1,6583683,False,,רעננה,הלבונה,,6583-683-1,6583/683,89600.0,32.1783104044,34.8669301865,2010
2010-02-09,2010-09-02,"המלאכה 2, רעננה",המלאכה 2,7656-203-1,מבנים חקלאיים,,מרתף שני,,2950000,,,2009.0,,4.0,8155087860,1,7656203,False,,רעננה,המלאכה,,7656-203-1,7656/203,,32.1982492116,34.8806247718,2010
2010-02-07,2010-07-02,"התפוז 8, רעננה",התפוז 8,6579-430-2,בית בודד,7.0,מרתף+קרקע+ראשונה+שניה,412.0,8888000,,,1975.0,2008.0,4.0,8149885808,1,6579430,False,,רעננה,התפוז,,6579-430-2,6579/430,21572.81553398058,32.1892938312,34.8578204913,2010
