DEALDATE,DEALDATETIME,FULLADRESS,DISPLAYADRESS,GUSH,DEALNATUREDESCRIPTION,ASSETROOMNUM,FLOORNO,DEALNATURE,DEALAMOUNT,NEWPROJECTTEXT,PROJECTNAME,BUILDINGYEAR,YEARBUILT,BUILDINGFLOORS,KEYVALUE,TYPE,POLYGON_ID,TREND_IS_NEGATIVE,TREND_FORMAT,city_name,street,presentage per year,GUSH - Copy,Gush_Helka,Price per sqm,lat,lon,Year
2002-12-31,2002-12-31,"ויצמן 42, כפר סבא",ויצמן 42,6426-717-28,,,ראשונה,25.2,163000,,,1994.0,,3.0,7623507824,1,6426717,False,,כפר סבא,ויצמן,,6426-717-28,6426/717,6468.253968253968,32.1765257728,34.9011090869,2002
2002-12-31,2002-12-31,"סוקולוב 7, כפר סבא",סוקולוב 7,6426-279-1,,4.0,ראשונה,96.21,682000,,,1983.0,,4.0,7622071928,1,6426279,False,,כפר סבא,סוקולוב,,6426-279-1,6426/279,7088.660222430101,32.1757480589,34.9028513417,2002
2002-12-31,2002-12-31,"ויצמן 42, כפר סבא",ויצמן 42,6426-717-27,,,ראשונה,42.2,329000,,,1994.0,,3.0,7623581676,1,6426717,False,,כפר סבא,ויצמן,,6426-717-27,6426/717,7796.208530805687,32.1765257728,34.9011090869,2002
2002-12-30,2002-12-30,"משה סנה 15, כפר סבא",משה סנה 15,6429-246-6,,5.0,קרקע+שלישית+רביעית,125.62,1106000,,,1994.0,,,7622413734,1,6429246,False,,כפר סבא,סנה משה,,6429-246-6,6429/246,8804.330520617736,32.1845307971,34.896618293,2002
2002-12-30,2002-12-30,"רבקה גובר 4, כפר סבא",רבקה גובר 4,6435-143-6,,4.0,שניה,104.26,814000,,,1990.0,,5.0,7622183594,1,6435143,False,,כפר סבא,גובר רבקה,,6435-143-6,6435/143,7807.404565509303,32.1724273228,34.9178938376,2002
2002-12-29,2002-12-29,"המסגר 8, כפר סבא",המסגר 8,7619-112-1,משרד,,,150.0,1404000,,,1972.0,,,7624599398,1,7619112,False,,כפר סבא,המסגר,,7619-112-1,7619/112,9360.0,32.1755206753,34.9320541119,2002
2002-12-29,2002-12-29,"הבנים 20, כפר סבא",הבנים 20,6439-335-16,,5.0,קרקע + שלישית+רביעת,131.54,1006000,,,1980.0,,4.0,7622040700,1,6439335,False,,כפר סבא,הבנים,,6439-335-16,6439/335,7647.863767675232,32.1739288855,34.9105880264,2002
2002-12-29,2002-12-29,"הרב אסף שמחה 12, כפר סבא",הרב אסף שמחה 12,6433-295-1,,2.0,קרקע,48.56,716000,,,1961.0,,1.0,7622158582,1,6433295,False,0% ב 0.2 שנים,כפר סבא,הרב אסף שמחה,0.0,6433-295-1,6433/295,14744.645799011532,32.1817476503,34.9180397993,2002
2002-12-29,2002-12-29,"ויצמן 42, כפר סבא",ויצמן 42,6426-717-58,,,שניה,27.09,160000,,,1994.0,,3.0,7623503606,1,6426717,False,,כפר סבא,ויצמן,,6426-717-58,6426/717,5906.238464378,32.1765257728,34.9011090869,2002
2002-12-29,2002-12-29,"אברהם קרן 4, כפר סבא",אברהם קרן 4,6439-251-8,,5.0,רביעית,106.63,1020000,,,1998.0,,3.0,7622251452,1,6439251,False,,כפר סבא,קרן אברהם,,6439-251-8,6439/251,9565.7882397074,32.1699506631,34.9118452751,2002
2002-12-26,2002-12-26,"האמוראים 2, כפר סבא",האמוראים 2,6431-227-1,,2.0,,50.0,1047000,,,1952.0,,,7622985236,1,6431227,False,,כפר סבא,האמוראים,,6431-227-1,6431/227,20940.0,32.1826378908,34.9091674931,2002
2002-12-26,2002-12-26,"אמבר 16, כפר סבא",אמבר 16,6426-483-10,,4.0,רביעית,88.0,653000,,,2022.0,,4.0,7622890590,1,6426483,False,,כפר סבא,אימבר,,6426-483-10,6426/483,7420.454545454545,32.1724739212,34.903146553,2002
2002-12-25,2002-12-25,"התפוז 1, כפר סבא",התפוז 1,6437-110-12,,3.0,שניה,58.45,557000,,,1970.0,,4.0,7622256854,1,6437110,False,,כפר סבא,התפוז,,6437-110-12,6437/110,9529.5124037639,32.1736056007,34.914267003,2002
2002-12-25,2002-12-25,"ויצמן 194, כפר סבא",ויצמן 194,6435-93-5,,3.0,ראשונה,38.9,474000,,,1960.0,,3.0,7559772808,1,643593,False,,כפר סבא,ויצמן,,6435-93-5,6435/93,12185.08997429306,32.1721754709,34.9209746703,2002
2002-12-23,2002-12-23,"ברקן 10, כפר סבא",ברקן 10,6430-201-16,,4.0,ראשונה,83.0,937000,,,1994.0,,4.0,7623142708,1,6430201,False,,כפר סבא,ברקן,,6430-201-16,6430/201,11289.156626506025,32.185874872,34.896253818,2002
2002-12-23,2002-12-23,"הכרמל 18, כפר סבא",הכרמל 18,6440-221-45,,4.0,רביעית,105.25,993000,,,1996.0,,5.0,7622046324,1,6440221,False,,כפר סבא,הכרמל,,6440-221-45,6440/221,9434.679334916864,32.1785413937,34.9061959858,2002
2002-12-23,2002-12-23,"סוקולוב 13, כפר סבא",סוקולוב 13,6426-610-2,,1.0,קרקע,28.82,340000,,,1960.0,,4.0,7622200762,1,6426610,False,,כפר סבא,סוקולוב,,6426-610-2,6426/610,11797.36294240111,32.1750084956,34.9025355476,2002
2002-12-23,2002-12-23,"אמבר 15, כפר סבא",אמבר 15,6426-849-3,,5.0,שניה,95.99,1003000,,,1990.0,,4.0,7559634946,1,6426849,False,,כפר סבא,אימבר,,6426-849-3,6426/849,10449.005104698406,32.172848507,34.9034596781,2002
2002-12-22,2002-12-22,"האשל 7, כפר סבא",האשל 7,6433-583-10,,4.0,רביעית,79.2,828000,,,1992.0,,5.0,7622424760,1,6433583,False,,כפר סבא,האשל,,6433-583-10,6433/583,10454.545454545454,32.1799445279,34.9180409394,2002
2002-12-19,2002-12-19,"הר צין 18, כפר סבא",הר צין 18,6434-305-2,,5.0,קרקע+ראשנה+גג,219.33,1630000,,,2001.0,,,7622142154,1,6434305,False,,כפר סבא,הר צין,,6434-305-2,6434/305,7431.723886381252,32.181380204,34.9229079433,2002
2002-12-18,2002-12-18,"האחדות 4, כפר סבא",האחדות 4,7620-250-2,,4.0,ראשונה,100.0,629000,,,1965.0,,3.0,7559605642,1,7620250,False,,כפר סבא,האחדות,,7620-250-2,7620/250,6290.0,32.190105066,34.9007785702,2002
2002-12-18,2002-12-18,"לוינסקי 8, כפר סבא",לוינסקי 8,6430-147-17,,6.0,שלישית+רביעית,166.75,1689000,,,2002.0,,3.0,7622256262,1,6430147,False,,כפר סבא,לוינסקי,,6430-147-17,6430/147,10128.935532233883,32.1854691425,34.9005424822,2002
2002-12-18,2002-12-18,"דב הוז 28, כפר סבא",דב הוז 28,6428-366-15,,3.0,רביעית,82.2,652000,,,1973.0,,4.0,7622643356,1,6428366,False,,כפר סבא,הוז דב,,6428-366-15,6428/366,7931.873479318734,32.1799297207,34.8993522085,2002
2002-12-18,2002-12-18,"מורן 5, כפר סבא",מורן 5,6430-193-2,,6.0,קרקע,115.0,1338000,,,1996.0,,4.0,7559827346,1,6430193,False,,כפר סבא,מורן,,6430-193-2,6430/193,11634.782608695652,32.1864284379,34.8993480635,2002
2002-12-17,2002-12-17,"הרב אסף שמחה 9, כפר סבא",הרב אסף שמחה 9,6433-305-2,,3.0,ראשונה,75.21,766000,,,1954.0,,2.0,7622001628,1,6433305,False,,כפר סבא,הרב אסף שמחה,,6433-305-2,6433/305,10184.815848956256,32.1813084982,34.9181601263,2002
2002-12-16,2002-12-16,"אז""ר 85, כפר סבא","אז""ר 85",6432-61-13,,6.0,שניה+שלישית,114.11,1239000,,,1994.0,,4.0,7622237392,1,643261,False,,כפר סבא,"אז""ר",,6432-61-13,6432/61,10857.944089036895,32.1823200689,34.9180085601,2002
2002-12-16,2002-12-16,"המעפילים 15, כפר סבא",המעפילים 15,6428-413-15,,3.0,רביעית,70.0,699000,,,1970.0,,6.0,7559316894,1,6428413,False,,כפר סבא,המעפילים,,6428-413-15,6428/413,9985.714285714286,32.1806042381,34.9000013291,2002
2002-12-13,2002-12-13,"בית הבד 15, כפר סבא",בית הבד 15,7602-242-9,,4.0,ראשונה,80.1,628000,,,1985.0,,2.0,7622373996,1,7602242,False,,כפר סבא,בית הבד,,7602-242-9,7602/242,7840.19975031211,32.1830702406,34.9375395546,2002
2002-12-12,2002-12-12,"בילינסון 6, כפר סבא",בילינסון 6,6428-54-10,,3.0,ב,77.1,676000,,,1970.0,,4.0,7559612376,1,642854,False,,כפר סבא,בילינסון,,6428-54-10,6428/54,8767.833981841764,32.1777385605,34.9016487583,2002
2002-12-11,2002-11-12,"שאול המלך 14, כפר סבא",שאול המלך 14,7601-77-2,,,א',47.9,322000,,,1960.0,,4.0,7558130600,1,760177,False,,כפר סבא,שאול המלך,,7601-77-2,7601/77,6722.338204592902,32.184430096,34.9414531779,2002
2002-12-09,2002-09-12,"חרצית 1, כפר סבא",חרצית 1,6428-399-2,,5.0,,125.0,1494000,,,2002.0,,1.0,7557386974,1,6428399,False,,כפר סבא,חרצית,,6428-399-2,6428/399,11952.0,32.1839875057,34.9023701971,2002
2002-12-08,2002-08-12,"רעם 8, כפר סבא",רעם 8,6435-193-1,,4.0,ראשונה,93.62,859000,,,1995.0,,6.0,7558767962,1,6435193,False,,כפר סבא,רעם,,6435-193-1,6435/193,9175.389873958557,32.1732661178,34.9204730273,2002
2002-12-08,2002-08-12,"הראשונים 12, כפר סבא",הראשונים 12,6435-273-15,דירה בבית קומות,4.0,קרקע תחתונה+ראשונה,96.15,960000,,,2004.0,,5.0,7556091530,1,6435273,False,,כפר סבא,הראשונים,,6435-273-15,6435/273,9984.39937597504,32.1700694437,34.920698512,2002
2002-12-07,2002-07-12,"הגליל 16, כפר סבא",הגליל 16,6436-40-1,,4.0,קרקע+ראשונה,100.5,1115000,,,1996.0,,4.0,7554976794,1,643640,False,,כפר סבא,הגליל,,6436-40-1,6436/40,11094.52736318408,32.1750634421,34.9176445019,2002
2002-12-06,2002-06-12,"הראשונים 12, כפר סבא",הראשונים 12,6435-273-8,דירה בבית קומות,4.0,קרקע+תחתונה+שלישית,96.7,942000,,,2004.0,,5.0,7554036698,1,6435273,False,,כפר סבא,הראשונים,,6435-273-8,6435/273,9741.468459152016,32.1700694437,34.920698512,2002
2002-12-05,2002-05-12,"נורדאו 11, כפר סבא",נורדאו 11,6435-102-2,,2.0,ראשונה,38.5,223000,,,1960.0,,1.0,7552766858,1,6435102,False,,כפר סבא,נורדאו,,6435-102-2,6435/102,5792.207792207792,32.1712418047,34.9192757162,2002
2002-12-05,2002-05-12,"סוקולוב 20, כפר סבא",סוקולוב 20,6426-651-20,,5.0,שביעית,130.7,1060000,,,1990.0,,9.0,7552810000,1,6426651,False,,כפר סבא,סוקולוב,,6426-651-20,6426/651,8110.17597551645,32.17393687,34.9015472759,2002
2002-12-05,2002-05-12,"קפלנסקי 1, כפר סבא",קפלנסקי 1,7620-188-21,דירה בבית קומות,4.0,שניה,100.0,773000,,,2001.0,,4.0,7553273462,1,7620188,False,,כפר סבא,קפלנסקי,,7620-188-21,7620/188,7730.0,32.1897313921,34.9040751416,2002
2002-12-03,2002-03-12,"ההסתדרות 10, כפר סבא",ההסתדרות 10,6427-435-1,,2.0,א,38.4,490000,,,2002.0,,2.0,7550790540,1,6427435,False,,כפר סבא,ההסתדרות,,6427-435-1,6427/435,12760.416666666668,32.1729951919,34.8951182834,2002
2002-12-03,2002-03-12,"טשרניחובסקי 28, כפר סבא",טשרניחובסקי 28,6427-499-14,,4.0,רביעית,101.12,650000,,,1980.0,,8.0,7551350350,1,6427499,False,,כפר סבא,טשרניחובסקי,,6427-499-14,6427/499,6428.006329113924,32.1774949215,34.8942438495,2002
2002-12-03,2002-03-12,"ויצמן 52, כפר סבא",ויצמן 52,6426-417-35,,3.0,ראשונה,66.9,776000,,,1970.0,,6.0,7550873050,1,6426417,False,,כפר סבא,ויצמן,,6426-417-35,6426/417,11599.402092675637,32.1764876665,34.9018930531,2002
2002-12-02,2002-02-12,"ששת הימים 38, כפר סבא",ששת הימים 38,6427-524-23,,5.0,רביעית,114.4,1062000,,,1993.0,,6.0,7549980388,1,6427524,False,,כפר סבא,ששת הימים,,6427-524-23,6427/524,9283.216783216783,32.1763649603,34.8945293565,2002
2002-11-29,2002-11-29,"רוטשילד 9, כפר סבא",רוטשילד 9,6426-139-2,,4.0,ראשונה,106.89,845000,,,1980.0,,5.0,7558993884,1,6426139,False,12% ב 4.2 שנים,כפר סבא,רוטשילד,2.86,6426-139-2,6426/139,7905.323229488259,32.1709719105,34.9068585244,2002
2002-11-28,2002-11-28,"ביאליק 20, כפר סבא",ביאליק 20,6426-978-0,,2.0,ראשונה,60.0,603000,,,1994.0,,4.0,7558983524,1,6426978,False,,כפר סבא,ביאליק,,6426-978-0,6426/978,10050.0,32.1714755702,34.9087858703,2002
2002-11-28,2002-11-28,"בן-גוריון 9, כפר סבא",בן-גוריון 9,6426-450-2,,3.0,א,61.7,659000,,,1970.0,,6.0,7558845440,1,6426450,False,,כפר סבא,בן גוריון,,6426-450-2,6426/450,10680.713128038897,32.1737457379,34.9032310398,2002
2002-11-26,2002-11-26,"בר-אילן 9, כפר סבא",בר-אילן 9,6433-403-11,,3.0,שלישית,57.96,692000,,,1970.0,,8.0,7558236864,1,6433403,False,,כפר סבא,בר אילן,,6433-403-11,6433/403,11939.268461007592,32.1792157266,34.9117792154,2002
2002-11-25,2002-11-25,"עמק דותן 25, כפר סבא",עמק דותן 25,7618-145-1,,5.0,קרקע+ראשונה,149.2,1380000,,,2001.0,,,7559546294,1,7618145,False,,כפר סבא,עמק דותן,,7618-145-1,7618/145,9249.329758713138,32.1802262117,34.9359160827,2002
2002-11-24,2002-11-24,"משה סנה 24, כפר סבא",משה סנה 24,6430-200-2,דירה בבית קומות,5.0,קרקע תחתונה+עליונה,117.23,1279000,,,2000.0,,,7558782614,1,6430200,False,,כפר סבא,סנה משה,,6430-200-2,6430/200,10910.176575961785,32.1870529347,34.8974717382,2002
2002-11-24,2002-11-24,"זאב גולד 15, כפר סבא",זאב גולד 15,6433-517-2,,3.0,ראשונה,50.5,298000,,,1970.0,,4.0,7558785130,1,6433517,False,,כפר סבא,גולד זאב,,6433-517-2,6433/517,5900.990099009901,32.180300732,34.9150080104,2002
2002-11-22,2002-11-22,"משה סנה 19, כפר סבא",משה סנה 19,6429-241-2,,4.0,קרקע + ראשונה,103.54,945000,,,1995.0,,,7559588474,1,6429241,False,,כפר סבא,סנה משה,,6429-241-2,6429/241,9126.907475371836,32.1850913836,34.895863732,2002
2002-11-21,2002-11-21,"צייטלין 12, כפר סבא",צייטלין 12,7621-242-2,,2.0,,31.32,936000,,,1952.0,,,7559696440,1,7621242,False,71% ב 2.2 שנים,כפר סבא,צייטלין,32.27,7621-242-2,7621/242,29885.05747126437,32.1937437387,34.8961116102,2002
2002-11-21,2002-11-21,"בקעת הירח 11, כפר סבא",בקעת הירח 11,7606-181-2,,6.0,מרתף+קרקע+ראשונה,190.5,1357000,,,2002.0,,,7558550106,1,7606181,False,,כפר סבא,בקעת הירח,,7606-181-2,7606/181,7123.359580052494,32.1792499652,34.9295796436,2002
2002-11-20,2002-11-20,"הראשונים 3, כפר סבא",הראשונים 3,6435-237-24,משרד,4.0,רביעית+חמישית,117.19,1000000,,,1998.0,,5.0,7558720380,1,6435237,False,,כפר סבא,הראשונים,,6435-237-24,6435/237,8533.151292772422,32.1714752777,34.9218157923,2002
2002-11-20,2002-11-20,"רוטשילד 72, כפר סבא",רוטשילד 72,6438-247-1,,,קרקע,52.0,373000,,,1985.0,,5.0,7559072028,1,6438247,False,,כפר סבא,רוטשילד,,6438-247-1,6438/247,7173.076923076923,32.1769017978,34.9094085978,2002
2002-11-18,2002-11-18,"ויצמן 51, כפר סבא",ויצמן 51,6428-618-6,,4.0,שניה,112.48,887000,,,1993.0,,4.0,7558716754,1,6428618,False,,כפר סבא,ויצמן,,6428-618-6,6428/618,7885.846372688477,32.1771626313,34.901506158,2002
2002-11-18,2002-11-18,"הגליל 14, כפר סבא",הגליל 14,6435-126-1,משרד,4.0,ראשונה,93.64,1094000,,,2002.0,,5.0,7559664842,1,6435126,False,,כפר סבא,הגליל,,6435-126-1,6435/126,11683.041435284067,32.1747587326,34.9175208595,2002
2002-11-13,2002-11-13,"קפלנסקי 18, כפר סבא",קפלנסקי 18,7620-314-1,,5.0,ראשונה,120.0,774000,,,1951.0,,2.0,7557968910,1,7620314,False,,כפר סבא,קפלנסקי,,7620-314-1,7620/314,6450.0,32.1912831195,34.9024957739,2002
2002-11-13,2002-11-13,"הרב אסף שמחה 19, כפר סבא",הרב אסף שמחה 19,6433-324-3,,3.0,שניה,46.9,493000,,,1960.0,,2.0,7557999916,1,6433324,False,,כפר סבא,הרב אסף שמחה,,6433-324-3,6433/324,10511.727078891256,32.1815511189,34.9169526985,2002
2002-11-13,2002-11-13,"משה סנה 24, כפר סבא",משה סנה 24,6430-200-8,דירה בבית קומות,7.0,קרקע תחתונה+שלישית,166.44,1600000,,,2000.0,,,7558321668,1,6430200,False,,כפר סבא,סנה משה,,6430-200-8,6430/200,9613.073780341265,32.1870529347,34.8974717382,2002
2002-11-13,2002-11-13,"נורית 7, כפר סבא",נורית 7,6428-595-2,,5.0,קרקע+ראשונה,123.36,1125000,,,1993.0,,1.0,7558930466,1,6428595,False,,כפר סבא,נורית,,6428-595-2,6428/595,9119.64980544747,32.1837265918,34.9009924935,2002
2002-11-11,2002-11-11,"בוסל 4, כפר סבא",בוסל 4,6428-647-1,,5.0,ראשונה,133.0,1312000,,,1995.0,,4.0,7557982378,1,6428647,False,,כפר סבא,בוסל,,6428-647-1,6428/647,9864.661654135338,32.1772569175,34.9025135904,2002
2002-11-11,2002-11-11,"בקעת הירח 9, כפר סבא",בקעת הירח 9,7606-182-1,דירה בבית קומות,6.0,מרתף+קרקע+ראשונה,190.5,1350000,,,2002.0,,,7558418830,1,7606182,False,,כפר סבא,בקעת הירח,,7606-182-1,7606/182,7086.614173228347,32.1792204525,34.9298032551,2002
2002-11-09,2002-09-11,"כינרת 20, כפר סבא",כינרת 20,6440-152-7,,4.0,שניה,74.5,824000,,,1978.0,,6.0,7557071438,1,6440152,False,,כפר סבא,כנרת,,6440-152-7,6440/152,11060.402684563758,32.1775532571,34.9083607521,2002
2002-11-09,2002-09-11,"נחל קנה 2, כפר סבא",נחל קנה 2,6433-430-2,,6.0,,150.0,1763000,,,1980.0,,1.0,7557547480,1,6433430,False,,כפר סבא,נחל קנה,,6433-430-2,6433/430,11753.333333333334,32.1822017134,34.9136267273,2002
2002-11-08,2002-08-11,"האהבה 26, כפר סבא",האהבה 26,6435-239-14,דירה בבית קומות,6.0,ק. תחתונה+רביעית,162.8,1400000,,,2000.0,,4.0,7556092640,1,6435239,False,,כפר סבא,האהבה,,6435-239-14,6435/239,8599.5085995086,32.1707796463,34.9224078423,2002
2002-11-07,2002-07-11,"אוסטשינסקי 20, כפר סבא",אוסטשינסקי 20,6426-234-24,דירה בבית קומות,3.0,ראשונה,68.0,653000,,,1970.0,,1.0,7556329588,1,6426234,False,,כפר סבא,אוסטשינסקי,,6426-234-24,6426/234,9602.941176470587,,,2002
2002-11-07,2002-07-11,"הס 9, כפר סבא",הס 9,6431-100-1,,3.0,,70.0,2159000,,,1940.0,,1.0,7555795382,1,6431100,False,,כפר סבא,הס,,6431-100-1,6431/100,30842.85714285714,32.1857587628,34.9068227336,2002
2002-11-04,2002-04-11,"יסמין 3, כפר סבא",יסמין 3,6427-635-10,,6.0,חמישית+גג,153.0,1296000,,,1997.0,,6.0,7553103188,1,6427635,False,,כפר סבא,יסמין,,6427-635-10,6427/635,8470.588235294117,32.1776645512,34.8957439074,2002
2002-11-04,2002-04-11,"ששת הימים 24, כפר סבא",ששת הימים 24,6426-560-12,,4.0,רביעית,73.5,571000,,,2019.0,,4.0,7551756980,1,6426560,False,,כפר סבא,ששת הימים,,6426-560-12,6426/560,7768.707482993197,32.1755741954,34.8980196879,2002
2002-11-04,2002-04-11,"נורדאו 13, כפר סבא",נורדאו 13,6435-103-4,,3.0,ראשונה,46.9,395000,,,1960.0,,2.0,7551848592,1,6435103,False,,כפר סבא,נורדאו,,6435-103-4,6435/103,8422.174840085288,32.1710216024,34.9193556381,2002
2002-11-03,2002-03-11,"המיסדים 14, כפר סבא",המיסדים 14,6438-194-1,,,קרקע,39.72,219000,,,1984.0,,5.0,7551260588,1,6438194,False,,כפר סבא,המיסדים,,6438-194-1,6438/194,5513.595166163143,32.1758937005,34.9112694215,2002
2002-11-03,2002-03-11,"הסובלנות 1, כפר סבא",הסובלנות 1,6435-279-16,,4.0,קרקע תחתונה + קרקע,97.5,963000,,,2002.0,,5.0,7550816144,1,6435279,False,,כפר סבא,הסובלנות,,6435-279-16,6435/279,9876.923076923076,32.1701973196,34.9201811885,2002
2002-11-03,2002-03-11,"הר רותם 21, כפר סבא",הר רותם 21,6434-487-3,,6.0,,230.0,1772000,,,1991.0,,,7551545858,1,6434487,False,,כפר סבא,הר רותם,,6434-487-3,6434/487,7704.347826086957,32.1792346289,34.9219023338,2002
2002-11-03,2002-03-11,"ויצמן 192, כפר סבא",ויצמן 192,6435-124-2,,3.0,קרקע,64.4,534000,,,1965.0,,3.0,7551541566,1,6435124,False,,כפר סבא,ויצמן,,6435-124-2,6435/124,8291.925465838509,32.1722532934,34.9204186696,2002
2002-11-02,2002-02-11,"הסובלנות 1, כפר סבא",הסובלנות 1,6435-279-4,,4.0,קרקע תחתונה+ראשונה,82.0,773000,,,2002.0,,5.0,7549744846,1,6435279,False,,כפר סבא,הסובלנות,,6435-279-4,6435/279,9426.829268292682,32.1701973196,34.9201811885,2002
2002-10-31,2002-10-31,"בקעת הירח 13, כפר סבא",בקעת הירח 13,7606-180-2,,,מרתף+קרקע+ראשונה,190.5,1360000,,,2002.0,,,7557926730,1,7606180,False,,כפר סבא,בקעת הירח,,7606-180-2,7606/180,7139.107611548557,32.179266456,34.929355596,2002
2002-10-31,2002-10-31,"אברהם קרן 3, כפר סבא",אברהם קרן 3,6439-445-9,דירה בבית קומות,6.0,חמישית + שישית,171.6,1524000,,,2003.0,,6.0,7557923030,1,6439445,False,,כפר סבא,קרן אברהם,,6439-445-9,6439/445,8881.118881118882,32.1701083066,34.9111073798,2002
2002-10-30,2002-10-30,"רופין 40, כפר סבא",רופין 40,6435-258-8,דירה בבית קומות,4.0,שלישית,88.64,955000,,,2002.0,,4.0,7557664844,1,6435258,False,,כפר סבא,רופין,,6435-258-8,6435/258,10773.916967509023,32.1690394609,34.9215389827,2002
2002-10-25,2002-10-25,"דקל 3, כפר סבא",דקל 3,6435-293-17,,4.0,ראשונה,102.0,976000,,,1994.0,,5.0,7557563464,1,6435293,False,,כפר סבא,דקל,,6435-293-17,6435/293,9568.627450980392,32.174718215,34.9178874959,2002
2002-10-24,2002-10-24,"חבצלת השרון 6, כפר סבא",חבצלת השרון 6,6427-470-9,,4.0,שלישית,109.07,687000,,,1974.0,,3.0,7558325960,1,6427470,False,,כפר סבא,חבצלת השרון,,6427-470-9,6427/470,6298.707252223343,32.1753124128,34.895459409,2002
2002-10-24,2002-10-24,"בית הבד 2, כפר סבא",בית הבד 2,7602-271-2,קוטג' דו משפחתי,4.0,קרקע+ראשונה,100.0,1144000,,,2002.0,,,7558108622,1,7602271,False,,כפר סבא,בית הבד,,7602-271-2,7602/271,11440.0,32.1825977204,34.9372652188,2002
2002-10-23,2002-10-23,"הפרדס 13, כפר סבא",הפרדס 13,6426-574-42,,3.0,א,41.1,592000,,,1960.0,,2.0,7558439476,1,6426574,False,,כפר סבא,הפרדס,,6426-574-42,6426/574,14403.89294403893,32.1747092212,34.8992069902,2002
2002-10-23,2002-10-23,"ירושלים 44, כפר סבא",ירושלים 44,6440-237-9,,5.0,ראשונה,114.38,1398000,,,1987.0,,8.0,7557934574,1,6440237,False,6% ב 3.4 שנים,כפר סבא,ירושלים,1.76,6440-237-9,6440/237,12222.416506382237,32.1778894659,34.9068248161,2002
2002-10-22,2002-10-22,"ויצמן 101, כפר סבא",ויצמן 101,6440-89-15,,3.0,שלישית,74.0,732000,,,1975.0,,6.0,7557918812,1,644089,False,,כפר סבא,ויצמן,,6440-89-15,6440/89,9891.891891891892,32.1758400948,34.9077024782,2002
2002-10-21,2002-10-21,"הכלנית 4, כפר סבא",הכלנית 4,6427-527-30,,5.0,שישית+מרתף,114.5,880000,,,1983.0,,4.0,7559336356,1,6427527,False,,כפר סבא,הכלנית,,6427-527-30,6427/527,7685.589519650655,32.1755850842,34.8944760914,2002
2002-10-21,2002-10-21,"רופין 40, כפר סבא",רופין 40,6435-258-10,דירה בבית קומות,6.0,רביעית+גג,168.11,1275000,,,2002.0,,4.0,7557346126,1,6435258,False,,כפר סבא,רופין,,6435-258-10,6435/258,7584.319790613288,32.1690394609,34.9215389827,2002
2002-10-21,2002-10-21,"מצדה 5, כפר סבא",מצדה 5,7601-82-29,,2.0,ג',36.3,158000,,,1964.0,,3.0,7558494606,1,760182,False,,כפר סבא,מצדה,,7601-82-29,7601/82,4352.617079889807,32.1850241986,34.9425853139,2002
2002-10-21,2002-10-21,"הרצל 20, כפר סבא",הרצל 20,6439-259-3,,4.0,ראשונה ושניה,110.4,868000,,,1980.0,,10.0,7558367400,1,6439259,False,,כפר סבא,הרצל,,6439-259-3,6439/259,7862.31884057971,32.1711995133,34.9104475703,2002
2002-10-17,2002-10-17,"דב הוז 26, כפר סבא",דב הוז 26,6428-496-1,,5.0,ראשונה,124.81,1190000,,,1985.0,,4.0,7558002950,1,6428496,False,,כפר סבא,הוז דב,,6428-496-1,6428/496,9534.492428491309,32.1799037992,34.8991094988,2002
2002-10-17,2002-10-17,"הבנים 21, כפר סבא",הבנים 21,6439-314-6,,5.0,שניה,126.67,1106000,,,1989.0,,5.0,7558327810,1,6439314,False,,כפר סבא,הבנים,,6439-314-6,6439/314,8731.349175021709,32.173718383,34.9097965424,2002
2002-10-16,2002-10-16,"המייסדים 28, כפר סבא",המייסדים 28,6440-255-11,,6.0,שישית+שביעית,166.0,1450000,,,2002.0,,6.0,7557640942,1,6440255,False,,כפר סבא,המיסדים,,6440-255-11,6440/255,8734.939759036144,32.1765444388,34.9084407844,2002
2002-10-16,2002-10-16,"אז""ר 121, כפר סבא","אז""ר 121",6434-610-3,,5.0,,125.0,1795000,,,2002.0,,,7558327218,1,6434610,False,,כפר סבא,"אז""ר",,6434-610-3,6434/610,14360.0,32.1814004781,34.9214961186,2002
2002-10-15,2002-10-15,"הרצפלד אברהם 4, כפר סבא",הרצפלד אברהם 4,6431-307-25,,4.0,שלישית,78.25,699000,,,1970.0,,4.0,7558586588,1,6431307,False,,כפר סבא,הרצפלד אברהם,,6431-307-25,6431/307,8932.907348242812,32.1848893098,34.9037206711,2002
2002-10-15,2002-10-15,"מצדה 4, כפר סבא",מצדה 4,7601-74-3,,3.0,א',39.0,176000,,,1960.0,,5.0,7558180106,1,760174,False,,כפר סבא,מצדה,,7601-74-3,7601/74,4512.820512820513,32.184891057,34.9421552048,2002
2002-10-14,2002-10-14,"טשרניחובסקי 58, כפר סבא",טשרניחובסקי 58,6428-254-1,,5.0,,160.0,1172000,,,1954.0,,,7558585478,1,6428254,False,,כפר סבא,טשרניחובסקי,,6428-254-1,6428/254,7325.0,32.181576866,34.8985581344,2002
2002-10-13,2002-10-13,"בית הבד 6, כפר סבא",בית הבד 6,7602-271-6,קוטג' דו משפחתי,4.0,קרקע+ראשונה,100.0,1152000,,,2002.0,,2.0,7558110546,1,7602271,False,,כפר סבא,בית הבד,,7602-271-6,7602/271,11520.0,32.1825977204,34.9372652188,2002
2002-10-13,2002-10-13,"יבנה 20, כפר סבא",יבנה 20,6433-514-11,,3.0,שלישית,50.5,482000,,,1960.0,,4.0,7557361962,1,6433514,False,,כפר סבא,יבנה,,6433-514-11,6433/514,9544.554455445545,32.1805308875,34.9153855751,2002
2002-10-13,2002-10-13,"בקעת הירח 4, כפר סבא",בקעת הירח 4,7606-125-21,דירה בבית קומות,4.0,שלישית,109.84,1150000,,,2004.0,,4.0,7557866938,1,7606125,False,,כפר סבא,בקעת הירח,,7606-125-21,7606/125,10469.774217042972,32.1797136055,34.929759445,2002
2002-10-12,2002-12-10,"רוטשילד 80, כפר סבא",רוטשילד 80,6438-209-9,,4.0,שניה,81.06,747000,,,1970.0,,4.0,7559278340,1,6438209,False,,כפר סבא,רוטשילד,,6438-209-9,6438/209,9215.39600296077,32.1772980582,34.9100514118,2002
2002-10-11,2002-11-10,"הגליל 14, כפר סבא",הגליל 14,6435-126-8,משרד,5.0,רביעית,114.39,1182000,,,2002.0,,5.0,7558045722,1,6435126,False,,כפר סבא,הגליל,,6435-126-8,6435/126,10333.071072646211,32.1747587326,34.9175208595,2002
2002-10-10,2002-10-10,"בקעת הירח 13, כפר סבא",בקעת הירח 13,7606-180-1,,5.0,מרתף+קרקע+ראשונה,190.5,1320000,,,2002.0,,,7557263616,1,7606180,False,,כפר סבא,בקעת הירח,,7606-180-1,7606/180,6929.133858267716,32.179266456,34.929355596,2002
2002-10-10,2002-10-10,"השלום 12, כפר סבא",השלום 12,6433-397-36,,3.0,שניה,57.96,714000,,,1980.0,,7.0,7558593914,1,6433397,False,,כפר סבא,השלום,,6433-397-36,6433/397,12318.840579710144,32.1794727848,34.912232615,2002
2002-10-10,2002-10-10,"רוטשילד 17, כפר סבא",רוטשילד 17,6426-773-2,,5.0,ראשונה,115.17,1040000,,,1989.0,,4.0,7557144698,1,6426773,False,,כפר סבא,רוטשילד,,6426-773-2,6426/773,9030.129373968915,32.1717013268,34.9070970842,2002
2002-10-10,2002-10-10,"קדושי בלזן 1, כפר סבא",קדושי בלזן 1,6434-617-1,,5.0,קרקע עליונה+קרקע תחתונה,103.94,1200000,,,2002.0,,2.0,7557217366,1,6434617,False,,כפר סבא,קדושי בלזן,,6434-617-1,6434/617,11545.122185876467,32.1807883823,34.9194192466,2002
2002-10-10,2002-10-10,"הגליל 13, כפר סבא",הגליל 13,6436-208-2,,4.0,קרקע+ראשונה,104.52,941000,,,2002.0,,5.0,7558795490,1,6436208,False,,כפר סבא,הגליל,,6436-208-2,6436/208,9003.061615001914,32.174903104,34.9169973402,2002
2002-10-07,2002-07-10,"המייסדים 21, כפר סבא",המייסדים 21,6438-189-9,,4.0,שלישית,88.22,676000,,,2021.0,,3.0,7556112324,1,6438189,False,2% ב 3.9 שנים,כפר סבא,המיסדים,0.51,6438-189-9,6438/189,7662.661527998186,32.1752591766,34.9121548571,2002
2002-10-07,2002-07-10,"הכלנית 8, כפר סבא",הכלנית 8,6427-180-3,,4.0,שניה,91.78,874000,,,1985.0,,4.0,7555230244,1,6427180,False,,כפר סבא,הכלנית,,6427-180-3,6427/180,9522.771845718022,32.1752039774,34.8944095508,2002
2002-10-06,2002-06-10,"האילנות 1, כפר סבא",האילנות 1,7602-182-13,,3.0,רביעית,72.8,460000,,,1970.0,,4.0,7553925476,1,7602182,False,,כפר סבא,האילנות,,7602-182-13,7602/182,6318.681318681319,32.1809898633,34.940567504,2002
2002-10-06,2002-06-10,"נורדאו 4, כפר סבא",נורדאו 4,6435-285-14,דירה בבית קומות,4.0,חמישית+גג,125.0,821000,,,1998.0,,5.0,7554964658,1,6435285,False,,כפר סבא,נורדאו,,6435-285-14,6435/285,6568.0,32.1720661482,34.9188636311,2002
2002-10-03,2002-03-10,"אוסטשינסקי 8, כפר סבא",אוסטשינסקי 8,6426-856-5,,5.0,שלישית,105.0,1086000,,,1992.0,,4.0,7550650754,1,6426856,False,,כפר סבא,אוסטשינסקי,,6426-856-5,6426/856,10342.857142857143,32.1714582271,34.904481653,2002
2002-10-02,2002-02-10,"שלום אש 5, כפר סבא",שלום אש 5,6426-547-4,,2.0,שניה,44.92,583000,,,1954.0,,,7549711176,1,6426547,False,,כפר סבא,אש שלום,,6426-547-4,6426/547,12978.628673196794,32.1717276682,34.8995648086,2002
2002-10-01,2002-01-10,"הר רותם 27, כפר סבא",הר רותם 27,6434-484-0,,5.0,,524.0,1634000,,,2000.0,,,7549003588,1,6434484,False,,כפר סבא,הר רותם,,6434-484-0,6434/484,3118.320610687023,32.1793739623,34.9219464035,2002
2002-09-30,2002-09-30,"בית הבד 8, כפר סבא",בית הבד 8,7602-271-8,קוטג' טורי,4.0,קרקע+ראשונה,100.0,1090000,,,2002.0,,,7558108030,1,7602271,False,,כפר סבא,בית הבד,,7602-271-8,7602/271,10900.0,32.1825977204,34.9372652188,2002
2002-09-30,2002-09-30,"הר כרכום 16, כפר סבא",הר כרכום 16,6434-458-2,דירה בבית קומות,5.0,מרתף+קרקע+ראשונה,199.04,1871000,,,2001.0,,,7557305796,1,6434458,False,,כפר סבא,הר כרכום,,6434-458-2,6434/458,9400.120578778136,32.1811472613,34.9239084286,2002
2002-09-29,2002-09-29,"גאולה 39, כפר סבא",גאולה 39,6426-518-1,,2.0,,44.92,533000,,,1950.0,,,7557758898,1,6426518,False,,כפר סבא,גאולה,,6426-518-1,6426/518,11865.53873552983,32.1723903331,34.8992826859,2002
2002-09-29,2002-09-29,"תל חי 57, כפר סבא",תל חי 57,6438-255-10,,4.0,ראשונה,99.52,901000,,,1987.0,,6.0,7557141664,1,6438255,False,,כפר סבא,תל חי,,6438-255-10,6438/255,9053.456591639871,32.176364882,34.9141106665,2002
2002-09-19,2002-09-19,"לוינסקי 8, כפר סבא",לוינסקי 8,6430-147-4,,3.0,שניה,88.28,1065000,,,2002.0,,3.0,7557426712,1,6430147,False,,כפר סבא,לוינסקי,,6430-147-4,6430/147,12063.88763026733,32.1854691425,34.9005424822,2002
2002-09-18,2002-09-18,"גאולה 9, כפר סבא",גאולה 9,6426-721-10,,4.0,רביעית,97.28,1108000,,,1996.0,,7.0,7557145290,1,6426721,False,,כפר סבא,גאולה,,6426-721-10,6426/721,11389.802631578948,32.1758974227,34.9004536635,2002
2002-09-18,2002-09-18,"כהן 15, כפר סבא",כהן 15,6431-162-2,,6.0,,210.0,1938000,,,1975.0,,,7557409026,1,6431162,False,,כפר סבא,כהן,,6431-162-2,6431/162,9228.57142857143,32.1847185257,34.9043314961,2002
2002-09-18,2002-09-18,"גלבוע 2, כפר סבא",גלבוע 2,6439-458-9,דירה בבית קומות,5.0,רביעית+חמישית,147.6,1401000,,,2003.0,,4.0,7557072622,1,6439458,False,,כפר סבא,גלבוע,,6439-458-9,6439/458,9491.869918699187,32.1725662333,34.9107893546,2002
2002-09-18,2002-09-18,"טרומפלדור 3, כפר סבא",טרומפלדור 3,6426-963-7,,5.0,רביעית+חמישית,178.53,1696000,,,2002.0,,4.0,7557134930,1,6426963,False,,כפר סבא,טרומפלדור,,6426-963-7,6426/963,9499.803954517449,32.1726089349,34.9058918343,2002
2002-09-18,2002-09-18,"ירושלים 58, כפר סבא",ירושלים 58,6440-165-2,,4.0,ראשונה,92.26,1305000,,,1985.0,,3.0,7557136040,1,6440165,False,,כפר סבא,ירושלים,,6440-165-2,6440/165,14144.808150877952,32.1790886429,34.9071385822,2002
2002-09-18,2002-09-18,"ארבל 10, כפר סבא",ארבל 10,6440-239-17,,5.0,רביעית,121.57,1186000,,,1995.0,,7.0,7558374134,1,6440239,False,,כפר סבא,ארבל,,6440-239-17,6440/239,9755.696306654603,32.1777462491,34.9074396767,2002
2002-09-17,2002-09-17,"הר תבור 49, כפר סבא",הר תבור 49,6434-440-3,,6.0,,220.0,1810000,,,2000.0,,1.0,7557226468,1,6434440,False,,כפר סבא,הר תבור,,6434-440-3,6434/440,8227.272727272728,32.1760730461,34.9227732876,2002
2002-09-12,2002-12-09,"אברהם קרן 12, כפר סבא",אברהם קרן 12,6439-478-4,דירה בבית קומות,4.0,ראשונה,98.0,1243000,,,2003.0,,7.0,7559151430,1,6439478,False,,כפר סבא,קרן אברהם,,6439-478-4,6439/478,12683.673469387755,32.1707444367,34.9119087251,2002
2002-09-12,2002-12-09,"העמק 18, כפר סבא",העמק 18,6437-166-10,,3.0,רביעית,67.44,694000,,,1983.0,,5.0,7622099382,1,6437166,False,,כפר סבא,העמק,,6437-166-10,6437/166,10290.628706998814,32.1727519929,34.9155822771,2002
2002-09-10,2002-10-09,"אברהם קרן 8, כפר סבא",אברהם קרן 8,6439-426-4,,4.0,ראשונה,101.0,1016000,,,1995.0,,5.0,7557380240,1,6439426,False,,כפר סבא,קרן אברהם,,6439-426-4,6439/426,10059.40594059406,32.1704990317,34.9117827191,2002
2002-09-10,2002-10-09,"גבעתי 1, כפר סבא",גבעתי 1,6429-125-2,,4.0,ראשונה,67.44,1251000,,,1950.0,,1.0,7557360186,1,6429125,False,15% ב 4.1 שנים,כפר סבא,גבעתי,3.66,6429-125-2,6429/125,18549.82206405694,32.1817204871,34.8935661602,2002
2002-09-06,2002-06-09,"אח""י דקר 1, כפר סבא","אח""י דקר 1",6435-70-46,,3.0,קרקע,63.6,134000,,,1960.0,,4.0,7554384646,1,643570,False,,כפר סבא,"אח""י דקר",,6435-70-46,6435/70,2106.9182389937105,32.1731486353,34.921557825,2002
2002-09-06,2002-06-09,"רופין 40, כפר סבא",רופין 40,6435-258-11,דירה בבית קומות,4.0,קרקע עליונה,94.85,925000,,,2002.0,,4.0,7554078212,1,6435258,False,,כפר סבא,רופין,,6435-258-11,6435/258,9752.240379546653,32.1690394609,34.9215389827,2002
2002-09-06,2002-06-09,"הסובלנות 1, כפר סבא",הסובלנות 1,6435-279-17,דירה בבית קומות,3.0,קרקע תחתונה + קרקע,78.2,854000,,,2002.0,,5.0,7554033664,1,6435279,False,,כפר סבא,הסובלנות,,6435-279-17,6435/279,10920.716112531967,32.1701973196,34.9201811885,2002
2002-09-05,2002-05-09,"הר כנען 13, כפר סבא",הר כנען 13,6434-532-1,,5.0,קרקע+ראשונה,167.0,1637000,,,2002.0,,,7552878598,1,6434532,False,,כפר סבא,הר כנען,,6434-532-1,6434/532,9802.395209580838,32.1763460339,34.9220853678,2002
2002-09-05,2002-05-09,"התע""ש 20, כפר סבא","התע""ש 20",7607-125-160,,,שניה,91.05,204000,,,1999.0,,5.0,7553026894,1,7607125,False,,כפר סבא,"התע""ש",,7607-125-160,7607/125,2240.527182866557,32.1759745495,34.9277395245,2002
2002-09-05,2002-05-09,"טשרניחובסקי 56, כפר סבא",טשרניחובסקי 56,6428-426-3,,4.0,ראשונה,81.3,737000,,,1970.0,,8.0,7552878006,1,6428426,False,,כפר סבא,טשרניחובסקי,,6428-426-3,6428/426,9065.19065190652,32.1811902477,34.8983082283,2002
2002-09-04,2002-04-09,"הגדוד העברי 3, כפר סבא",הגדוד העברי 3,6435-141-1,דירה בבית קומות,4.0,שניה,100.0,1138000,,,2003.0,,,7551687420,1,6435141,False,,כפר סבא,הגדוד העברי,,6435-141-1,6435/141,11380.0,32.1715447697,34.9176108498,2002
2002-09-01,2002-01-09,"ויצמן 200, כפר סבא",ויצמן 200,6435-251-27,,,שלישית,100.0,783000,,,2002.0,,5.0,7548706330,1,6435251,False,,כפר סבא,ויצמן,,6435-251-27,6435/251,7830.0,32.1716023674,34.922565603,2002
2002-09-01,2002-01-09,"הראשונים 8, כפר סבא",הראשונים 8,6435-212-21,,4.0,שניה,107.95,847000,,,1997.0,,5.0,7548543234,1,6435212,False,,כפר סבא,הראשונים,,6435-212-21,6435/212,7846.225104214914,32.1708777664,34.9209940205,2002
2002-08-29,2002-08-29,"הידידות 2, כפר סבא",הידידות 2,6435-274-14,דירה בבית קומות,6.0,ק. תחתונה+רביעית,190.3,1330000,,,2002.0,,4.0,7556739844,1,6435274,False,,כפר סבא,הידידות,,6435-274-14,6435/274,6988.964792433,32.1703519267,34.9194842794,2002
2002-08-26,2002-08-26,"הר חריף 14, כפר סבא",הר חריף 14,6434-604-1,,4.0,,100.0,1892000,,,2002.0,,,7556778990,1,6434604,False,,כפר סבא,הר חריף,,6434-604-1,6434/604,18920.0,32.1818294772,34.9209689575,2002
2002-08-26,2002-08-26,"לוינסקי 8, כפר סבא",לוינסקי 8,6430-147-10,,3.0,ראשונה,72.58,975000,,,2002.0,,3.0,7556643422,1,6430147,False,,כפר סבא,לוינסקי,,6430-147-10,6430/147,13433.45274180215,32.1854691425,34.9005424822,2002
2002-08-25,2002-08-25,"רופין 40, כפר סבא",רופין 40,6435-258-7,דירה בבית קומות,4.0,שלישית,90.0,943000,,,2002.0,,4.0,7556555510,1,6435258,False,,כפר סבא,רופין,,6435-258-7,6435/258,10477.777777777776,32.1690394609,34.9215389827,2002
2002-08-22,2002-08-22,"שועלי שמשון 6, כפר סבא",שועלי שמשון 6,6435-150-13,,4.0,שלישית,98.3,835000,,,1996.0,,4.0,7556683752,1,6435150,False,,כפר סבא,שועלי שמשון,,6435-150-13,6435/150,8494.40488301119,32.1705484042,34.920212357,2002
2002-08-22,2002-08-22,"בן גוריון 50, כפר סבא",בן גוריון 50,6439-130-7,,4.0,ב,84.0,647000,,,1970.0,,4.0,7556279638,1,6439130,False,,כפר סבא,בן גוריון,,6439-130-7,6439/130,7702.380952380952,32.171803982,34.9099906118,2002
2002-08-19,2002-08-19,"בר-אילן 9, כפר סבא",בר-אילן 9,6433-403-52,,3.0,חמישית,57.96,626000,,,1970.0,,8.0,7556153764,1,6433403,False,,כפר סבא,בר אילן,,6433-403-52,6433/403,10800.55210489993,32.1792157266,34.9117792154,2002
2002-08-19,2002-08-19,"רוטשילד 84, כפר סבא",רוטשילד 84,6438-4-9,,3.0,שניה,73.0,695000,,,1970.0,,6.0,7556332104,1,64384,False,,כפר סבא,רוטשילד,,6438-4-9,6438/4,9520.54794520548,32.1776344061,34.9098163661,2002
2002-08-15,2002-08-15,"הר עצמון 9, כפר סבא",הר עצמון 9,6434-501-1,,6.0,,150.0,3832000,,,2002.0,,,7556123868,1,6434501,False,,כפר סבא,הר עצמון,,6434-501-1,6434/501,25546.666666666668,32.1785291009,34.9226183357,2002
2002-08-12,2002-12-08,"בקעת הירח 15, כפר סבא",בקעת הירח 15,7606-179-2,,6.0,מרתף+קרקע+ראשונה,190.5,1299000,,,2001.0,,2.0,7559218548,1,7606179,False,,כפר סבא,בקעת הירח,,7606-179-2,7606/179,6818.897637795276,32.1792828607,34.9291364787,2002
2002-08-10,2002-10-08,"ויצמן 42, כפר סבא",ויצמן 42,6426-717-36,,,ראשונה,50.0,315000,,,1994.0,,3.0,7557990074,1,6426717,False,,כפר סבא,ויצמן,,6426-717-36,6426/717,6300.0,32.1765257728,34.9011090869,2002
2002-08-10,2002-10-08,"אמבר 4, כפר סבא",אמבר 4,6426-296-10,,4.0,ג,89.0,155000,,,1970.0,,4.0,7557576932,1,6426296,False,,כפר סבא,אימבר,,6426-296-10,6426/296,1741.573033707865,32.1727578981,34.9019040999,2002
2002-08-10,2002-10-08,"הגולן 4, כפר סבא",הגולן 4,6426-722-13,,4.0,חמישית,93.52,1079000,,,1993.0,,7.0,7557198348,1,6426722,False,,כפר סבא,הגולן,,6426-722-13,6426/722,11537.639007698888,32.1754049608,34.9004508588,2002
2002-08-10,2002-10-08,"בן-גוריון 20, כפר סבא",בן-גוריון 20,6426-1008-4,,4.0,שניה,98.1,1050000,,,2000.0,,4.0,7558307016,1,64261008,False,,כפר סבא,בן גוריון,,6426-1008-4,6426/1008,10703.363914373089,32.1730833818,34.9041567773,2002
2002-08-08,2002-08-08,"עמק חפר 5, כפר סבא",עמק חפר 5,7618-224-14,דירה בבית קומות,3.0,קרקע,79.0,880000,,,2001.0,,,7556292958,1,7618224,False,0% ב 0.9 שנים,כפר סבא,עמק חפר,0.0,7618-224-14,7618/224,11139.240506329112,32.1805291878,34.9326292173,2002
2002-08-07,2002-07-08,"איתמר בן-אב""י 7, כפר סבא","איתמר בן-אב""י 7",6431-321-1,,6.0,,150.0,1603000,,,1982.0,,,7555360188,1,6431321,False,,כפר סבא,"בן אב""י איתמר",,6431-321-1,6431/321,10686.666666666666,32.1861370716,34.9050166849,2002
2002-08-05,2002-05-08,"טרומפלדור 3, כפר סבא",טרומפלדור 3,6426-963-2,,3.0,ראשונה,95.81,1176000,,,2002.0,,4.0,7552796162,1,6426963,False,,כפר סבא,טרומפלדור,,6426-963-2,6426/963,12274.292871307796,32.1726089349,34.9058918343,2002
2002-08-05,2002-05-08,"רוטשילד 69, כפר סבא",רוטשילד 69,6440-124-5,,3.0,ב,60.34,552000,,,1960.0,,7.0,7552625148,1,6440124,False,,כפר סבא,רוטשילד,,6440-124-5,6440/124,9148.160424262513,32.1772026253,34.908788532,2002
2002-08-04,2002-04-08,"עמק חפר 5, כפר סבא",עמק חפר 5,7618-224-24,,,רביעית+חמישית+קרקע,143.1,1100000,,,2001.0,,,7551763714,1,7618224,False,,כפר סבא,עמק חפר,,7618-224-24,7618/224,7686.932215234102,32.1805291878,34.9326292173,2002
2002-08-03,2002-03-08,"תרי עשר 20, כפר סבא",תרי עשר 20,7593-110-0,,5.0,ראשונה,1863.0,979000,,,1990.0,,,7550789948,1,7593110,False,,כפר סבא,תרי עשר,,7593-110-0,7593/110,525.4965110037574,32.1914632797,34.9401061002,2002
2002-07-31,2002-07-31,"הסובלנות 1, כפר סבא",הסובלנות 1,6435-279-13,דירה בבית קומות,5.0,קרקע תחתונה+רביעית,160.0,1176000,,,2002.0,,5.0,7555852806,1,6435279,False,,כפר סבא,הסובלנות,,6435-279-13,6435/279,7350.0,32.1701973196,34.9201811885,2002
2002-07-31,2002-07-31,"בית הבד 8, כפר סבא",בית הבד 8,7602-271-7,קוטג' דו משפחתי,4.0,קרקע+ראשונה,100.0,1119000,,,2002.0,,,7555719088,1,7602271,False,,כפר סבא,בית הבד,,7602-271-7,7602/271,11190.0,32.1825977204,34.9372652188,2002
2002-07-29,2002-07-29,"בן-גוריון 59, כפר סבא",בן-גוריון 59,6439-227-35,,4.0,רביעית,103.34,827000,,,1986.0,,8.0,7556042098,1,6439227,False,,כפר סבא,בן גוריון,,6439-227-35,6439/227,8002.7095026127345,32.1716692372,34.9122969147,2002
2002-07-29,2002-07-29,"בקעת הירח 11, כפר סבא",בקעת הירח 11,7606-181-1,,,מרתף+קרקע+ראשונה,190.5,1335000,,,2002.0,,,7555846664,1,7606181,False,,כפר סבא,בקעת הירח,,7606-181-1,7606/181,7007.874015748032,32.1792499652,34.9295796436,2002
2002-07-28,2002-07-28,"הרעות 6, כפר סבא",הרעות 6,6435-250-14,דירה בבית קומות,6.0,חמישית + שישית,205.33,1335000,,,2002.0,,5.0,7556089014,1,6435250,False,,כפר סבא,הרעות,,6435-250-14,6435/250,6501.728924170847,32.1684603933,34.9229514508,2002
2002-07-28,2002-07-28,"דב הוז 19, כפר סבא",דב הוז 19,6428-448-50,,5.0,שניה,124.0,1090000,,,1984.0,,8.0,7555559766,1,6428448,False,,כפר סבא,הוז דב,,6428-448-50,6428/448,8790.322580645161,32.1800741221,34.9007883884,2002
2002-07-28,2002-07-28,"הגפן 8, כפר סבא",הגפן 8,7602-176-7,,3.0,רביעית,60.2,450000,,,1970.0,,5.0,7555630584,1,7602176,False,,כפר סבא,הגפן,,7602-176-7,7602/176,7475.083056478405,32.1818752332,34.940087806,2002
2002-07-26,2002-07-26,"תל חי 40, כפר סבא",תל חי 40,6436-119-23,,,ראשונה,,105000,,,1981.0,,3.0,7555370622,1,6436119,False,,כפר סבא,תל חי,,6436-119-23,6436/119,,32.1752936466,34.914821851,2002
2002-07-26,2002-07-26,"הגר""א 19, כפר סבא","הגר""א 19",6426-155-1,,4.0,ראשונה,106.86,928000,,,1980.0,,5.0,7555553624,1,6426155,False,,כפר סבא,"הגר""א",,6426-155-1,6426/155,8684.25977915029,32.1710693501,34.9064409941,2002
2002-07-26,2002-07-26,"אבא ברדיצ'ב 8, כפר סבא",אבא ברדיצ'ב 8,7621-292-2,,2.0,א',35.78,379000,,,1957.0,,2.0,7555948044,1,7621292,False,,כפר סבא,ברדיצ'ב אבא,,7621-292-2,7621/292,10592.509782001118,32.1931415072,34.8959879911,2002
2002-07-23,2002-07-23,"יחזקאל 7, כפר סבא",יחזקאל 7,7594-131-54,,4.0,שניה,78.9,574000,,,1970.0,,7.0,7555258216,1,7594131,False,,כפר סבא,יחזקאל,,7594-131-54,7594/131,7275.031685678073,32.1839005743,34.9377145469,2002
2002-07-23,2002-07-23,"הגליל 3, כפר סבא",הגליל 3,6436-122-4,,4.0,ראשונה,90.26,830000,,,1985.0,,6.0,7555732556,1,6436122,False,15% ב 2.4 שנים,כפר סבא,הגליל,6.25,6436-122-4,6436/122,9195.656990915131,32.1740481366,34.9167326318,2002
2002-07-21,2002-07-21,"כינרת 18, כפר סבא",כינרת 18,6440-200-2,,5.0,ראשונה,107.5,992000,,,1991.0,,7.0,7555930284,1,6440200,False,,כפר סבא,כנרת,,6440-200-2,6440/200,9227.906976744183,32.1772581882,34.9081951876,2002
2002-07-17,2002-07-17,"סירקין 17, כפר סבא",סירקין 17,6430-78-1,,5.0,,165.0,1794000,,,1950.0,,,7556389380,1,643078,False,,כפר סבא,סירקין,,6430-78-1,6430/78,10872.727272727272,32.1848380917,34.9000465204,2002
2002-07-17,2002-07-17,"הגפן 17, כפר סבא",הגפן 17,7602-175-5,,3.0,שלישית,60.2,404000,,,1970.0,,4.0,7556066444,1,7602175,False,,כפר סבא,הגפן,,7602-175-5,7602/175,6710.963455149501,32.1820158991,34.9396284873,2002
2002-07-16,2002-07-16,"יחזקאל 9, כפר סבא",יחזקאל 9,7594-131-86,,4.0,שלישית,92.7,515000,,,1975.0,,5.0,7556161090,1,7594131,True,-3% ב 4 שנים,כפר סבא,יחזקאל,-0.75,7594-131-86,7594/131,5555.555555555556,32.1839005743,34.9377145469,2002
2002-07-16,2002-07-16,"הכרמל 13, כפר סבא",הכרמל 13,6428-556-42,,4.0,מרתף+שניה,104.6,1265000,,,1995.0,,8.0,7555324298,1,6428556,False,,כפר סבא,הכרמל,,6428-556-42,6428/556,12093.690248565968,32.1793999061,34.9051380213,2002
2002-07-08,2002-08-07,"שועלי שמשון 2, כפר סבא",שועלי שמשון 2,6435-148-5,,4.0,שלישית,95.45,659000,,,1992.0,,4.0,7556374136,1,6435148,False,,כפר סבא,שועלי שמשון,,6435-148-5,6435/148,6904.138292299633,32.1708010885,34.9191053423,2002
2002-07-08,2002-08-07,"עובדיה הנביא 3, כפר סבא",עובדיה הנביא 3,7593-83-3,,5.0,קרקע + ראשונה,191.3,1248000,,,1996.0,,,7555844740,1,759383,False,,כפר סבא,עובדיה הנביא,,7593-83-3,7593/83,6523.784631468897,32.1881119054,34.937685507,2002
2002-07-05,2002-05-07,"הר עצמון 2, כפר סבא",הר עצמון 2,6434-510-1,,5.0,,287.0,1541000,,,2002.0,,,7552886368,1,6434510,False,,כפר סבא,הר עצמון,,6434-510-1,6434/510,5369.337979094076,32.1781395861,34.9229459082,2002
2002-07-05,2002-05-07,"הגליל 14, כפר סבא",הגליל 14,6435-126-7,דירה בבית קומות,4.0,רביעית+קרקע,96.23,1039000,,,2002.0,,5.0,7553002400,1,6435126,False,,כפר סבא,הגליל,,6435-126-7,6435/126,10797.04873739998,32.1747587326,34.9175208595,2002
2002-07-04,2002-04-07,"ירושלים 30, כפר סבא",ירושלים 30,6441-215-5,,,א,,270000,,,1960.0,,7.0,7552180704,1,6441215,False,,כפר סבא,ירושלים,,6441-215-5,6441/215,,32.1755704945,34.9059341229,2002
2002-07-04,2002-04-07,"שאול המלך 13, כפר סבא",שאול המלך 13,7601-78-18,,3.0,ג',45.7,338000,,,1960.0,,3.0,7551531206,1,760178,False,,כפר סבא,שאול המלך,,7601-78-18,7601/78,7396.061269146608,32.1850280865,34.9413735341,2002
2002-07-02,2002-02-07,"הידידות 2, כפר סבא",הידידות 2,6435-274-5,דירה בבית קומות,4.0,ק. תחתונה+ראשונה,98.5,912000,,,2002.0,,4.0,7549736780,1,6435274,False,,כפר סבא,הידידות,,6435-274-5,6435/274,9258.883248730965,32.1703519267,34.9194842794,2002
2002-07-02,2002-02-07,"זאב גלר 19, כפר סבא",זאב גלר 19,6426-592-12,,4.0,ג,80.0,704000,,,1964.0,,3.0,7549910828,1,6426592,False,,כפר סבא,גלר זאב,,6426-592-12,6426/592,8800.0,32.1750934194,34.8969936952,2002
2002-07-02,2002-02-07,"שלמה המלך 10, כפר סבא",שלמה המלך 10,7535-43-14,,3.0,ב',52.4,420000,,,1970.0,,4.0,7549978686,1,753543,False,,כפר סבא,שלמה המלך,,7535-43-14,7535/43,8015.26717557252,32.1830075734,34.9424552296,2002
2002-07-01,2002-01-07,"ויצמן 121, כפר סבא",ויצמן 121,6438-319-3,,,קרקע וראשונה,,450000,,,1994.0,,2.0,7549402966,1,6438319,False,,כפר סבא,ויצמן,,6438-319-3,6438/319,,32.1751139884,34.910261194,2002
2002-06-30,2002-06-30,"נורדאו 6, כפר סבא",נורדאו 6,6435-286-27,,4.0,רביעית,109.38,1057000,,,1996.0,,5.0,7555374248,1,6435286,False,,כפר סבא,נורדאו,,6435-286-27,6435/286,9663.558237337722,32.1717223521,34.9187561673,2002
2002-06-26,2002-06-26,"יסמין 1, כפר סבא",יסמין 1,6427-625-10,,5.0,שלישית,116.0,927000,,,1995.0,,8.0,7555892470,1,6427625,False,,כפר סבא,יסמין,,6427-625-10,6427/625,7991.379310344828,32.1778742286,34.8957941868,2002
2002-06-26,2002-06-26,"שיפר 2, כפר סבא",שיפר 2,7621-286-1,,2.0,ראשונה,31.32,836000,,,1950.0,,1.0,7555154468,1,7621286,False,,כפר סבא,שיפר,,7621-286-1,7621/286,26692.20945083014,32.191019627,34.8963034367,2002
2002-06-25,2002-06-25,"רוטשילד 47, כפר סבא",רוטשילד 47,6441-296-0,,,,682.0,2299000,,,2007.0,,7.0,7555286336,1,6441296,False,,כפר סבא,רוטשילד,,6441-296-0,6441/296,3370.967741935484,32.1748817313,34.9080624422,2002
2002-06-25,2002-06-25,"החי""ל 20, כפר סבא","החי""ל 20",6428-700-2,דירה בבית קומות,5.0,ראשונה,109.0,1400000,,,2003.0,,4.0,7554536050,1,6428700,False,,כפר סבא,"החי""ל",,6428-700-2,6428/700,12844.036697247706,32.1781110815,34.8992312089,2002
2002-06-24,2002-06-24,"הכלנית 22, כפר סבא",הכלנית 22,6427-484-19,,4.0,חמישית,76.7,825000,,,1983.0,,6.0,7554499420,1,6427484,False,,כפר סבא,הכלנית,,6427-484-19,6427/484,10756.19295958279,32.1738009521,34.8940169482,2002
2002-06-24,2002-06-24,"טרומפלדור 10, כפר סבא",טרומפלדור 10,6426-251-42,,3.0,שלישית,75.0,649000,,,2021.0,,7.0,7555456018,1,6426251,False,,כפר סבא,טרומפלדור,,6426-251-42,6426/251,8653.333333333334,,,2002
2002-06-24,2002-06-24,"רוטשילד 28, כפר סבא",רוטשילד 28,6441-326-4,,5.0,שניה,111.0,1186000,,,1997.0,,4.0,7554206380,1,6441326,False,,כפר סבא,רוטשילד,,6441-326-4,6441/326,10684.684684684684,32.1729316294,34.908111028,2002
2002-06-23,2002-06-23,"האילנות 2, כפר סבא",האילנות 2,7602-178-11,,3.0,שלישית,72.8,488000,,,1970.0,,4.0,7554771074,1,7602178,False,,כפר סבא,האילנות,,7602-178-11,7602/178,6703.296703296704,32.1813551979,34.940410876,2002
2002-06-23,2002-06-23,"הידידות 2, כפר סבא",הידידות 2,6435-274-16,דירה בבית קומות,4.0,ק. תחתונה+קרקע,98.0,1083000,,,2002.0,,4.0,7554455464,1,6435274,False,,כפר סבא,הידידות,,6435-274-16,6435/274,11051.020408163266,32.1703519267,34.9194842794,2002
2002-06-20,2002-06-20,"הכרמל 81, כפר סבא",הכרמל 81,6433-554-5,,3.0,רביעית,61.0,590000,1.0,תמא 38 בכרמל 81 כפס,1973.0,,5.0,7554660592,1,6433554,False,,כפר סבא,הכרמל,,6433-554-5,6433/554,9672.131147540984,32.1767725704,34.915777938,2002
2002-06-20,2002-06-20,"הרצל 8, כפר סבא",הרצל 8,6439-470-13,,4.0,קרקע תחתונה+שלישית,106.5,996000,,,2002.0,,5.0,7554689896,1,6439470,False,,כפר סבא,הרצל,,6439-470-13,6439/470,9352.112676056338,32.1706812121,34.9102833474,2002
2002-06-20,2002-06-20,"ויתקין 18, כפר סבא",ויתקין 18,7621-193-2,,3.0,,90.0,597000,,,1950.0,,,7554131936,1,7621193,False,,כפר סבא,ויתקין,,7621-193-2,7621/193,6633.333333333333,32.1899076384,34.8987654418,2002
2002-06-19,2002-06-19,"חניתה 15, כפר סבא",חניתה 15,6428-561-31,,4.0,מרתף+שניה,107.0,1275000,,,1996.0,,6.0,7554786466,1,6428561,False,,כפר סבא,חניתה,,6428-561-31,6428/561,11915.88785046729,32.1800989553,34.9057820543,2002
2002-06-19,2002-06-19,"המייסדים 28, כפר סבא",המייסדים 28,6440-255-1,,4.0,ראשונה,93.0,1015000,,,2002.0,,6.0,7554233834,1,6440255,False,,כפר סבא,המיסדים,,6440-255-1,6440/255,10913.978494623656,32.1765444388,34.9084407844,2002
2002-06-19,2002-06-19,"גיל 2, כפר סבא",גיל 2,6427-452-6,,3.0,שניה,68.5,750000,,,2021.0,,4.0,7554213114,1,6427452,False,,כפר סבא,גיל,,6427-452-6,6427/452,10948.905109489053,32.1775231535,34.8933197304,2002
2002-06-19,2002-06-19,"הרצל 50, כפר סבא",הרצל 50,6438-188-5,,4.0,ראשונה,87.34,750000,,,2022.0,,4.0,7554664218,1,6438188,False,,כפר סבא,הרצל,,6438-188-5,6438/188,8587.130753377605,32.1753565115,34.9117242832,2002
2002-06-18,2002-06-18,"טשרניחובסקי 56, כפר סבא",טשרניחובסקי 56,6428-426-6,,4.0,שניה,83.87,763000,,,1970.0,,8.0,7554769890,1,6428426,False,,כפר סבא,טשרניחובסקי,,6428-426-6,6428/426,9097.412662453797,32.1811902477,34.8983082283,2002
2002-06-18,2002-06-18,"הבנים 16, כפר סבא",הבנים 16,6439-196-23,,3.0,שלישית,57.53,593000,,,1970.0,,3.0,7554103224,1,6439196,False,,כפר סבא,הבנים,,6439-196-23,6439/196,10307.66556579176,32.1737791311,34.9113219597,2002
2002-06-17,2002-06-17,"בקעת בית נטופה 23, כפר סבא",בקעת בית נטופה 23,7606-106-2,,6.0,מרתף+קרקע+ראשונה,193.9,1350000,,,2002.0,,,7554636246,1,7606106,False,,כפר סבא,בקעת בית נטופה,,7606-106-2,7606/106,6962.351727694688,32.1821260061,34.9290289986,2002
2002-06-17,2002-06-17,"אז""ר 4, כפר סבא","אז""ר 4",6431-176-1,,8.0,,210.0,1779000,,,1955.0,,1.0,7554658816,1,6431176,False,,כפר סבא,"אז""ר",,6431-176-1,6431/176,8471.42857142857,32.1853387926,34.9029911678,2002
2002-06-17,2002-06-17,"גורדון 23, כפר סבא",גורדון 23,6426-574-40,,3.0,ב,41.1,568000,,,1958.0,,2.0,7554626478,1,6426574,False,,כפר סבא,גורדון,,6426-574-40,6426/574,13819.951338199511,32.1747092212,34.8992069902,2002
2002-06-16,2002-06-16,"בקעת רמון 10, כפר סבא",בקעת רמון 10,7606-105-1,,,מרתף+קרקע+ראשונה,193.9,1320000,,,2001.0,,,7554567278,1,7606105,False,,כפר סבא,בקעת רמון,,7606-105-1,7606/105,6807.632800412584,32.1821137336,34.9287070523,2002
2002-06-16,2002-06-16,"יבנה 18, כפר סבא",יבנה 18,6433-513-12,,3.0,שלישית,50.5,499000,,,1960.0,,4.0,7554052534,1,6433513,True,-2% ב 2.9 שנים,כפר סבא,יבנה,-0.69,6433-513-12,6433/513,9881.18811881188,32.1805836047,34.9150636687,2002
2002-06-16,2002-06-16,"חטיבת גולני 3, כפר סבא",חטיבת גולני 3,6428-349-1,,7.0,,242.0,1981000,,,1979.0,,,7553946270,1,6428349,False,,כפר סבא,חטיבת גולני,,6428-349-1,6428/349,8185.95041322314,32.1838277965,34.9042318735,2002
2002-06-14,2002-06-14,"העמק 18, כפר סבא",העמק 18,6437-166-13,,5.0,חמישית,90.66,980000,,,1983.0,,5.0,7554232058,1,6437166,False,,כפר סבא,העמק,,6437-166-13,6437/166,10809.618354290757,32.1727519929,34.9155822771,2002
2002-06-13,2002-06-13,"רוטשילד 10, כפר סבא",רוטשילד 10,6426-128-3,,4.0,שניה,90.41,942000,,,1970.0,,5.0,7554045208,1,6426128,False,,כפר סבא,רוטשילד,,6426-128-3,6426/128,10419.201415772592,32.1713200991,34.9076256841,2002
2002-06-13,2002-06-13,"הלפיד 1, כפר סבא",הלפיד 1,6435-252-19,,4.0,שלישית,75.0,882000,,,2000.0,,6.0,7554738070,1,6435252,False,,כפר סבא,הלפיד,,6435-252-19,6435/252,11760.0,32.1705938341,34.9216450805,2002
2002-06-08,2002-08-06,"המעפילים 16, כפר סבא",המעפילים 16,6428-448-9,,4.0,שלישית,92.0,809000,,,1982.0,,6.0,7557222250,1,6428448,False,,כפר סבא,המעפילים,,6428-448-9,6428/448,8793.478260869566,32.1800741221,34.9007883884,2002
2002-06-06,2002-06-06,"גיבורי ישראל 7, כפר סבא",גיבורי ישראל 7,6438-337-7,,4.0,רביעית,96.0,1137000,,,1996.0,,7.0,7553940720,1,6438337,False,,כפר סבא,גבורי ישראל,,6438-337-7,6438/337,11843.75,32.1764661042,34.9098043703,2002
2002-06-06,2002-06-06,"אז""ר 173, כפר סבא","אז""ר 173",6434-459-3,,6.0,קרקע + ראשונה,161.38,1530000,,,2002.0,,,7554169750,1,6434459,False,,כפר סבא,"אז""ר",,6434-459-3,6434/459,9480.728714834551,32.1808229877,34.9239836586,2002
2002-06-05,2002-05-06,"עמק חרוד 1, כפר סבא",עמק חרוד 1,7618-166-4,,3.0,ראשונה,78.67,823000,,,1998.0,,4.0,7552517034,1,7618166,False,55% ב 3.6 שנים,כפר סבא,עמק חרוד,15.28,7618-166-4,7618/166,10461.421126223466,32.1799169586,34.9343382477,2002
2002-06-03,2002-03-06,"קדושי קהיר 14, כפר סבא",קדושי קהיר 14,6430-191-36,דירה בבית קומות,4.0,קרקע+ראשונה,100.09,1146000,,,2001.0,,4.0,7551033038,1,6430191,False,,כפר סבא,קדושי קהיר,,6430-191-36,6430/191,11449.695274253172,32.1869685222,34.8989201087,2002
2002-06-03,2002-03-06,"הסובלנות 1, כפר סבא",הסובלנות 1,6435-279-26,,6.0,קרקע תחתונה + רביעית,182.5,1134000,,,2002.0,,5.0,7550708770,1,6435279,False,,כפר סבא,הסובלנות,,6435-279-26,6435/279,6213.698630136986,32.1701973196,34.9201811885,2002
2002-06-03,2002-03-06,"רופין 40, כפר סבא",רופין 40,6435-258-14,דירה בבית קומות,3.0,ראשונה,74.0,786000,,,2002.0,,4.0,7550709954,1,6435258,False,,כפר סבא,רופין,,6435-258-14,6435/258,10621.621621621622,32.1690394609,34.9215389827,2002
2002-05-31,2002-05-31,"סוקולוב 34, כפר סבא",סוקולוב 34,6426-531-2,,3.0,,49.03,1106000,,,1950.0,,,7554061784,1,6426531,False,,כפר סבא,סוקולוב,,6426-531-2,6426/531,22557.61778502957,32.1723927717,34.9010865099,2002
2002-05-31,2002-05-31,"הכלנית 16, כפר סבא",הכלנית 16,6427-542-6,,4.0,שניה,98.99,1032000,,,1989.0,,6.0,7553706880,1,6427542,False,,כפר סבא,הכלנית,,6427-542-6,6427/542,10425.295484392364,32.1745087164,34.8941855963,2002
2002-05-30,2002-05-30,"עמק החולה 2, כפר סבא",עמק החולה 2,7618-299-7,,4.0,שניה,94.0,950000,,,2000.0,,3.0,7553655746,1,7618299,False,,כפר סבא,עמק החולה,,7618-299-7,7618/299,10106.382978723404,32.1788576127,34.9353755223,2002
2002-05-30,2002-05-30,"המייסדים 28, כפר סבא",המייסדים 28,6440-255-8,,4.0,רביעית,104.0,987000,,,2002.0,,6.0,7553507968,1,6440255,False,,כפר סבא,המיסדים,,6440-255-8,6440/255,9490.384615384615,32.1765444388,34.9084407844,2002
2002-05-29,2002-05-29,"הרצל 20, כפר סבא",הרצל 20,6439-259-1,,4.0,ראשונה ושניה,110.4,814000,,,1980.0,,10.0,7553966546,1,6439259,False,,כפר סבא,הרצל,,6439-259-1,6439/259,7373.188405797101,32.1711995133,34.9104475703,2002
2002-05-29,2002-05-29,"יסמין 5, כפר סבא",יסמין 5,6427-636-4,,5.0,שניה,115.5,1242000,,,1997.0,,6.0,7553741142,1,6427636,False,,כפר סבא,יסמין,,6427-636-4,6427/636,10753.246753246753,32.1775259206,34.89569088,2002
2002-05-29,2002-05-29,"התע""ש 20, כפר סבא","התע""ש 20",7607-125-30,,,מרתף,,152000,,,1999.0,,5.0,7553743658,1,7607125,False,,כפר סבא,"התע""ש",,7607-125-30,7607/125,,32.1759745495,34.9277395245,2002
2002-05-28,2002-05-28,"הידידות 2, כפר סבא",הידידות 2,6435-274-13,דירה בבית קומות,6.0,ק. תחתונה+רביעית,179.0,1362000,,,2002.0,,4.0,7553520844,1,6435274,False,,כפר סבא,הידידות,,6435-274-13,6435/274,7608.938547486034,32.1703519267,34.9194842794,2002
2002-05-28,2002-05-28,"טשרניחובסקי 82, כפר סבא",טשרניחובסקי 82,6431-258-16,,4.0,רביעית וקרקע,95.8,829000,,,1980.0,,7.0,7554217406,1,6431258,False,,כפר סבא,טשרניחובסקי,,6431-258-16,6431/258,8653.444676409186,32.184714872,34.9021360372,2002
2002-05-27,2002-05-27,"בקעת הירח 9, כפר סבא",בקעת הירח 9,7606-182-2,,,מרתף+קרקע+ראשונה,190.5,1419000,,,2002.0,,,7554259586,1,7606182,False,,כפר סבא,בקעת הירח,,7606-182-2,7606/182,7448.818897637795,32.1792204525,34.9298032551,2002
2002-05-27,2002-05-27,"ויצמן 52, כפר סבא",ויצמן 52,6426-417-42,,3.0,שלישית,66.9,698000,,,1970.0,,6.0,7553416356,1,6426417,False,,כפר סבא,ויצמן,,6426-417-42,6426/417,10433.482810164423,32.1764876665,34.9018930531,2002
2002-05-26,2002-05-26,"המייסדים 19, כפר סבא",המייסדים 19,6438-190-4,,4.0,שניה,84.81,1012000,,,1989.0,,5.0,7553752168,1,6438190,False,,כפר סבא,המיסדים,,6438-190-4,6438/190,11932.555123216602,32.1751624401,34.9125804481,2002
2002-05-24,2002-05-24,"תל חי 83, כפר סבא",תל חי 83,6433-518-15,,3.0,רביעית,46.4,63000,,,1966.0,,4.0,7553039030,1,6433518,False,,כפר סבא,תל חי,,6433-518-15,6433/518,1357.7586206896551,32.1801668714,34.9155013114,2002
2002-05-23,2002-05-23,"ירושלים 21, כפר סבא",ירושלים 21,6441-288-19,,3.0,חמישית,88.53,751000,,,1970.0,,8.0,7554216074,1,6441288,False,,כפר סבא,ירושלים,,6441-288-19,6441/288,8483.00011295606,32.175155627,34.9053188944,2002
2002-05-21,2002-05-21,"העמק 50, כפר סבא",העמק 50,6436-142-16,,4.0,רביעית,104.5,906000,,,1987.0,,5.0,7553241864,1,6436142,False,,כפר סבא,העמק,,6436-142-16,6436/142,8669.856459330143,32.1759507861,34.9164867962,2002
2002-05-20,2002-05-20,"הגר""א 3, כפר סבא","הגר""א 3",6426-985-1,דירה בבית קומות,5.0,ראשונה,109.1,1345000,,,2001.0,,5.0,7552893694,1,6426985,False,,כפר סבא,"הגר""א",,6426-985-1,6426/985,12328.13932172319,32.1723941177,34.906835375,2002
2002-05-19,2002-05-19,"ברקן 5, כפר סבא",ברקן 5,6430-199-17,,4.0,ראשונה,83.0,1042000,,,1996.0,,5.0,7554097082,1,6430199,False,,כפר סבא,ברקן,,6430-199-17,6430/199,12554.21686746988,32.186726299,34.8971262616,2002
2002-05-19,2002-05-19,"המייסדים 28, כפר סבא",המייסדים 28,6440-255-4,,4.0,שניה,104.0,1023000,,,2002.0,,6.0,7553178964,1,6440255,False,,כפר סבא,המיסדים,,6440-255-4,6440/255,9836.53846153846,32.1765444388,34.9084407844,2002
2002-05-15,2002-05-15,"דליה 7, כפר סבא",דליה 7,6428-504-1,,6.0,,150.0,1956000,,,1997.0,,,7553472078,1,6428504,False,,כפר סבא,דליה,,6428-504-1,6428/504,13040.0,32.1823441382,34.8999903056,2002
2002-05-15,2002-05-15,"בן גוריון 30, כפר סבא",בן גוריון 30,6426-828-7,,4.0,שלישית,107.27,953000,,,1986.0,,4.0,7553108664,1,6426828,False,,כפר סבא,בן גוריון,,6426-828-7,6426/828,8884.124172648457,32.1726221002,34.9063735859,2002
2002-05-15,2002-05-15,"אנה פרנק 1, כפר סבא",אנה פרנק 1,6426-447-0,,4.0,שלישית,79.0,668000,,,1965.0,,3.0,7553376766,1,6426447,False,19% ב 1.4 שנים,כפר סבא,אנה פרנק,13.57,6426-447-0,6426/447,8455.696202531646,32.1739104633,34.9024974401,2002
2002-05-13,2002-05-13,"קדושי בלזן 1, כפר סבא",קדושי בלזן 1,6434-617-16,,5.0,שניה+קרקע תחתונה,105.29,960000,,,2002.0,,2.0,7552786320,1,6434617,False,,כפר סבא,קדושי בלזן,,6434-617-16,6434/617,9117.674992876817,32.1807883823,34.9194192466,2002
2002-05-09,2002-09-05,"אלתרמן 13, כפר סבא",אלתרמן 13,6438-178-5,,4.0,שניה,86.1,873000,,,1970.0,,6.0,7556973684,1,6438178,False,,כפר סבא,אלתרמן,,6438-178-5,6438/178,10139.372822299652,32.1761775146,34.9124587764,2002
2002-05-09,2002-09-05,"הגליל 24, כפר סבא",הגליל 24,6436-152-1,,4.0,ראשונה,109.3,782000,,,1980.0,,4.0,7557083056,1,6436152,False,,כפר סבא,הגליל,,6436-152-1,6436/152,7154.620311070448,32.1756804133,34.9178289074,2002
2002-05-08,2002-08-05,"שאול המלך 5, כפר סבא",שאול המלך 5,7600-154-21,,3.0,שניה,53.7,401000,,,1960.0,,5.0,7555952854,1,7600154,False,,כפר סבא,שאול המלך,,7600-154-21,7600/154,7467.411545623836,32.1841326888,34.9400483937,2002
2002-05-07,2002-07-05,"רוטשילד 84, כפר סבא",רוטשילד 84,6438-4-2,,,קרקע,29.0,240000,,,1970.0,,6.0,7554882148,1,64384,False,,כפר סבא,רוטשילד,,6438-4-2,6438/4,8275.862068965518,32.1776344061,34.9098163661,2002
2002-05-06,2002-06-05,"הצבעוני 2, כפר סבא",הצבעוני 2,6428-598-3,,6.0,קרקע+ראשונה,140.39,1927000,,,1991.0,,,7553564726,1,6428598,False,,כפר סבא,הצבעוני,,6428-598-3,6428/598,13726.048863879196,32.1829981537,34.9006397944,2002
2002-05-06,2002-06-05,"יאיר שטרן 1, כפר סבא",יאיר שטרן 1,6430-133-3,,5.0,קרקע + ראשונה,153.22,1792000,,,1990.0,,2.0,7554099598,1,6430133,False,,כפר סבא,שטרן יאיר,,6430-133-3,6430/133,11695.601096462602,32.1868030874,34.9022981121,2002
2002-05-06,2002-06-05,"הראשונים 7, כפר סבא",הראשונים 7,6435-238-7,דירה בבית קומות,4.0,שלישית+קרקע תחתונה,107.61,970000,,,1999.0,,4.0,7553849182,1,6435238,False,,כפר סבא,הראשונים,,6435-238-7,6435/238,9014.03215314562,32.1709627481,34.9217491952,2002
2002-05-06,2002-06-05,"רמז דוד 19, כפר סבא",רמז דוד 19,7620-242-3,,3.0,ראשונה,43.0,469000,,,1965.0,,3.0,7553922442,1,7620242,False,,כפר סבא,רמז דוד,,7620-242-3,7620/242,10906.976744186046,32.1899768176,34.901479673,2002
2002-05-05,2002-05-05,"הסובלנות 1, כפר סבא",הסובלנות 1,6435-279-19,,4.0,קרקע תחתונה + ראשונה,97.5,851000,,,2002.0,,5.0,7552631290,1,6435279,False,,כפר סבא,הסובלנות,,6435-279-19,6435/279,8728.205128205129,32.1701973196,34.9201811885,2002
2002-05-05,2002-05-05,"הרצל 12, כפר סבא",הרצל 12,6439-69-7,,5.0,רביעית+חמישית,117.39,1046000,,,1994.0,,9.0,7552518884,1,643969,False,,כפר סבא,הרצל,,6439-69-7,6439/69,8910.469375585655,32.1708336942,34.9104236041,2002
2002-05-05,2002-05-05,"הרצפלד אברהם 8, כפר סבא",הרצפלד אברהם 8,6431-308-18,,3.0,ראשונה,73.4,700000,,,1975.0,,4.0,7552597028,1,6431308,False,16% ב 3.8 שנים,כפר סבא,הרצפלד אברהם,4.21,6431-308-18,6431/308,9536.784741144413,32.1850475889,34.9030330057,2002
2002-05-05,2002-05-05,"ששת הימים 11, כפר סבא",ששת הימים 11,6426-984-14,דירה בבית קומות,4.0,שלישית,101.2,1120000,,,2004.0,,6.0,7552494612,1,6426984,False,,כפר סבא,ששת הימים,,6426-984-14,6426/984,11067.193675889328,32.1746728308,34.9003461148,2002
2002-05-04,2002-04-05,"התע""ש 26, כפר סבא","התע""ש 26",7606-91-77,,,שניה,65.68,308000,,,1995.0,,4.0,7552975612,1,760691,False,8% ב 3.9 שנים,כפר סבא,"התע""ש",2.05,7606-91-77,7606/91,4689.403166869671,32.1776580001,34.928133225,2002
2002-05-03,2002-03-05,"סוקולוב 14, כפר סבא",סוקולוב 14,6426-355-17,,3.0,שלישית,74.0,600000,,,1970.0,,4.0,7551197170,1,6426355,False,14% ב 3.6 שנים,כפר סבא,סוקולוב,3.89,6426-355-17,6426/355,8108.108108108108,32.1749306015,34.9018490798,2002
2002-04-30,2002-04-30,"קפלנסקי 1, כפר סבא",קפלנסקי 1,7620-188-22,דירה בבית קומות,4.0,שניה,100.0,748000,,,2001.0,,4.0,7553266136,1,7620188,False,,כפר סבא,קפלנסקי,,7620-188-22,7620/188,7480.0,32.1897313921,34.9040751416,2002
2002-04-29,2002-04-29,"הרצל 8, כפר סבא",הרצל 8,6439-470-7,,5.0,קרקע תחתונה+ראשונה,119.5,1125000,,,2002.0,,5.0,7552388200,1,6439470,False,,כפר סבא,הרצל,,6439-470-7,6439/470,9414.225941422594,32.1706812121,34.9102833474,2002
2002-04-26,2002-04-26,"התחייה 20, כפר סבא",התחייה 20,6441-10-1,,3.0,א,66.3,770000,,,1965.0,,4.0,7552339434,1,644110,False,,כפר סבא,התחיה,,6441-10-1,6441/10,11613.876319758674,32.1740037327,34.9033734246,2002
2002-04-25,2002-04-25,"הידידות 2, כפר סבא",הידידות 2,6435-274-22,דירה בבית קומות,4.0,ק. תחתונה+שלישית,97.3,927000,,,2002.0,,4.0,7552405960,1,6435274,False,,כפר סבא,הידידות,,6435-274-22,6435/274,9527.235354573484,32.1703519267,34.9194842794,2002
2002-04-25,2002-04-25,"הזית 8, כפר סבא",הזית 8,7590-50-2,,3.0,קרקע,58.5,585000,,,1989.0,,,7552846778,1,759050,False,,כפר סבא,הזית,,7590-50-2,7590/50,10000.0,32.1802133131,34.9392085838,2002
2002-04-25,2002-04-25,"אגרון 11, כפר סבא",אגרון 11,6426-202-6,,4.0,שניה,104.68,968000,,,1981.0,,5.0,7552352310,1,6426202,False,,כפר סבא,אגרון,,6426-202-6,6426/202,9247.229652273596,32.176254475,34.8983363752,2002
2002-04-23,2002-04-23,"עציון 7, כפר סבא",עציון 7,6433-99-1,,6.0,,150.0,2034000,,,1995.0,,,7552277866,1,643399,False,,כפר סבא,עציון,,6433-99-1,6433/99,13560.0,32.1798638439,34.9134756644,2002
2002-04-22,2002-04-22,"רופין 40, כפר סבא",רופין 40,6435-258-4,דירה בבית קומות,4.0,ראשונה,88.64,880000,,,2002.0,,4.0,7552203274,1,6435258,False,,כפר סבא,רופין,,6435-258-4,6435/258,9927.797833935016,32.1690394609,34.9215389827,2002
2002-04-21,2002-04-21,"ברל כצנלסון 45, כפר סבא",ברל כצנלסון 45,6428-480-9,,6.0,שלישית+רביעית,178.83,1699000,,,1980.0,,3.0,7552429788,1,6428480,False,,כפר סבא,כצנלסון ברל,,6428-480-9,6428/480,9500.643068836323,32.1820382617,34.9038780103,2002
2002-04-18,2002-04-18,"לופבן 12, כפר סבא",לופבן 12,7620-241-2,,2.0,,60.0,670000,,,1970.0,,,7552389532,1,7620241,False,,כפר סבא,לופבן,,7620-241-2,7620/241,11166.666666666666,32.1897925997,34.9018024509,2002
2002-04-16,2002-04-16,"מבצע יונתן 12, כפר סבא",מבצע יונתן 12,6433-669-98,,2.0,רביעית,44.58,416000,,,1970.0,,4.0,7552466418,1,6433669,False,,כפר סבא,מבצע יונתן,,6433-669-98,6433/669,9331.53880663975,32.1787522413,34.9171636267,2002
2002-04-16,2002-04-16,"הגליל 49, כפר סבא",הגליל 49,6433-581-25,,4.0,רביעית,83.6,862000,,,1987.0,,5.0,7552135564,1,6433581,False,29% ב 1.9 שנים,כפר סבא,הגליל,15.26,6433-581-25,6433/581,10311.004784688996,32.1798120606,34.9186077511,2002
2002-04-15,2002-04-15,"בן-גוריון 42, כפר סבא",בן-גוריון 42,6439-442-1,,5.0,ראשונה,109.0,1391000,,,1998.0,,4.0,7551859026,1,6439442,False,,כפר סבא,בן גוריון,,6439-442-1,6439/442,12761.467889908256,32.1719331044,34.9092662486,2002
2002-04-14,2002-04-14,"הגליל 43, כפר סבא",הגליל 43,6433-668-50,,5.0,רביעית,115.36,851000,,,1983.0,,8.0,7551860136,1,6433668,False,,כפר סבא,הגליל,,6433-668-50,6433/668,7376.907073509015,32.1785861703,34.9180027916,2002
2002-04-12,2002-12-04,"האשל 7, כפר סבא",האשל 7,6433-583-4,,4.0,שניה,79.2,743000,,,1992.0,,5.0,7559526906,1,6433583,False,,כפר סבא,האשל,,6433-583-4,6433/583,9381.31313131313,32.1799445279,34.9180409394,2002
2002-04-09,2002-09-04,"אלתרמן 16, כפר סבא",אלתרמן 16,6438-223-11,,5.0,שלישית,114.1,1130000,,,1989.0,,8.0,7557080540,1,6438223,False,,כפר סבא,אלתרמן,,6438-223-11,6438/223,9903.59333917616,32.1760801883,34.9137448576,2002
2002-04-09,2002-09-04,"הגר""א 3, כפר סבא","הגר""א 3",6426-985-5,דירה בבית קומות,5.0,שלישית,110.5,1080000,,,2001.0,,5.0,7557069514,1,6426985,False,,כפר סבא,"הגר""א",,6426-985-5,6426/985,9773.755656108597,32.1723941177,34.906835375,2002
2002-04-08,2002-08-04,"האלה 73, כפר סבא",האלה 73,6438-281-18,דירה בבית קומות,8.0,חמישית+גג,160.0,1465000,,,1985.0,,5.0,7556849734,1,6438281,False,,כפר סבא,האלה,,6438-281-18,6438/281,9156.25,32.1766281474,34.9109431736,2002
2002-04-08,2002-08-04,"יקותיאל אדם 13, כפר סבא",יקותיאל אדם 13,6427-583-3,,5.0,,125.0,1745000,,,1991.0,,1.0,7555743582,1,6427583,False,,כפר סבא,אדם יקותיאל,,6427-583-3,6427/583,13960.0,32.1772909986,34.8901161184,2002
2002-04-08,2002-08-04,"חביבה רייק 11, כפר סבא",חביבה רייק 11,6427-323-1,,3.0,,67.0,1273000,,,1968.0,,,7555853990,1,6427323,False,,כפר סבא,רייק חביבה,,6427-323-1,6427/323,19000.0,32.1787221909,34.8926659105,2002
2002-04-07,2002-07-04,"החי""ל 20, כפר סבא","החי""ל 20",6428-700-17,דירה בבית קומות,6.0,רביעית+חמישית,175.35,1486000,,,2003.0,,4.0,7554860318,1,6428700,False,,כפר סבא,"החי""ל",,6428-700-17,6428/700,8474.479612204163,32.1781110815,34.8992312089,2002
2002-04-07,2002-07-04,"ויצמן 157, כפר סבא",ויצמן 157,6436-124-6,,4.0,שניה,91.65,644000,,,1982.0,,5.0,7555254590,1,6436124,False,,כפר סבא,ויצמן,,6436-124-6,6436/124,7026.732133115112,32.1738502436,34.9160309119,2002
2002-04-06,2002-06-04,"מצדה 9, כפר סבא",מצדה 9,7601-84-26,,2.0,קרקע,40.0,55000,,,1960.0,,2.0,7558349196,1,760184,False,,כפר סבא,מצדה,,7601-84-26,7601/84,1375.0,32.184321091,34.943259481,2002
2002-04-06,2002-06-04,"אמבר 11, כפר סבא",אמבר 11,6426-730-6,,4.0,שלישית,99.58,889000,,,1987.0,,4.0,7553898688,1,6426730,False,,כפר סבא,אימבר,,6426-730-6,6426/730,8927.495481020285,32.1730057093,34.9028812495,2002
2002-04-03,2002-03-04,"טרומפלדור 17, כפר סבא",טרומפלדור 17,6426-264-5,,3.0,ראשונה,67.18,631000,,,1970.0,,3.0,7551120802,1,6426264,False,,כפר סבא,טרומפלדור,,6426-264-5,6426/264,9392.676391783269,32.1714388785,34.9055481262,2002
2002-04-02,2002-02-04,"חטיבת יפתח 7, כפר סבא",חטיבת יפתח 7,7603-104-1,,3.0,ראשונה,75.0,724000,,,1990.0,,2.0,7549543936,1,7603104,False,,כפר סבא,חטיבת יפתח,,7603-104-1,7603/104,9653.333333333334,32.1830143741,34.9332695979,2002
2002-04-01,2002-01-04,"השפלה 2, כפר סבא",השפלה 2,6432-74-44,,5.0,שלישית + רביעית,126.44,1440000,,,1996.0,,7.0,7548210678,1,643274,False,,כפר סבא,השפלה,,6432-74-44,6432/74,11388.801012337868,32.182941027,34.915330668,2002
2002-04-01,2002-01-04,"קדושי בלזן 1, כפר סבא",קדושי בלזן 1,6434-617-4,,5.0,ראשונה+קרקע תחתונה,104.16,965000,,,2002.0,,2.0,7548590372,1,6434617,False,,כפר סבא,קדושי בלזן,,6434-617-4,6434/617,9264.592933947772,32.1807883823,34.9194192466,2002
2002-03-31,2002-03-31,"בקעת בית נטופה 21, כפר סבא",בקעת בית נטופה 21,7606-109-2,,,מרתף+קרקע+ראשונה,193.9,1380000,,,2001.0,,,7551647090,1,7606109,False,,כפר סבא,בקעת בית נטופה,,7606-109-2,7606/109,7117.070654976792,32.1819452505,34.929056633,2002
2002-03-27,2002-03-27,"הצבעוני 12, כפר סבא",הצבעוני 12,6428-471-1,,6.0,,250.0,2567000,,,1999.0,,,7551299142,1,6428471,False,,כפר סבא,הצבעוני,,6428-471-1,6428/471,10268.0,32.1827123283,34.9020070455,2002
2002-03-26,2002-03-26,"אוסטשינסקי 15, כפר סבא",אוסטשינסקי 15,6426-678-17,,4.0,רביעית,96.5,886000,,,1983.0,,5.0,7551374844,1,6426678,False,,כפר סבא,אוסטשינסקי,,6426-678-17,6426/678,9181.347150259067,32.1721688261,34.9040717325,2002
2002-03-26,2002-03-26,"סוקולוב 18, כפר סבא",סוקולוב 18,6426-650-5,,4.0,שניה,100.01,390000,,,1970.0,,10.0,7552876674,1,6426650,False,,כפר סבא,סוקולוב,,6426-650-5,6426/650,3899.6100389961,32.1741321133,34.9012148456,2002
2002-03-26,2002-03-26,"גורדון 3, כפר סבא",גורדון 3,6426-207-15,,3.0,א,70.43,713000,,,1970.0,,4.0,7551772964,1,6426207,False,11% ב 1.1 שנים,כפר סבא,גורדון,10.0,6426-207-15,6426/207,10123.526906147948,32.177027683,34.8995065682,2002
2002-03-25,2002-03-25,"שומרון 6, כפר סבא",שומרון 6,6431-367-1,,6.0,,160.0,1091000,,,1990.0,,,7551678318,1,6431367,False,,כפר סבא,שומרון,,6431-367-1,6431/367,6818.75,32.1800148125,34.9076479776,2002
2002-03-25,2002-03-25,"קדושי בלזן 1, כפר סבא",קדושי בלזן 1,6434-617-3,,5.0,ראשונה+קרקע תחתונה,103.68,1070000,,,2002.0,,2.0,7551350942,1,6434617,False,,כפר סבא,קדושי בלזן,,6434-617-3,6434/617,10320.216049382716,32.1807883823,34.9194192466,2002
2002-03-25,2002-03-25,"קדושי בלזן 1, כפר סבא",קדושי בלזן 1,6434-617-6,,5.0,שניה+קרקע תחתונה,104.75,960000,,,2002.0,,2.0,7551351534,1,6434617,False,,כפר סבא,קדושי בלזן,,6434-617-6,6434/617,9164.677804295943,32.1807883823,34.9194192466,2002
2002-03-21,2002-03-21,"התע""ש 20, כפר סבא","התע""ש 20",7607-125-47,,,קרקע,32.11,345000,,,1999.0,,5.0,7551362560,1,7607125,False,,כפר סבא,"התע""ש",,7607-125-47,7607/125,10744.316412332606,32.1759745495,34.9277395245,2002
2002-03-21,2002-03-21,"התע""ש 20, כפר סבא","התע""ש 20",7607-125-85,,,קרקע,108.11,534000,,,1999.0,,5.0,7551360784,1,7607125,False,,כפר סבא,"התע""ש",,7607-125-85,7607/125,4939.413560262696,32.1759745495,34.9277395245,2002
2002-03-21,2002-03-21,"רעם 6, כפר סבא",רעם 6,6435-194-10,,4.0,רביעית,71.82,808000,,,1997.0,,5.0,7552089092,1,6435194,False,,כפר סבא,רעם,,6435-194-10,6435/194,11250.348092453356,32.1729495718,34.9203186243,2002
2002-03-21,2002-03-21,"התע""ש 20, כפר סבא","התע""ש 20",7607-125-89,,,קרקע + ראשונה,74.33,699000,,,1999.0,,5.0,7551363818,1,7607125,False,,כפר סבא,"התע""ש",,7607-125-89,7607/125,9404.009148392304,32.1759745495,34.9277395245,2002
2002-03-21,2002-03-21,"התע""ש 20, כפר סבא","התע""ש 20",7607-125-43,,,קרקע,20.07,449000,,,1999.0,,5.0,7551364410,1,7607125,False,,כפר סבא,"התע""ש",,7607-125-43,7607/125,22371.6990533134,32.1759745495,34.9277395245,2002
2002-03-21,2002-03-21,"התע""ש 20, כפר סבא","התע""ש 20",7607-125-96,,,קרקע + ראשונה,39.78,447000,,,1999.0,,5.0,7551365594,1,7607125,False,,כפר סבא,"התע""ש",,7607-125-96,7607/125,11236.802413273,32.1759745495,34.9277395245,2002
2002-03-21,2002-03-21,"התע""ש 20, כפר סבא","התע""ש 20",7607-125-40,,,קרקע,32.05,384000,,,1999.0,,5.0,7551368110,1,7607125,False,,כפר סבא,"התע""ש",,7607-125-40,7607/125,11981.279251170048,32.1759745495,34.9277395245,2002
2002-03-21,2002-03-21,"התע""ש 20, כפר סבא","התע""ש 20",7607-125-101,,,קרקע,48.49,436000,,,1999.0,,5.0,7551360192,1,7607125,False,,כפר סבא,"התע""ש",,7607-125-101,7607/125,8991.544648381108,32.1759745495,34.9277395245,2002
2002-03-20,2002-03-20,"הגליל 14, כפר סבא",הגליל 14,6435-126-17,משרד,5.0,רביעית+קרקע,116.88,1220000,,,2002.0,,5.0,7551501754,1,6435126,False,,כפר סבא,הגליל,,6435-126-17,6435/126,10438.056125941135,32.1747587326,34.9175208595,2002
2002-03-19,2002-03-19,"ויצמן 144, כפר סבא",ויצמן 144,6439-370-3,,,קרקע,36.09,462000,,,1989.0,,5.0,7551852810,1,6439370,False,,כפר סבא,ויצמן,,6439-370-3,6439/370,12801.33000831255,32.1742120774,34.9120590431,2002
2002-03-17,2002-03-17,"תל חי 83, כפר סבא",תל חי 83,6433-518-25,,2.0,שלישית,46.0,325000,,,1966.0,,4.0,7551590406,1,6433518,False,,כפר סבא,תל חי,,6433-518-25,6433/518,7065.217391304348,32.1801668714,34.9155013114,2002
2002-03-17,2002-03-17,"משה שרת 13, כפר סבא",משה שרת 13,6441-175-19,,2.0,שניה,44.91,454000,,,1950.0,,4.0,7551917634,1,6441175,False,,כפר סבא,שרת משה,,6441-175-19,6441/175,10109.10710309508,32.1736215321,34.9091889976,2002
2002-03-14,2002-03-14,"הגליל 14, כפר סבא",הגליל 14,6435-126-15,משרד,5.0,שלישית+קרקע,117.03,1189000,,,2002.0,,5.0,7551496870,1,6435126,False,,כפר סבא,הגליל,,6435-126-15,6435/126,10159.78808852431,32.1747587326,34.9175208595,2002
2002-03-14,2002-03-14,"עמרמי 7, כפר סבא",עמרמי 7,6441-86-4,,3.0,ב,80.18,608000,,,1960.0,,2.0,7550992634,1,644186,False,,כפר סבא,עמרמי,,6441-86-4,6441/86,7582.938388625592,32.1743290491,34.9091623265,2002
2002-03-13,2002-03-13,"השלום 6, כפר סבא",השלום 6,6433-395-48,,4.0,רביעית,95.93,870000,,,1985.0,,8.0,7550764270,1,6433395,False,,כפר סבא,השלום,,6433-395-48,6433/395,9069.112894819138,32.1804247782,34.9106809176,2002
2002-03-11,2002-11-03,"יחזקאל 7, כפר סבא",יחזקאל 7,7594-131-61,,4.0,רביעית,78.9,196000,,,1970.0,,7.0,7557399776,1,7594131,False,,כפר סבא,יחזקאל,,7594-131-61,7594/131,2484.157160963244,32.1839005743,34.9377145469,2002
2002-03-09,2002-09-03,"חניתה 15, כפר סבא",חניתה 15,6428-561-26,,3.0,קרקע,79.0,889000,,,1996.0,,6.0,7556990852,1,6428561,False,,כפר סבא,חניתה,,6428-561-26,6428/561,11253.164556962023,32.1800989553,34.9057820543,2002
2002-03-07,2002-07-03,"הכרמל 13, כפר סבא",הכרמל 13,6428-556-6,,4.0,שניה,101.0,1167000,,,1995.0,,8.0,7554717424,1,6428556,False,,כפר סבא,הכרמל,,6428-556-6,6428/556,11554.455445544554,32.1793999061,34.9051380213,2002
2002-03-07,2002-07-03,"הסובלנות 1, כפר סבא",הסובלנות 1,6435-279-25,,6.0,קרקע תחתונה + רביעית,184.5,1180000,,,2002.0,,5.0,7554735036,1,6435279,False,,כפר סבא,הסובלנות,,6435-279-25,6435/279,6395.663956639566,32.1701973196,34.9201811885,2002
2002-03-07,2002-07-03,"הראשונים 19, כפר סבא",הראשונים 19,6435-254-0,,4.0,,110.0,1063000,,,2001.0,,7.0,7556249002,1,6435254,False,,כפר סבא,הראשונים,,6435-254-0,6435/254,9663.636363636364,32.1698472408,34.9212972269,2002
2002-03-07,2002-07-03,"קפלנסקי 1, כפר סבא",קפלנסקי 1,7620-188-20,דירה בבית קומות,4.0,,100.0,874000,,,2001.0,,4.0,7555841780,1,7620188,False,,כפר סבא,קפלנסקי,,7620-188-20,7620/188,8740.0,32.1897313921,34.9040751416,2002
2002-03-06,2002-06-03,"רופין 40, כפר סבא",רופין 40,6435-258-13,דירה בבית קומות,5.0,קרקע עליונה,125.0,926000,,,2002.0,,4.0,7554237460,1,6435258,False,,כפר סבא,רופין,,6435-258-13,6435/258,7408.0,32.1690394609,34.9215389827,2002
2002-03-06,2002-06-03,"הגליל 45, כפר סבא",הגליל 45,6433-668-31,,4.0,שמינית,79.95,763000,,,1980.0,,9.0,7553736332,1,6433668,False,,כפר סבא,הגליל,,6433-668-31,6433/668,9543.464665415884,32.1785861703,34.9180027916,2002
2002-03-06,2002-06-03,"הראשונים 7, כפר סבא",הראשונים 7,6435-238-5,משרד,4.5,שניה,103.2,940000,,,1999.0,,4.0,7553677132,1,6435238,False,,כפר סבא,הראשונים,,6435-238-5,6435/238,9108.527131782945,32.1709627481,34.9217491952,2002
2002-03-06,2002-06-03,"רוטשילד 69, כפר סבא",רוטשילד 69,6440-124-4,,4.0,ב,71.36,739000,,,1960.0,,7.0,7553857766,1,6440124,False,,כפר סבא,רוטשילד,,6440-124-4,6440/124,10355.941704035877,32.1772026253,34.908788532,2002
2002-03-03,2002-03-03,"יבנה 16, כפר סבא",יבנה 16,6433-512-6,,2.5,שלישית,45.5,447000,,,1966.0,,4.0,7550868758,1,6433512,False,3% ב 1.1 שנים,כפר סבא,יבנה,2.73,6433-512-6,6433/512,9824.175824175823,32.1806498525,34.9147720675,2002
2002-03-02,2002-02-03,"התחייה 3, כפר סבא",התחייה 3,6441-155-8,,3.0,שניה,80.79,681000,,,1974.0,,3.0,7549545120,1,6441155,False,,כפר סבא,התחיה,,6441-155-8,6441/155,8429.261047159302,32.1756627064,34.904633066,2002
2002-03-01,2002-01-03,"אוסטשינסקי 20, כפר סבא",אוסטשינסקי 20,6426-234-25,,3.0,שניה,75.0,635000,,,1971.0,,1.0,7548633588,1,6426234,False,,כפר סבא,אוסטשינסקי,,6426-234-25,6426/234,8466.666666666666,,,2002
2002-03-01,2002-01-03,"העמק 18, כפר סבא",העמק 18,6437-166-17,,4.0,ראשונה,80.13,663000,,,1983.0,,5.0,7549239352,1,6437166,False,,כפר סבא,העמק,,6437-166-17,6437/166,8274.05466117559,32.1727519929,34.9155822771,2002
2002-03-01,2002-01-03,"בן-גוריון 21, כפר סבא",בן-גוריון 21,6441-365-2,,4.0,ראשונה,101.99,742000,,,1982.0,,4.0,7550823470,1,6441365,False,,כפר סבא,בן גוריון,,6441-365-2,6441/365,7275.223061084421,32.1730615416,34.9060765091,2002
2002-03-01,2002-01-03,"האשל 7, כפר סבא",האשל 7,6433-583-13,,5.0,חמישית + גג,133.59,1209000,,,1992.0,,5.0,7548484034,1,6433583,False,,כפר סבא,האשל,,6433-583-13,6433/583,9050.078598697508,32.1799445279,34.9180409394,2002
2002-02-28,2002-02-28,"בקעת בית נטופה 21, כפר סבא",בקעת בית נטופה 21,7606-109-1,,,מרתף+קרקע+ראשונה,193.9,1370000,,,2001.0,,,7551061010,1,7606109,False,,כפר סבא,בקעת בית נטופה,,7606-109-1,7606/109,7065.497679216091,32.1819452505,34.929056633,2002
2002-02-28,2002-02-28,"שלום עליכם 12, כפר סבא",שלום עליכם 12,7595-136-1,,,,590.0,1086000,,,2002.0,,,7551739294,1,7595136,False,,כפר סבא,שלום עליכם,,7595-136-1,7595/136,1840.677966101695,32.1889316964,34.9084542891,2002
2002-02-27,2002-02-27,"רופין 40, כפר סבא",רופין 40,6435-258-15,דירה בבית קומות,4.0,ראשונה,92.95,941000,,,2002.0,,4.0,7550485364,1,6435258,False,,כפר סבא,רופין,,6435-258-15,6435/258,10123.72243141474,32.1690394609,34.9215389827,2002
2002-02-27,2002-02-27,"טרומפלדור 3, כפר סבא",טרומפלדור 3,6426-963-1,,4.0,ראשונה,113.64,1216000,,,2002.0,,4.0,7550727640,1,6426963,False,,כפר סבא,טרומפלדור,,6426-963-1,6426/963,10700.457585357268,32.1726089349,34.9058918343,2002
2002-02-26,2002-02-26,"משה סנה 24, כפר סבא",משה סנה 24,6430-200-13,דירה בבית קומות,4.0,קרקע תחתונה+ראשונה,103.02,1035000,,,2000.0,,,7550615308,1,6430200,False,,כפר סבא,סנה משה,,6430-200-13,6430/200,10046.592894583577,32.1870529347,34.8974717382,2002
2002-02-26,2002-02-26,"הסובלנות 1, כפר סבא",הסובלנות 1,6435-279-23,,4.0,קרקע תחתונה + שלישית,97.5,833000,,,2002.0,,5.0,7550368000,1,6435279,False,,כפר סבא,הסובלנות,,6435-279-23,6435/279,8543.589743589744,32.1701973196,34.9201811885,2002
2002-02-26,2002-02-26,"אח""י אילת 6, כפר סבא","אח""י אילת 6",6435-83-23,,3.0,שניה,44.3,424000,,,1960.0,,4.0,7550604282,1,643583,False,,כפר סבא,"אח""י אילת",,6435-83-23,6435/83,9571.106094808129,32.1736181238,34.9219456934,2002
2002-02-24,2002-02-24,"קדושי בלזן 1, כפר סבא",קדושי בלזן 1,6434-617-8,,6.0,שלישית+רביעית+קרקע תחתונה,157.37,1370000,,,2002.0,,2.0,7550424240,1,6434617,False,,כפר סבא,קדושי בלזן,,6434-617-8,6434/617,8705.598271589248,32.1807883823,34.9194192466,2002
2002-02-24,2002-02-24,"שלמה המלך 2, כפר סבא",שלמה המלך 2,7602-142-17,,2.0,ב',36.3,285000,,,1960.0,,3.0,7550213710,1,7602142,False,,כפר סבא,שלמה המלך,,7602-142-17,7602/142,7851.239669421488,32.1816899735,34.9409634172,2002
2002-02-21,2002-02-21,"הכלנית 15, כפר סבא",הכלנית 15,6427-481-3,,4.0,ראשונה,98.45,835000,,,1982.0,,7.0,7550097678,1,6427481,False,,כפר סבא,הכלנית,,6427-481-3,6427/481,8481.462671406805,32.173665807,34.894493728,2002
2002-02-21,2002-02-21,"העבודה 3, כפר סבא",העבודה 3,6440-258-1,דירה בבית קומות,4.0,קרקע,93.0,1055000,,,1999.0,,4.0,7550300882,1,6440258,False,,כפר סבא,העבודה,,6440-258-1,6440/258,11344.086021505376,32.1788133346,34.907719307,2002
2002-02-19,2002-02-19,"קפלנסקי 1, כפר סבא",קפלנסקי 1,7620-188-23,דירה בבית קומות,4.0,שניה,100.0,748000,,,2001.0,,4.0,7550561732,1,7620188,False,,כפר סבא,קפלנסקי,,7620-188-23,7620/188,7480.0,32.1897313921,34.9040751416,2002
2002-02-17,2002-02-17,"טשרניחובסקי 45, כפר סבא",טשרניחובסקי 45,6429-168-11,,4.0,חמישית,100.0,778000,,,1974.0,,6.0,7550291188,1,6429168,False,,כפר סבא,טשרניחובסקי,,6429-168-11,6429/168,7780.0,32.1799294236,34.8958828615,2002
2002-02-17,2002-02-17,"הראשונים 14, כפר סבא",הראשונים 14,6435-276-6,,4.0,שניה,83.94,861000,,,2001.0,,6.0,7550258850,1,6435276,False,,כפר סבא,הראשונים,,6435-276-6,6435/276,10257.326661901358,32.1697729171,34.9206066593,2002
2002-02-16,2002-02-16,"העמק 50, כפר סבא",העמק 50,6436-142-8,,4.0,שניה,104.5,769000,,,1987.0,,5.0,7552230654,1,6436142,False,,כפר סבא,העמק,,6436-142-8,6436/142,7358.851674641149,32.1759507861,34.9164867962,2002
2002-02-14,2002-02-14,"קפלנסקי 1, כפר סבא",קפלנסקי 1,7620-188-24,דירה בבית קומות,4.0,שניה,100.0,748000,,,2001.0,,4.0,7550559216,1,7620188,False,,כפר סבא,קפלנסקי,,7620-188-24,7620/188,7480.0,32.1897313921,34.9040751416,2002
2002-02-14,2002-02-14,"ארבל 1, כפר סבא",ארבל 1,6440-179-10,מלאכה,,קרקע עליונה+ ביניים,52.81,231000,,,1995.0,,2.0,7555909638,1,6440179,False,,כפר סבא,ארבל,,6440-179-10,6440/179,4374.171558416966,32.1768479188,34.9064684392,2002
2002-02-14,2002-02-14,"הגולן 6, כפר סבא",הגולן 6,6426-723-9,,4.0,שלישית,89.6,1005000,,,1994.0,,7.0,7551044508,1,6426723,False,,כפר סבא,הגולן,,6426-723-9,6426/723,11216.51785714286,32.1752230513,34.9011611192,2002
2002-02-14,2002-02-14,"ארבל 1, כפר סבא",ארבל 1,6440-179-8,מלאכה,,קרקע עליונה,44.33,694000,,,1995.0,,2.0,7555909046,1,6440179,False,,כפר סבא,ארבל,,6440-179-8,6440/179,15655.31242950598,32.1768479188,34.9064684392,2002
2002-02-13,2002-02-13,"הראשונים 3, כפר סבא",הראשונים 3,6435-237-10,משרד,5.0,שלישית+ק. תחתונה,111.59,968000,,,1998.0,,5.0,7550139266,1,6435237,False,,כפר סבא,הראשונים,,6435-237-10,6435/237,8674.612420467784,32.1714752777,34.9218157923,2002
2002-02-13,2002-02-13,"הסובלנות 1, כפר סבא",הסובלנות 1,6435-279-5,,4.0,קרקע תחתונה+ראשונה,97.0,813000,,,2002.0,,5.0,7549907720,1,6435279,False,,כפר סבא,הסובלנות,,6435-279-5,6435/279,8381.443298969072,32.1701973196,34.9201811885,2002
2002-02-09,2002-09-02,"זבוטינסקי 2, כפר סבא",זבוטינסקי 2,6440-231-15,,5.0,שניה,108.0,1020000,,,1995.0,,7.0,7556760638,1,6440231,False,,כפר סבא,ז'בוטינסקי,,6440-231-15,6440/231,9444.444444444443,32.1789022398,34.906461394,2002
2002-02-07,2002-07-02,"הגליל 4, כפר סבא",הגליל 4,6435-127-7,,5.0,שלישית,103.6,1015000,,,1990.0,,5.0,7554493426,1,6435127,False,,כפר סבא,הגליל,,6435-127-7,6435/127,9797.297297297298,32.1741061765,34.9173320464,2002
2002-02-07,2002-07-02,"החי""ל 20, כפר סבא","החי""ל 20",6428-700-15,דירה בבית קומות,6.0,רביעית+חמישית,175.35,1642000,,,2003.0,,4.0,7554742362,1,6428700,False,,כפר סבא,"החי""ל",,6428-700-15,6428/700,9364.12888508697,32.1781110815,34.8992312089,2002
2002-02-06,2002-06-02,"מזור 2, כפר סבא",מזור 2,6429-250-4,,4.0,קרקע,98.0,1204000,,,1997.0,,4.0,7553856508,1,6429250,False,,כפר סבא,מזור,,6429-250-4,6429/250,12285.714285714286,32.1850347565,34.8951331186,2002
2002-02-06,2002-06-02,"קדושי בלזן 1, כפר סבא",קדושי בלזן 1,6434-617-11,,4.5,קרקע עליונה+קרקע תחתונה,98.31,1140000,,,2002.0,,2.0,7553675208,1,6434617,False,,כפר סבא,קדושי בלזן,,6434-617-11,6434/617,11595.971925541651,32.1807883823,34.9194192466,2002
2002-02-06,2002-06-02,"הבנים 20, כפר סבא",הבנים 20,6439-335-14,,4.0,קרקע + שניה,93.15,776000,,,1980.0,,4.0,7553769854,1,6439335,False,,כפר סבא,הבנים,,6439-335-14,6439/335,8330.64949006978,32.1739288855,34.9105880264,2002
2002-02-06,2002-06-02,"הרעות 15, כפר סבא",הרעות 15,6435-245-10,,4.0,קרקע תחתונה+קרקע,91.5,760000,,,2000.0,,1.0,7554938388,1,6435245,False,,כפר סבא,הרעות,,6435-245-10,6435/245,8306.010928961749,32.1696525465,34.9226662034,2002
2002-02-05,2002-05-02,"הגליל 14, כפר סבא",הגליל 14,6435-126-5,דירה בבית קומות,4.0,שלישית,93.64,1014000,,,2002.0,,5.0,7553001808,1,6435126,False,,כפר סבא,הגליל,,6435-126-5,6435/126,10828.705681332764,32.1747587326,34.9175208595,2002
2002-02-04,2002-04-02,"הרעות 6, כפר סבא",הרעות 6,6435-250-8,דירה בבית קומות,4.0,שלישית,97.5,935000,,,2002.0,,5.0,7551532982,1,6435250,False,,כפר סבא,הרעות,,6435-250-8,6435/250,9589.74358974359,32.1684603933,34.9229514508,2002
2002-02-01,2002-01-02,"הרצל 64, כפר סבא",הרצל 64,6438-252-22,,5.0,שישית,150.75,1347000,,,1987.0,,6.0,7548517112,1,6438252,False,,כפר סבא,הרצל,,6438-252-22,6438/252,8935.323383084577,32.1765612232,34.9121504198,2002
2002-02-01,2002-01-02,"זאב גולד 22, כפר סבא",זאב גולד 22,6433-523-13,,2.0,רביעית,50.5,532000,,,1960.0,,4.0,7548564620,1,6433523,False,,כפר סבא,גולד זאב,,6433-523-13,6433/523,10534.653465346537,32.1798041812,34.9152937373,2002
2002-02-01,2002-01-02,"הלפיד 1, כפר סבא",הלפיד 1,6435-252-14,,6.0,חמישית+גג,151.5,1210000,,,2000.0,,6.0,7548444296,1,6435252,False,,כפר סבא,הלפיד,,6435-252-14,6435/252,7986.798679867987,32.1705938341,34.9216450805,2002
2002-02-01,2002-01-02,"אוסטשינסקי 15, כפר סבא",אוסטשינסקי 15,6426-678-6,,4.0,שניה,96.5,767000,,,1983.0,,5.0,7548402264,1,6426678,False,,כפר סבא,אוסטשינסקי,,6426-678-6,6426/678,7948.186528497409,32.1721688261,34.9040717325,2002
2002-02-01,2002-01-02,"ירושלים 3, כפר סבא",ירושלים 3,6441-223-4,,4.0,א,73.7,794000,,,1969.0,,4.0,7548171532,1,6441223,False,,כפר סבא,ירושלים,,6441-223-4,6441/223,10773.405698778834,32.1735630872,34.9043715463,2002
2002-01-31,2002-01-31,"הרצל 19, כפר סבא",הרצל 19,6439-283-10,,4.0,רביעית,100.92,869000,,,1985.0,,7.0,7549509082,1,6439283,False,,כפר סבא,הרצל,,6439-283-10,6439/283,8610.780816488308,32.1714226761,34.9097645819,2002
2002-01-31,2002-01-31,"אביבים 14, כפר סבא",אביבים 14,6433-618-15,,4.0,רביעית,111.9,944000,,,1986.0,,6.0,7549404742,1,6433618,False,,כפר סבא,אביבים,,6433-618-15,6433/618,8436.103663985701,32.179542378,34.910302392,2002
2002-01-30,2002-01-30,"הכלנית 16, כפר סבא",הכלנית 16,6427-542-5,,5.0,שניה,106.32,1062000,,,1989.0,,6.0,7549440040,1,6427542,False,,כפר סבא,הכלנית,,6427-542-5,6427/542,9988.713318284425,32.1745087164,34.8941855963,2002
2002-01-30,2002-01-30,"אח""י דקר 2, כפר סבא","אח""י דקר 2",6435-71-2,,,קרקע,33.0,297000,,,1950.0,,5.0,7549595218,1,643571,False,,כפר סבא,"אח""י דקר",,6435-71-2,6435/71,9000.0,32.1726135518,34.9214811214,2002
2002-01-29,2002-01-29,"תל חי 99, כפר סבא",תל חי 99,6432-90-27,,5.0,ראשונה,117.52,1143000,,,1998.0,,5.0,7549393790,1,643290,False,,כפר סבא,תל חי,,6432-90-27,6432/90,9726.004084411165,32.1831044951,34.9163637537,2002
2002-01-27,2002-01-27,"קפלנסקי 1, כפר סבא",קפלנסקי 1,7620-188-26,דירה בבית קומות,3.0,,75.0,758000,,,2001.0,,4.0,7550420614,1,7620188,False,,כפר סבא,קפלנסקי,,7620-188-26,7620/188,10106.666666666666,32.1897313921,34.9040751416,2002
2002-01-27,2002-01-27,"בקעת בית נטופה 19, כפר סבא",בקעת בית נטופה 19,7606-110-2,,,מרתף+קרקע+ראשונה,193.9,1350000,,,2002.0,,,7550635510,1,7606110,False,,כפר סבא,בקעת בית נטופה,,7606-110-2,7606/110,6962.351727694688,32.1817620263,34.9290817847,2002
2002-01-27,2002-01-27,"ארלוזורוב 36, כפר סבא",ארלוזורוב 36,6426-822-13,,6.0,רביעית+חמישית,163.56,1030000,,,1991.0,,4.0,7549318014,1,6426822,False,,כפר סבא,ארלוזורוב,,6426-822-13,6426/822,6297.383223281976,32.1704973769,34.9049927497,2002
2002-01-25,2002-01-25,"חניתה 15, כפר סבא",חניתה 15,6428-561-0,,4.0,שניה,101.0,1225000,,,1996.0,,6.0,7549330890,1,6428561,False,,כפר סבא,חניתה,,6428-561-0,6428/561,12128.712871287127,32.1800989553,34.9057820543,2002
2002-01-25,2002-01-25,"הכרמל 30, כפר סבא",הכרמל 30,6440-210-12,,4.0,שלישית,103.0,997000,,,1992.0,,4.0,7549857030,1,6440210,False,,כפר סבא,הכרמל,,6440-210-12,6440/210,9679.611650485436,32.1780557169,34.9081830558,2002
2002-01-24,2002-01-24,"גיבורי ישראל 7, כפר סבא",גיבורי ישראל 7,6438-337-9,,6.0,חמישית,193.6,1495000,,,1996.0,,7.0,7549045102,1,6438337,False,,כפר סבא,גבורי ישראל,,6438-337-9,6438/337,7722.107438016529,32.1764661042,34.9098043703,2002
2002-01-24,2002-01-24,"טרומפלדור 10, כפר סבא",טרומפלדור 10,6426-251-43,,3.5,,74.0,644000,,,2021.0,,7.0,7553681350,1,6426251,False,,כפר סבא,טרומפלדור,,6426-251-43,6426/251,8702.702702702703,,,2002
2002-01-24,2002-01-24,"קפלנסקי 31, כפר סבא",קפלנסקי 31,7621-163-2,,2.0,,31.32,823000,,,1952.0,,,7549041994,1,7621163,False,,כפר סבא,קפלנסקי,,7621-163-2,7621/163,26277.13920817369,32.1918721353,34.8985945827,2002
2002-01-22,2002-01-22,"התחייה 4, כפר סבא",התחייה 4,6441-257-13,,4.0,חמישית,76.2,802000,,,1970.0,,5.0,7549072038,1,6441257,False,,כפר סבא,התחיה,,6441-257-13,6441/257,10524.9343832021,32.1758166291,34.9041241304,2002
2002-01-21,2002-01-21,"נחשון 10, כפר סבא",נחשון 10,6441-280-3,,,קרקע עליונה,43.26,1307000,,,1986.0,,7.0,7550469380,1,6441280,False,,כפר סבא,נחשון,,6441-280-3,6441/280,30212.66759130837,32.174502937,34.905920554,2002
2002-01-21,2002-01-21,"קפלנסקי 1, כפר סבא",קפלנסקי 1,7620-188-27,דירה בבית קומות,3.0,שלישית,75.0,662000,,,2001.0,,4.0,7549630590,1,7620188,False,,כפר סבא,קפלנסקי,,7620-188-27,7620/188,8826.666666666666,32.1897313921,34.9040751416,2002
2002-01-20,2002-01-20,"הידידות 2, כפר סבא",הידידות 2,6435-274-4,דירה בבית קומות,4.0,ק. תחתונה+ראשונה,99.0,880000,,,2002.0,,4.0,7548944980,1,6435274,False,,כפר סבא,הידידות,,6435-274-4,6435/274,8888.888888888889,32.1703519267,34.9194842794,2002
2002-01-20,2002-01-20,"הרצל 8, כפר סבא",הרצל 8,6439-470-18,,6.0,קרקע תחתונה+רביעית,160.5,1557000,,,2002.0,,5.0,7548770340,1,6439470,False,,כפר סבא,הרצל,,6439-470-18,6439/470,9700.934579439252,32.1706812121,34.9102833474,2002
2002-01-20,2002-01-20,"ארלוזורוב 15, כפר סבא",ארלוזורוב 15,6426-66-9,,4.0,שלישית,101.47,677000,,,1970.0,,3.0,7549815072,1,642666,False,,כפר סבא,ארלוזורוב,,6426-66-9,6426/66,6671.922735783975,32.1713871481,34.9030424198,2002
2002-01-17,2002-01-17,"האשל 7, כפר סבא",האשל 7,6433-583-20,,4.0,שניה,106.5,825000,,,1992.0,,5.0,7549256446,1,6433583,False,,כפר סבא,האשל,,6433-583-20,6433/583,7746.478873239436,32.1799445279,34.9180409394,2002
2002-01-17,2002-01-17,"הגר""א 15, כפר סבא","הגר""א 15",6426-628-1,,4.0,ראשונה,65.22,680000,,,1970.0,,6.0,7549391274,1,6426628,False,,כפר סבא,"הגר""א",,6426-628-1,6426/628,10426.249616682,32.1713181693,34.9065214426,2002
2002-01-16,2002-01-16,"אהרונוביץ 8, כפר סבא",אהרונוביץ 8,6426-71-5,,4.0,שלישית,89.13,872000,,,1975.0,,5.0,7548924926,1,642671,False,,כפר סבא,אהרונוביץ,,6426-71-5,6426/71,9783.462358352968,32.1719100954,34.9021863286,2002
2002-01-16,2002-01-16,"השלום 6, כפר סבא",השלום 6,6433-395-19,,4.0,חמישית,92.92,789000,,,1985.0,,8.0,7549719094,1,6433395,False,,כפר סבא,השלום,,6433-395-19,6433/395,8491.17520447697,32.1804247782,34.9106809176,2002
2002-01-16,2002-01-16,"הגליל 13, כפר סבא",הגליל 13,6436-208-4,קוטג' טורי,7.0,קרקע+שניה+שלישית,192.8,1360000,,,2002.0,,5.0,7549174528,1,6436208,False,,כפר סבא,הגליל,,6436-208-4,6436/208,7053.941908713692,32.174903104,34.9169973402,2002
2002-01-15,2002-01-15,"שועלי שמשון 7, כפר סבא",שועלי שמשון 7,6435-213-18,,4.0,ראשונה,107.95,901000,,,1995.0,,5.0,7549469492,1,6435213,False,,כפר סבא,שועלי שמשון,,6435-213-18,6435/213,8346.456692913385,32.170806387,34.9205702719,2002
2002-01-14,2002-01-14,"מענית 6, כפר סבא",מענית 6,6429-229-7,,4.0,שניה,79.84,874000,,,1989.0,,6.0,7549181262,1,6429229,False,,כפר סבא,מענית,,6429-229-7,6429/229,10946.893787575147,32.1834546362,34.8970354056,2002
2002-01-13,2002-01-13,"הרצל 79, כפר סבא",הרצל 79,6438-276-34,,4.0,ראשונה,110.0,859000,,,1983.0,,8.0,7549293520,1,6438276,False,,כפר סבא,הרצל,,6438-276-34,6438/276,7809.090909090909,32.1771306157,34.9114242017,2002
2002-01-13,2002-01-13,"יציאת אירופה 32, כפר סבא",יציאת אירופה 32,6435-210-25,,4.0,שביעית,93.0,960000,,,1999.0,,7.0,7548807118,1,6435210,False,,כפר סבא,יציאת אירופה,,6435-210-25,6435/210,10322.58064516129,32.1713141656,34.9205295058,2002
2002-01-12,2002-12-01,"לוי אשכול 41, כפר סבא",לוי אשכול 41,7602-136-1,,3.0,א',46.9,211000,,,1965.0,,2.0,7559423084,1,7602136,False,,כפר סבא,אשכול לוי,,7602-136-1,7602/136,4498.9339019189765,32.1828262428,34.9397331353,2002
2002-01-10,2002-10-01,"המייסדים 28, כפר סבא",המייסדים 28,6440-255-5,,4.0,שלישית,104.0,1025000,,,2002.0,,6.0,7557147806,1,6440255,False,,כפר סבא,המיסדים,,6440-255-5,6440/255,9855.76923076923,32.1765444388,34.9084407844,2002
2002-01-10,2002-10-01,"לוי אשכול 43, כפר סבא",לוי אשכול 43,7602-137-6,,3.0,ב',46.9,445000,,,1960.0,,2.0,7557693556,1,7602137,False,,כפר סבא,אשכול לוי,,7602-137-6,7602/137,9488.272921108744,32.1826621617,34.9399021957,2002
2002-01-07,2002-07-01,"אח""י אילת 6, כפר סבא","אח""י אילת 6",6435-83-4,,3.0,ראשונה,43.7,425000,,,1960.0,,4.0,7554770482,1,643583,False,,כפר סבא,"אח""י אילת",,6435-83-4,6435/83,9725.400457665904,32.1736181238,34.9219456934,2002
2002-01-07,2002-07-01,"הכלנית 9, כפר סבא",הכלנית 9,6427-429-5,,2.0,ב,47.87,604000,,,1964.0,,3.0,7555056122,1,6427429,False,,כפר סבא,הכלנית,,6427-429-5,6427/429,12617.505744725298,32.1748223569,34.8948526789,2002
2002-01-07,2002-07-01,"איתמר בן-אב""י 4, כפר סבא","איתמר בן-אב""י 4",6431-325-2,,6.0,,210.0,1581000,,,1990.0,,1.0,7556059858,1,6431325,False,,כפר סבא,"בן אב""י איתמר",,6431-325-2,6431/325,7528.571428571428,32.1856568607,34.9051344845,2002
2002-01-05,2002-05-01,"תל חי 13, כפר סבא",תל חי 13,6439-224-22,,4.0,שמינית,107.15,1060000,,,1970.0,,8.0,7552593920,1,6439224,False,1% ב 3.1 שנים,כפר סבא,תל חי,0.32,6439-224-22,6439/224,9892.673821745217,32.1719466843,34.9130045311,2002
2002-01-05,2002-05-01,"שמריהו לוין 4, כפר סבא",שמריהו לוין 4,6430-75-2,,2.5,,52.0,1162000,,,1949.0,,,7552651492,1,643075,False,,כפר סבא,שמריהו לוין,,6430-75-2,6430/75,22346.153846153848,32.1849555247,34.8997443502,2002
2002-01-05,2002-05-01,"האהבה 26, כפר סבא",האהבה 26,6435-239-3,דירה בבית קומות,4.0,קרקע תחתונה+קרקע,83.2,1039000,,,2000.0,,4.0,7552445032,1,6435239,False,,כפר סבא,האהבה,,6435-239-3,6435/239,12487.98076923077,32.1707796463,34.9224078423,2002
2002-01-04,2002-04-01,"התע""ש 20, כפר סבא","התע""ש 20",7607-125-158,,,שניה,48.06,1213000,,,1999.0,,5.0,7552785728,1,7607125,False,,כפר סבא,"התע""ש",,7607-125-158,7607/125,25239.284228048276,32.1759745495,34.9277395245,2002
2002-01-04,2002-04-01,"התחייה 20, כפר סבא",התחייה 20,6441-10-24,,3.0,ג',72.84,732000,,,1973.0,,7.0,7551749062,1,644110,False,18% ב 3.6 שנים,כפר סבא,התחיה,5.0,6441-10-24,6441/10,10049.423393739704,32.1740037327,34.9033734246,2002
2002-01-04,2002-04-01,"הרצל 43, כפר סבא",הרצל 43,6439-451-1,,5.0,ראשונה+קרקע,107.53,1190000,,,1999.0,,4.0,7552495722,1,6439451,False,,כפר סבא,הרצל,,6439-451-1,6439/451,11066.679066307075,32.1733293821,34.9104681471,2002
2002-01-04,2002-04-01,"ויצמן 101, כפר סבא",ויצמן 101,6440-89-9,,4.0,שניה,92.0,764000,,,1975.0,,6.0,7551754686,1,644089,False,,כפר סבא,ויצמן,,6440-89-9,6440/89,8304.347826086956,32.1758400948,34.9077024782,2002
2002-01-01,2002-01-01,"רוטשילד 78, כפר סבא",רוטשילד 78,6438-241-4,,,קרקע,45.6,397000,,,1970.0,,5.0,7548504236,1,6438241,False,,כפר סבא,רוטשילד,,6438-241-4,6438/241,8706.140350877193,32.1772188461,34.9095280123,2002
2002-01-01,2002-01-01,"כינרת 20, כפר סבא",כינרת 20,6440-152-12,,4.0,שלישית,75.5,126000,,,1978.0,,6.0,7549669070,1,6440152,False,,כפר סבא,כנרת,,6440-152-12,6440/152,1668.8741721854306,32.1775532571,34.9083607521,2002
