DEALDATE,DEALDATETIME,FULLADRESS,DISPLAYADRESS,GUSH,DEALNATUREDESCRIPTION,ASSETROOMNUM,FLOORNO,DEALNATURE,DEALAMOUNT,NEWPROJECTTEXT,PROJECTNAME,BUILDINGYEAR,YEARBUILT,BUILDINGFLOORS,KEYVALUE,TYPE,POLYGON_ID,TREND_IS_NEGATIVE,TREND_FORMAT,city_name,street,presentage per year,GUSH - Copy,Gush_Helka,Price per sqm,lat,lon,Year
2021-12-31,2021-12-31,"משמר הגבול 31, חדרה",משמר הגבול 31,10403-111-4,דירה בבית קומות,5.0,ראשונה,107.98,,,,2015.0,,6.0,7930164970,1,10403111,False,34% ב 6.8 שנים,חדרה,משמר הגבול,5.0,10403-111-4,10403/111,,32.4272459685,34.9378941139,2021
2021-12-30,2021-12-30,"מורדי הגטאות 41, חדרה",מורדי הגטאות 41,7731-344-3,קרקע למגורים,,קרקע,62.2,,,,1960.0,,,7931232075,1,7731344,False,,חדרה,מורדי הגטאות,,7731-344-3,7731/344,,32.4235033992,34.9498082625,2021
2021-12-30,2021-12-30,"משמר הגבול 15, חדרה",משמר הגבול 15,10403-222-106,דירה בבית קומות,4.0,קומה ‎5‏,109.4,,,,2014.0,,9.0,7931249235,1,10403222,False,,חדרה,משמר הגבול,,10403-222-106,10403/222,,32.4285909731,34.9316318787,2021
2021-12-30,2021-12-30,"השושנים 25, חדרה",השושנים 25,7730-77-1,קוטג' חד משפחתי,2.0,ראשונה,28.82,,,,1960.0,,1.0,7930848120,1,773077,False,,חדרה,השושנים,,7730-77-1,7730/77,,32.4191421704,34.9539233803,2021
2021-12-30,2021-12-30,"אידלווין 3, חדרה",אידלווין 3,10063-9-6,דירה בבית קומות,4.0,שניה,103.0,,,,1991.0,,2.0,7930536445,1,100639,False,,חדרה,אידלווין,,10063-9-6,10063/9,,32.4209850561,34.9458430348,2021
2021-12-30,2021-12-30,"יחיעם 2, חדרה",יחיעם 2,10049-333-12,דירה בבית קומות,2.0,רביעית,41.2,,,,1960.0,,4.0,7931412840,1,10049333,False,,חדרה,יחיעם,,10049-333-12,10049/333,,32.4403685422,34.9039999021,2021
2021-12-30,2021-12-30,"משה דיין 8, חדרה",משה דיין 8,10049-347-35,דירה בבית קומות,4.0,תשיעית,82.8,,,,1990.0,,9.0,7930117715,1,10049347,False,19% ב 2.3 שנים,חדרה,דיין משה,8.26,10049-347-35,10049/347,,32.4429057574,34.9089716123,2021
2021-12-30,2021-12-30,"מלחמת ששת הימים 16, חדרה",מלחמת ששת הימים 16,10036-19-9,דירה בבית קומות,2.0,ראשונה,55.51,,,,1960.0,,3.0,7883421130,1,1003619,False,21% ב 2.5 שנים,חדרה,מלחמת ששת הימים,8.4,10036-19-9,10036/19,,32.4385189912,34.9161474286,2021
2021-12-30,2021-12-30,"טרומפלדור 10, חדרה",טרומפלדור 10,10032-107-2,קוטג' חד משפחתי,5.0,"מרתף, קרקע, ראשונה",166.0,,,,1950.0,,,7930059280,1,10032107,False,,חדרה,טרומפלדור,,10032-107-2,10032/107,,32.436720356,34.9274836455,2021
2021-12-30,2021-12-30,"הצוקים 12, חדרה",הצוקים 12,12795-27-106,דירה בבית קומות,5.0,אחת עשרה,142.0,,,,2016.0,,18.0,7931305460,1,1279527,False,,חדרה,הצוקים,,12795-27-106,12795/27,,32.4296406258,34.8839853153,2021
2021-12-29,2021-12-29,"נחל רמון 6, חדרה",נחל רמון 6,10403-96-63,דירה בבית קומות,4.0,חמישית,80.0,,,,2016.0,,8.0,7883334745,1,1040396,False,,חדרה,נחל רמון,,10403-96-63,10403/96,,32.4292285686,34.9379913791,2021
2021-12-29,2021-12-29,"קיבוץ גלויות 34, חדרה",קיבוץ גלויות 34,7727-119-4,קרקע למגורים,,קומה ‎0‏,141.05,,,,0.0,,2.0,7930685685,1,7727119,False,257% ב 5.5 שנים,חדרה,קבוץ גלויות,46.73,7727-119-4,7727/119,,32.4216028987,34.9541443948,2021
2021-12-29,2021-12-29,"משה דיין 2, חדרה",משה דיין 2,10049-346-1,דירה בבית קומות,3.0,ראשונה,61.9,,,,1990.0,,9.0,7930938210,1,10049346,False,36% ב 6.7 שנים,חדרה,דיין משה,5.37,10049-346-1,10049/346,,32.4422040867,34.90876378,2021
2021-12-29,2021-12-29,"הגיבורים 129, חדרה",הגיבורים 129,10034-13-3,קוטג' דו משפחתי,5.0,ראשונה,213.0,,,,2018.0,,1.0,7930251810,1,1003413,False,,חדרה,הגבורים,,10034-13-3,10034/13,,32.4437628076,34.9245432585,2021
2021-12-29,2021-12-29,"הגיבורים 94, חדרה",הגיבורים 94,10034-200-1,קומבינציה,4.0,ראשונה,120.0,,,,1950.0,,1.0,7932043470,1,10034200,False,,חדרה,הגבורים,,10034-200-1,10034/200,,32.4394184602,34.9247709719,2021
2021-12-29,2021-12-29,"הגיבורים 57, חדרה",הגיבורים 57,10037-321-4,דירה בבית קומות,3.0,קרקע,74.48,,,,1960.0,,2.0,7930527865,1,10037321,False,,חדרה,הגבורים,,10037-321-4,10037/321,,32.4365497532,34.9222360351,2021
2021-12-29,2021-12-29,"הדגן 12, חדרה",הדגן 12,10063-69-14,דירה בבית קומות,4.0,קרקע,78.2,,,,1990.0,,2.0,7930229840,1,1006369,False,47% ב 8.6 שנים,חדרה,הדגן,5.47,10063-69-14,10063/69,,32.4198974023,34.9491017329,2021
2021-12-29,2021-12-29,"הרצל 49, חדרה",הרצל 49,10036-34-10,דירה בבית קומות,2.0,שניה,48.0,,,,1960.0,,3.0,7883361655,1,1003634,False,19% ב 4.6 שנים,חדרה,הרצל,4.13,10036-34-10,10036/34,,32.4387286218,34.9190903787,2021
2021-12-29,2021-12-29,"רוטשילד 37, חדרה",רוטשילד 37,10035-128-8,דירה בבית קומות,4.0,שניה,97.0,,,,1960.0,,4.0,7883368090,1,10035128,False,,חדרה,רוטשילד,,10035-128-8,10035/128,,32.4410223624,34.921911818,2021
2021-12-29,2021-12-29,"הרימונים 19, חדרה",הרימונים 19,7726-232-2,קוטג' חד משפחתי,7.0,קרקע וראשונה,220.1,,,,1970.0,,,7930421785,1,7726232,False,,חדרה,הרימונים,,7726-232-2,7726/232,,32.4308432787,34.9495322526,2021
2021-12-28,2021-12-28,"אסירי ציון 3, חדרה",אסירי ציון 3,10041-416-13,דירה בבית קומות,4.0,רביעית,79.96,,,,1995.0,,4.0,7930066235,1,10041416,False,25% ב 4.6 שנים,חדרה,אסירי ציון,5.43,10041-416-13,10041/416,,32.431623551,34.9163033575,2021
2021-12-28,2021-12-28,"גורדון 10, חדרה",גורדון 10,10037-68-39,דירה בבית קומות,5.0,שלישית,112.73,,,,1980.0,,7.0,7930954265,1,1003768,False,,חדרה,גורדון,,10037-68-39,10037/68,,32.4347866298,34.9216711984,2021
2021-12-28,2021-12-28,"הצוקים 12, חדרה",הצוקים 12,12795-27-109,דירה בבית קומות,4.0,שלישית,105.0,,,,2016.0,,18.0,7930282815,1,1279527,False,,חדרה,הצוקים,,12795-27-109,12795/27,,32.4296406258,34.8839853153,2021
2021-12-28,2021-12-28,"וילנסקי 1, חדרה",וילנסקי 1,10060-28-12,דירה בבית קומות,3.0,שניה,63.95,,,,1992.0,,2.0,7930134810,1,1006028,False,,חדרה,וילנסקי,,10060-28-12,10060/28,,32.4141809067,34.9532857689,2021
2021-12-28,2021-12-28,"הרב עובדיה יוסף 9, חדרה",הרב עובדיה יוסף 9,10049-376-65,דירה בבית קומות,5.0,שישית,214.25,,,,1990.0,,6.0,7930576745,1,10049376,False,,חדרה,החרות,,10049-376-65,10049/376,,32.4415075954,34.914402224,2021
2021-12-28,2021-12-28,"צה""ל 25, חדרה","צה""ל 25",10032-206-1,קוטג' דו משפחתי,7.0,ראשונה,270.0,,,,1960.0,,,7932608580,1,10032206,False,,חדרה,"צה""ל",,10032-206-1,10032/206,,32.4392152315,34.9290710068,2021
2021-12-27,2021-12-27,"שקצר 2, חדרה",שקצר 2,10061-117-10,דירה בבית קומות,3.0,שנייה,68.79,,,,1995.0,,3.0,7883224310,1,10061117,True,-5% ב 2.4 שנים,חדרה,שקצר,-2.08,10061-117-10,10061/117,,32.4157585783,34.9498051312,2021
2021-12-27,2021-12-27,"השקמה 11, חדרה",השקמה 11,7730-151-2,דירה בבית קומות,4.0,ראשונה,100.0,,,,1960.0,,1.0,7930078585,1,7730151,False,,חדרה,השקמה,,7730-151-2,7730/151,,32.416298379,34.9544434831,2021
2021-12-27,2021-12-27,"חטיבת הנח""ל 12, חדרה","חטיבת הנח""ל 12",10403-218-11,דירה בבית קומות,4.0,קומה ‎2‏,100.6,,,,2015.0,,9.0,7930146185,1,10403218,False,37% ב 8 שנים,חדרה,"חטיבת הנח""ל",4.62,10403-218-11,10403/218,,32.4310061091,34.9328566131,2021
2021-12-26,2021-12-26,"מיכאל חזני 10, חדרה",מיכאל חזני 10,10041-362-14,דירה בבית קומות,3.0,שלישית,58.5,,,,1970.0,,3.0,7883188430,1,10041362,False,,חדרה,חזני מיכאל,,10041-362-14,10041/362,,32.4297580394,34.9171497507,2021
2021-12-26,2021-12-26,"ניצנים 1, חדרה",ניצנים 1,10031-17-181,דירה בבית קומות,4.0,רביעית,116.0,,,,2018.0,,12.0,7883230225,1,1003117,False,,חדרה,ניצנים,,10031-17-181,10031/17,,32.4327245907,34.9437183605,2021
2021-12-26,2021-12-26,"אלי כהן 39, חדרה",אלי כהן 39,10572-309-10,דירה בבית קומות,3.0,שניה,48.0,,,,1960.0,,3.0,7930052845,1,10572309,False,,חדרה,אלי כהן,,10572-309-10,10572/309,,32.433731405,34.8832970001,2021
2021-12-26,2021-12-26,"ליובין 1, חדרה",ליובין 1,10036-172-5,דירה בבית קומות,4.0,ראשונה,77.4,,,,1970.0,,3.0,7883180435,1,10036172,False,189% ב 14.9 שנים,חדרה,ליובין,12.68,10036-172-5,10036/172,,32.4334280876,34.9192605672,2021
2021-12-23,2021-12-23,"הצוקים 12, חדרה",הצוקים 12,12795-27-70,דירה בבית קומות,5.0,עשירית,177.0,,,,2016.0,,18.0,7930945165,1,1279527,False,,חדרה,הצוקים,,12795-27-70,12795/27,,32.4296406258,34.8839853153,2021
2021-12-23,2021-12-23,"בוארון ברוך 6, חדרה",בוארון ברוך 6,10570-496-15,דירה בבית קומות,3.0,רביעית,74.5,,,,1997.0,,7.0,7930385905,1,10570496,False,,חדרה,בוארון ברוך,,10570-496-15,10570/496,,32.4388794137,34.8814077221,2021
2021-12-23,2021-12-23,"הנשיא ויצמן 34, חדרה",הנשיא ויצמן 34,10036-433-46,דירה בבית קומות,3.0,שניה,52.55,,,,1960.0,,4.0,7883124080,1,10036433,False,31% ב 5.7 שנים,חדרה,הנשיא ויצמן,5.44,10036-433-46,10036/433,,32.4394924716,34.9194222525,2021
2021-12-23,2021-12-23,"כ""ט בנובמבר 60, חדרה","כ""ט בנובמבר 60",7726-270-2,ללא תיכנון,,קרקע,100.85,,,,1960.0,,,7930171405,1,7726270,False,,חדרה,"כ""ט בנובמבר",,7726-270-2,7726/270,,32.427833855,34.9539443502,2021
2021-12-23,2021-12-23,"מבצע עובדה 27, חדרה",מבצע עובדה 27,10009-179-5,דירה בבית קומות,6.0,ראשונה,151.0,,,,2008.0,,1.0,7930702260,1,10009179,False,,חדרה,מבצע עובדה,,10009-179-5,10009/179,,32.4452206064,34.89819176,2021
2021-12-22,2021-12-22,"אידלווין 7, חדרה",אידלווין 7,10063-6-18,דירה בבית קומות,4.0,שניה,82.48,,,,1993.0,,2.0,7930324805,1,100636,False,,חדרה,אידלווין,,10063-6-18,10063/6,,32.4212238221,34.9454255113,2021
2021-12-22,2021-12-22,"ביאליק 67, חדרה",ביאליק 67,10037-498-18,דירה בבית קומות,3.0,שלישית,59.0,,,,1960.0,,3.0,7930856050,1,10037498,False,30% ב 3.3 שנים,חדרה,ביאליק,9.09,10037-498-18,10037/498,,32.4314902993,34.9219575225,2021
2021-12-22,2021-12-22,"החלוץ 6, חדרה",החלוץ 6,10572-324-25,דירה בבית קומות,4.0,שלישית,80.0,,,,1970.0,,3.0,7883200130,1,10572324,False,19% ב 3.5 שנים,חדרה,החלוץ,5.43,10572-324-25,10572/324,,32.4347198517,34.8877682876,2021
2021-12-22,2021-12-22,"שפאק 5, חדרה",שפאק 5,10062-4-45,דירת גן,3.0,שניה,63.9,,,,1992.0,,3.0,7883284955,1,100624,False,33% ב 6 שנים,חדרה,שפאק,5.5,10062-4-45,10062/4,,32.4181720412,34.9454235974,2021
2021-12-22,2021-12-22,"הדביר 9, חדרה",הדביר 9,7726-123-1,קוטג' דו משפחתי,5.0,מרתף קרקע,169.0,,,,2000.0,,,7930120900,1,7726123,False,39% ב 11.3 שנים,חדרה,הדביר,3.45,7726-123-1,7726/123,,32.4269864931,34.9554652232,2021
2021-12-21,2021-12-21,"השקמה 66, חדרה",השקמה 66,10058-50-1,דירה בבית קומות,6.0,קרקע+ראשונה,112.0,,,,1990.0,,,7930142935,1,1005850,False,85% ב 9 שנים,חדרה,השקמה,9.44,10058-50-1,10058/50,,32.4203528852,34.9570531923,2021
2021-12-21,2021-12-21,"תרנ""א 14, חדרה","תרנ""א 14",10037-512-7,דירה בבית קומות,4.0,שניה,89.5,,,,1989.0,,6.0,7882923555,1,10037512,False,50% ב 6.9 שנים,חדרה,"תרנ""א",7.25,10037-512-7,10037/512,,32.4328683744,34.9246160094,2021
2021-12-21,2021-12-21,"אידלווין 3, חדרה",אידלווין 3,10063-9-7,דירה בבית קומות,3.0,שניה,78.0,,,,1991.0,,2.0,7930281840,1,100639,False,,חדרה,אידלווין,,10063-9-7,10063/9,,32.4209850561,34.9458430348,2021
2021-12-21,2021-12-21,"נהלל 4, חדרה",נהלל 4,10032-420-150,דירה בבית קומות,5.0,שמינית,119.44,,,,2000.0,,8.0,7883066165,1,10032420,False,57% ב 7.2 שנים,חדרה,נהלל,7.92,10032-420-150,10032/420,,32.4323893866,34.9336688829,2021
2021-12-21,2021-12-21,"גלעד 6, חדרה",גלעד 6,10402-247-88,דירה בבית קומות,4.0,קומה ‎4‏,90.84,,,,2015.0,,9.0,7930873860,1,10402247,False,,חדרה,גלעד,,10402-247-88,10402/247,,32.4287803209,34.9276664306,2021
2021-12-21,2021-12-21,"עמק יזרעאל 30, חדרה",עמק יזרעאל 30,10013-191-5,קוטג' דו משפחתי,5.0,ראשונה,177.0,,,,1995.0,,1.0,7930056030,1,10013191,False,,חדרה,עמק יזרעאל,,10013-191-5,10013/191,,32.4538069941,34.9068656349,2021
2021-12-21,2021-12-21,"נתיבות 1, חדרה",נתיבות 1,10031-68-43,דירה בבית קומות,4.0,קומה ‎1‏,90.77,,,,2015.0,,12.0,7883171270,1,1003168,False,25% ב 3.5 שנים,חדרה,נתיבות,7.14,10031-68-43,10031/68,,32.4329704566,34.9423691364,2021
2021-12-21,2021-12-21,"הרב קוק 14, חדרה",הרב קוק 14,10035-416-12,דירה בבית קומות,3.0,שלישית,86.75,,,,1960.0,,3.0,7882927780,1,10035416,False,5% ב 5 שנים,חדרה,הרב קוק,1.0,10035-416-12,10035/416,,32.4418469201,34.9194215607,2021
2021-12-21,2021-12-21,"נורדאו 20, חדרה",נורדאו 20,10041-69-2,קוטג' חד משפחתי,4.0,ראשונה,108.0,,,,1960.0,,1.0,7931118325,1,1004169,False,,חדרה,נורדאו,,10041-69-2,10041/69,,32.4302585752,34.9200401643,2021
2021-12-21,2021-12-21,"ההגנה 12, חדרה",ההגנה 12,7731-72-2,קוטג' חד משפחתי,4.0,ראשונה,100.0,,,,1960.0,,1.0,7882984655,1,773172,False,,חדרה,ההגנה,,7731-72-2,7731/72,,32.4299388535,34.9422616263,2021
2021-12-21,2021-12-21,"ניצנים 1, חדרה",ניצנים 1,10031-17-180,דירה בבית קומות,4.0,רביעית,110.0,,,,2018.0,,12.0,7883171790,1,1003117,False,,חדרה,ניצנים,,10031-17-180,10031/17,,32.4327245907,34.9437183605,2021
2021-12-21,2021-12-21,"חטיבת הנח""ל 28, חדרה","חטיבת הנח""ל 28",10403-232-5,דירה בבית קומות,4.0,רביעית,120.0,,,,1995.0,,4.0,7882926740,1,10403232,False,,חדרה,"חטיבת הנח""ל",,10403-232-5,10403/232,,32.4305251404,34.9374937404,2021
2021-12-21,2021-12-21,"הרצל 51, חדרה",הרצל 51,10036-33-7,דירה בבית קומות,3.0,קרקע,69.0,,,,1960.0,,3.0,7883110690,1,1003633,False,,חדרה,הרצל,,10036-33-7,10036/33,,32.4389016963,34.919145599,2021
2021-12-20,2021-12-20,"חטיבת גולני 12, חדרה",חטיבת גולני 12,10038-37-19,דירה בבית קומות,3.0,חמישית,82.3,,,,1995.0,,9.0,7883040425,1,1003837,False,,חדרה,חטיבת גולני,,10038-37-19,10038/37,,32.4334301518,34.9294537709,2021
2021-12-20,2021-12-20,"האשור 1, חדרה",האשור 1,10032-440-22,דירה בבית קומות,4.0,שניה,120.0,,,,2021.0,,5.0,7930533780,1,10032440,False,,חדרה,האשור,,10032-440-22,10032/440,,32.4377419394,34.928576558,2021
2021-12-20,2021-12-20,"ז'בוטינסקי 40, חדרה",ז'בוטינסקי 40,10037-501-5,דירה בבית קומות,2.0,שניה,39.0,,,,1960.0,,3.0,7882856020,1,10037501,False,,חדרה,ז'בוטינסקי,,10037-501-5,10037/501,,32.4315236608,34.9225351346,2021
2021-12-20,2021-12-20,"הגדוד העברי 39, חדרה",הגדוד העברי 39,10580-54-12,דירה בבית קומות,3.0,שלישית,61.6,,,,1970.0,,4.0,7883064085,1,1058054,False,,חדרה,הגדוד העברי,,10580-54-12,10580/54,,32.4420706734,34.8911169978,2021
2021-12-20,2021-12-20,"ברנדייס 18, חדרה",ברנדייס 18,10408-34-1,קוטג' חד משפחתי,1.0,ראשונה,121.0,,,,1960.0,,1.0,7930404560,1,1040834,False,,חדרה,ברנדיס,,10408-34-1,10408/34,,32.4225754916,34.9221209298,2021
2021-12-19,2021-12-19,"הנצי""ב 6, חדרה","הנצי""ב 6",10054-199-3,דירה בבית קומות,3.0,ראשונה,59.1,,,,1970.0,,4.0,7882786275,1,10054199,False,49% ב 7 שנים,חדרה,"הנצי""ב",7.0,10054-199-3,10054/199,,32.4381922141,34.9074354041,2021
2021-12-19,2021-12-19,"ירושלים 1, חדרה",ירושלים 1,10037-547-41,דירה בבית קומות,3.0,שביעית,64.81,,,,1998.0,,7.0,7882814550,1,10037547,False,,חדרה,ירושלים,,10037-547-41,10037/547,,32.4351600689,34.925703764,2021
2021-12-17,2021-12-17,"הפלג 9, חדרה",הפלג 9,10061-120-1,דירה בבית קומות,4.0,קרקע,80.1,,,,1990.0,,2.0,7883265000,1,10061120,False,,חדרה,הפלג,,10061-120-1,10061/120,,32.417436568,34.9496321395,2021
2021-12-17,2021-12-17,"חטיבת הנח""ל 9, חדרה","חטיבת הנח""ל 9",10038-39-103,דירה בבית קומות,5.0,שישית,128.8,,,,1997.0,,7.0,7882710550,1,1003839,False,39% ב 8 שנים,חדרה,"חטיבת הנח""ל",4.88,10038-39-103,10038/39,,32.4326794396,34.9293660296,2021
2021-12-17,2021-12-17,"הנרייטה סאלד 10, חדרה",הנרייטה סאלד 10,10032-378-35,דירה בבית קומות,3.0,רביעית,52.3,,,,1960.0,,4.0,7882731545,1,10032378,False,53% ב 6.8 שנים,חדרה,סולד הנרייטה,7.79,10032-378-35,10032/378,,32.4355127341,34.9288249172,2021
2021-12-16,2021-12-16,"הצוקים 12, חדרה",הצוקים 12,12795-27-110,דירה בבית קומות,5.0,שישית,124.0,,,,2016.0,,18.0,7930282360,1,1279527,False,,חדרה,הצוקים,,12795-27-110,12795/27,,32.4296406258,34.8839853153,2021
2021-12-16,2021-12-16,"ביאליק 42, חדרה",ביאליק 42,10041-419-7,דירה בבית קומות,4.0,שניה,66.45,,,,1990.0,,5.0,7930346645,1,10041419,False,,חדרה,ביאליק,,10041-419-7,10041/419,,32.4322862783,34.917142904,2021
2021-12-16,2021-12-16,"נחל רמון 12, חדרה",נחל רמון 12,10403-92-16,דירה בבית קומות,5.0,שישית,161.0,,,,2015.0,,6.0,7883163210,1,1040392,False,,חדרה,נחל רמון,,10403-92-16,10403/92,,32.4276340464,34.9383054359,2021
2021-12-16,2021-12-16,"חטיבת הנח""ל 20, חדרה","חטיבת הנח""ל 20",10403-228-17,דירה בבית קומות,4.0,חמישית,82.0,,,,2004.0,,7.0,7882862975,1,10403228,False,183% ב 18.5 שנים,חדרה,"חטיבת הנח""ל",9.89,10403-228-17,10403/228,,32.4306565169,34.9362256814,2021
2021-12-16,2021-12-16,"הגבורים 39, חדרה",הגבורים 39,10037-367-9,דירה בבית קומות,3.0,שניה,95.12,,,,1970.0,,3.0,7930603525,1,10037367,False,,חדרה,הגבורים,,10037-367-9,10037/367,,32.4337235076,34.9216366177,2021
2021-12-16,2021-12-16,"נהלל 4, חדרה",נהלל 4,10032-420-175,דירה בבית קומות,3.0,שישית,70.4,,,,2000.0,,8.0,7882708535,1,10032420,False,86% ב 12.1 שנים,חדרה,נהלל,7.11,10032-420-175,10032/420,,32.4323893866,34.9336688829,2021
2021-12-16,2021-12-16,"לכיש 10, חדרה",לכיש 10,10403-224-108,דירה בבית קומות,4.0,שבע עשרה,110.0,,,,2016.0,,18.0,7930169715,1,10403224,False,,חדרה,לכיש,,10403-224-108,10403/224,,32.4282816211,34.9365593291,2021
2021-12-15,2021-12-15,"שקצר 39, חדרה",שקצר 39,10061-67-14,דירת גן,3.0,קרקע,90.81,,,,1992.0,,3.0,7882666155,1,1006167,False,227% ב 15 שנים,חדרה,שקצר,15.13,10061-67-14,10061/67,,32.4152631557,34.9511518572,2021
2021-12-15,2021-12-15,"הרברט סמואל 33, חדרה",הרברט סמואל 33,10036-432-50,דירה בבית קומות,3.0,שניה,76.06,,,,1960.0,,4.0,7882767490,1,10036432,False,41% ב 5.6 שנים,חדרה,הרברט סמואל,7.32,10036-432-50,10036/432,,32.4380770363,34.9147283069,2021
2021-12-15,2021-12-15,"חורשת טל 14, חדרה",חורשת טל 14,10402-407-3,דירה בבית קומות,6.0,ראשונה,172.0,,,,2014.0,,1.0,7882944355,1,10402407,False,,חדרה,חורשת טל,,10402-407-3,10402/407,,32.4273200123,34.9284605895,2021
2021-12-15,2021-12-15,"מילנר 33, חדרה",מילנר 33,10061-35-4,קוטג' דו משפחתי,6.0,קרקע ראשונה,122.0,,,,1997.0,,,7882658550,1,1006135,False,,חדרה,מילנר,,10061-35-4,10061/35,,32.4165964407,34.9478338037,2021
2021-12-15,2021-12-15,"האדמונית 12, חדרה",האדמונית 12,10402-174-4,ללא תיכנון,,,266.0,,,,,,,7930904995,1,10402174,False,,חדרה,האדמונית,,10402-174-4,10402/174,,32.4284782044,34.9254043137,2021
2021-12-14,2021-12-14,"מיכאל חזני 2, חדרה",מיכאל חזני 2,10041-366-5,דירה בבית קומות,3.0,ראשונה,58.5,,,,1970.0,,3.0,7882701450,1,10041366,False,13% ב 4.5 שנים,חדרה,חזני מיכאל,2.89,10041-366-5,10041/366,,32.4286772781,34.9171101953,2021
2021-12-14,2021-12-14,"מבצע עובדה 20, חדרה",מבצע עובדה 20,10009-389-10,קוטג' חד משפחתי,5.0,ראשונה,138.0,,,,2007.0,,1.0,7882602325,1,10009389,False,,חדרה,מבצע עובדה,,10009-389-10,10009/389,,32.4454521813,34.8988932908,2021
2021-12-14,2021-12-14,"ניצנים 1, חדרה",ניצנים 1,10031-17-179,דירה בבית קומות,4.0,חמישית,100.0,,,,2018.0,,12.0,7882880525,1,1003117,False,,חדרה,ניצנים,,10031-17-179,10031/17,,32.4327245907,34.9437183605,2021
2021-12-14,2021-12-14,"משמר הגבול 33, חדרה",משמר הגבול 33,10403-89-71,דירה בבית קומות,4.0,חמישית,95.5,,,,2014.0,,7.0,7882649450,1,1040389,False,,חדרה,משמר הגבול,,10403-89-71,10403/89,,32.4271420213,34.9400641325,2021
2021-12-14,2021-12-14,"מלחמת ששת הימים 19, חדרה",מלחמת ששת הימים 19,10036-208-22,דירה בבית קומות,5.0,תשיעית,118.0,,,,2019.0,,2.0,7930335920,1,10036208,False,,חדרה,מלחמת ששת הימים,,10036-208-22,10036/208,,32.4404002943,34.9159982997,2021
2021-12-14,2021-12-14,"ים סוף 16, חדרה",ים סוף 16,10016-431-1,קוטג' חד משפחתי,6.0,ראשונה,230.0,,,,2000.0,,1.0,7882477850,1,10016431,False,,חדרה,ים סוף,,10016-431-1,10016/431,,32.4462310689,34.9086553052,2021
2021-12-14,2021-12-14,"נהלל 4, חדרה",נהלל 4,10032-420-84,דירה בבית קומות,4.0,שישית,78.0,,,,2000.0,,8.0,7882605055,1,10032420,False,260% ב 14.5 שנים,חדרה,נהלל,17.93,10032-420-84,10032/420,,32.4323893866,34.9336688829,2021
2021-12-14,2021-12-14,"מורדי הגטאות 8, חדרה",מורדי הגטאות 8,7731-230-1,קוטג' חד משפחתי,3.0,ראשונה,85.0,,,,1950.0,,1.0,7930397085,1,7731230,False,,חדרה,מורדי הגטאות,,7731-230-1,7731/230,,32.4264221747,34.9453610398,2021
2021-12-13,2021-12-13,"הצוקים 12, חדרה",הצוקים 12,12795-27-111,דירה בבית קומות,4.0,שישית,105.0,,,,2016.0,,18.0,7882876820,1,1279527,False,,חדרה,הצוקים,,12795-27-111,12795/27,,32.4296406258,34.8839853153,2021
2021-12-13,2021-12-13,"רמב""ם 3, חדרה","רמב""ם 3",10042-204-16,דירה בבית קומות,3.0,שלישית,69.78,,,,1970.0,,3.0,7930318370,1,10042204,False,,חדרה,"רמב""ם",,10042-204-16,10042/204,,32.4343722878,34.9124067902,2021
2021-12-13,2021-12-13,"הרברט סמואל 17, חדרה",הרברט סמואל 17,10049-384-30,דירה בבית קומות,5.0,חמישית,107.01,,,,1990.0,,9.0,7882534205,1,10049384,False,8% ב 4.9 שנים,חדרה,הרברט סמואל,1.63,10049-384-30,10049/384,,32.4384090012,34.9130258202,2021
2021-12-12,2021-12-12,"חיים לסקוב 7, חדרה",חיים לסקוב 7,10049-349-52,דירה בבית קומות,3.0,ראשונה,61.7,,,,1970.0,,4.0,7882654325,1,10049349,False,,חדרה,לסקוב חיים,,10049-349-52,10049/349,,32.4429092918,34.910549147,2021
2021-12-12,2021-12-12,"מלחמת ששת הימים 15, חדרה",מלחמת ששת הימים 15,10036-500-27,דירה בבית קומות,5.0,שביעית,128.85,,,,1992.0,,8.0,7882359810,1,10036500,False,32% ב 2.8 שנים,חדרה,מלחמת ששת הימים,11.43,10036-500-27,10036/500,,32.4391149686,34.9153218943,2021
2021-12-12,2021-12-12,"הרברט סמואל 11, חדרה",הרברט סמואל 11,10049-215-4,דירה בבית קומות,3.0,ראשונה,70.8,,,,1995.0,,2.0,7882400630,1,10049215,False,35% ב 6.3 שנים,חדרה,הרברט סמואל,5.56,10049-215-4,10049/215,,32.438514053,34.912277086,2021
2021-12-12,2021-12-12,"נהרונית 40, חדרה",נהרונית 40,10058-33-11,דירה בבית קומות,4.0,שלישית רביעית,98.0,,,,1990.0,,4.0,7883006560,1,1005833,False,,חדרה,נהרונית,,10058-33-11,10058/33,,32.4210142842,34.9575171408,2021
2021-12-11,2021-11-12,"תרנ""א 20, חדרה","תרנ""א 20",10038-104-133,דירה בבית קומות,3.0,עשרים,80.0,,1.0,ויוה חדרה,2020.0,,24.0,7880715700,1,10038104,False,,חדרה,"תרנ""א",,10038-104-133,10038/104,,32.4336925543,34.9249607702,2021
2021-12-11,2021-11-12,"הגיבורים 52, חדרה",הגיבורים 52,10037-96-2,מחסנים,,מרתף II מרתף I,344.16,,,,1970.0,,9.0,7930155285,1,1003796,False,,חדרה,הגבורים,,10037-96-2,10037/96,,32.4341398881,34.922679429,2021
2021-12-11,2021-11-12,"גולומב אליהו 4, חדרה",גולומב אליהו 4,10032-372-22,דירה בבית קומות,3.0,שלישית,76.18,,,,1960.0,,3.0,7880536560,1,10032372,False,17% ב 2.6 שנים,חדרה,גולומב אליהו,6.54,10032-372-22,10032/372,,32.4353647921,34.9272133599,2021
2021-12-11,2021-11-12,"רמב""ם 13, חדרה","רמב""ם 13",10036-525-31,דירה בבית קומות,3.0,רביעית,67.0,,,,1970.0,,4.0,7880661685,1,10036525,False,8% ב 4.9 שנים,חדרה,"רמב""ם",1.63,10036-525-31,10036/525,,32.4359835946,34.9128428888,2021
2021-12-10,2021-10-12,"שלמה המלך 3, חדרה",שלמה המלך 3,7726-241-1,קוטג' דו משפחתי,7.0,קרקע ראשונה,149.0,,,,2000.0,,,7879307995,1,7726241,False,,חדרה,שלמה המלך,,7726-241-1,7726/241,,32.4271006269,34.9519102105,2021
2021-12-10,2021-10-12,"ניצנים 1, חדרה",ניצנים 1,10031-17-207,קוטג' דו משפחתי,5.0,ראשונה,146.0,,,,2018.0,,12.0,7879384175,1,1003117,False,,חדרה,ניצנים,,10031-17-207,10031/17,,32.4327245907,34.9437183605,2021
2021-12-10,2021-10-12,"חטיבת הנח""ל 24, חדרה","חטיבת הנח""ל 24",10403-230-3,דירה בבית קומות,4.0,שלישית,110.0,,,,1996.0,,1.0,7879091350,1,10403230,False,,חדרה,"חטיבת הנח""ל",,10403-230-3,10403/230,,32.4305922096,34.9368593444,2021
2021-12-10,2021-10-12,"הדודאים 1, חדרה",הדודאים 1,12795-29-46,דירה בבית קומות,5.0,עשירית,155.0,,,,2013.0,,19.0,7879328470,1,1279529,False,,חדרה,הדודאים,,12795-29-46,12795/29,,32.4295893826,34.8849348373,2021
2021-12-10,2021-10-12,"הנגב 11, חדרה",הנגב 11,10570-188-1,קוטג' דו משפחתי,5.0,ראשונה,190.0,,,,1950.0,,1.0,7879221740,1,10570188,False,,חדרה,הנגב,,10570-188-1,10570/188,,32.4403606734,34.8837880617,2021
2021-12-10,2021-10-12,"לכיש 10, חדרה",לכיש 10,10403-224-114,דירה בבית קומות,5.0,שבע עשרה,108.0,,,,2016.0,,18.0,7879471600,1,10403224,False,,חדרה,לכיש,,10403-224-114,10403/224,,32.4282816211,34.9365593291,2021
2021-12-10,2021-10-12,"השקמה 69, חדרה",השקמה 69,10058-9-11,דירה בבית קומות,4.0,שניה,92.0,,,,1990.0,,2.0,7879066650,1,100589,False,12% ב 5.4 שנים,חדרה,השקמה,2.22,10058-9-11,10058/9,,32.4216410595,34.9560465726,2021
2021-12-10,2021-10-12,"הנשיא ויצמן 14, חדרה",הנשיא ויצמן 14,10036-226-8,דירה בבית קומות,3.0,שלישית,57.0,,,,1970.0,,3.0,7880528045,1,10036226,False,43% ב 3 שנים,חדרה,הנשיא ויצמן,14.33,10036-226-8,10036/226,,32.440369365,34.9164602801,2021
2021-12-09,2021-09-12,"הגיבורים 68, חדרה",הגיבורים 68,10037-42-48,דירה בבית קומות,3.0,חמישית,69.45,,,,1970.0,,6.0,7878942370,1,1003742,False,,חדרה,הגבורים,,10037-42-48,10037/42,,32.4361546142,34.9233236412,2021
2021-12-09,2021-09-12,"הגיבורים 63, חדרה",הגיבורים 63,10037-9-40,דירה בבית קומות,3.0,שלישית,76.96,,,,1960.0,,3.0,7878859235,1,100379,False,59% ב 9 שנים,חדרה,הגבורים,6.56,10037-9-40,10037/9,,32.4371570865,34.9224461561,2021
2021-12-09,2021-09-12,"חטיבת הנח""ל 18, חדרה","חטיבת הנח""ל 18",10403-227-28,דירה בבית קומות,4.0,קומה ‎7‏,76.0,,,,2004.0,,9.0,7878189475,1,10403227,False,,חדרה,"חטיבת הנח""ל",,10403-227-28,10403/227,,32.4306806547,34.9358875913,2021
2021-12-09,2021-09-12,"בילינסון 29, חדרה",בילינסון 29,10016-114-1,קרקע למגורים,,,319.0,,,,1960.0,,1.0,7877794860,1,10016114,False,,חדרה,בילינסון,,10016-114-1,10016/114,,32.4469485117,34.9051303835,2021
2021-12-09,2021-09-12,"הנשיא ויצמן 31, חדרה",הנשיא ויצמן 31,10035-435-25,דירה בבית קומות,4.0,חמישית,89.0,,,,1980.0,,6.0,7877785175,1,10035435,False,,חדרה,הנשיא ויצמן,,10035-435-25,10035/435,,32.4398892324,34.9203903736,2021
2021-12-08,2021-08-12,"הנצי""ב 7, חדרה","הנצי""ב 7",10054-196-11,דירה בבית קומות,3.0,שלישית,60.18,,,,1970.0,,4.0,7876816220,1,10054196,False,,חדרה,"הנצי""ב",,10054-196-11,10054/196,,32.4388001586,34.9078485571,2021
2021-12-08,2021-08-12,"הגבורים 64, חדרה",הגבורים 64,10037-260-23,דירה בבית קומות,5.0,רביעית,129.41,,,,1980.0,,5.0,7876818300,1,10037260,False,8% ב 0.4 שנים,חדרה,הגבורים,20.0,10037-260-23,10037/260,,32.4353051268,34.9227753461,2021
2021-12-08,2021-08-12,"הנבל 7, חדרה",הנבל 7,10042-472-67,דירה בבית קומות,5.0,חמישית,160.0,,,,2014.0,,14.0,7876543740,1,10042472,False,,חדרה,הנבל,,10042-472-67,10042/472,,32.4281882464,34.9108202562,2021
2021-12-08,2021-08-12,"הלל יפה 43, חדרה",הלל יפה 43,10036-319-18,דירה בבית קומות,3.0,שניה,71.4,,,,1998.0,,9.0,7877189970,1,10036319,False,,חדרה,הלל יפה,,10036-319-18,10036/319,,32.4400507348,34.9176725982,2021
2021-12-08,2021-08-12,"האשור 1, חדרה",האשור 1,10032-440-25,דירה בבית קומות,4.0,חמישית,120.0,,,,2021.0,,5.0,7876813035,1,10032440,False,,חדרה,האשור,,10032-440-25,10032/440,,32.4377419394,34.928576558,2021
2021-12-08,2021-08-12,"רחבעם זאבי 4, חדרה",רחבעם זאבי 4,10011-46-302,דירת נופש,3.0,ראשונה,55.5,,,,1998.0,,7.0,7877905750,1,1001146,False,39% ב 4 שנים,חדרה,רחבעם זאבי,9.75,10011-46-302,10011/46,,32.4449177945,34.8796665649,2021
2021-12-08,2021-08-12,"אדני פז 44, חדרה",אדני פז 44,12795-25-32,דירה בבית קומות,4.0,שישית,93.0,,,,2017.0,,13.0,7877537460,1,1279525,False,,חדרה,אדני פז,,12795-25-32,12795/25,,32.4313269752,34.8840255999,2021
2021-12-08,2021-08-12,"אסירי ציון 2, חדרה",אסירי ציון 2,10041-385-9,דירה בבית קומות,3.0,שלישית,62.2,,,,1970.0,,4.0,7876561485,1,10041385,False,23% ב 6.5 שנים,חדרה,אסירי ציון,3.54,10041-385-9,10041/385,,32.4311525225,34.9159873702,2021
2021-12-08,2021-08-12,"נהלל 4, חדרה",נהלל 4,10032-420-133,דירה בבית קומות,3.0,שלישית,69.4,,,,2000.0,,8.0,7876506170,1,10032420,False,84% ב 12 שנים,חדרה,נהלל,7.0,10032-420-133,10032/420,,32.4323893866,34.9336688829,2021
2021-12-08,2021-08-12,"ניצנים 1, חדרה",ניצנים 1,10031-17-214,דירה בבית קומות,4.0,שניה,119.0,,,,2018.0,,12.0,7877747605,1,1003117,False,,חדרה,ניצנים,,10031-17-214,10031/17,,32.4327245907,34.9437183605,2021
2021-12-08,2021-08-12,"משמר הגבול 16, חדרה",משמר הגבול 16,10402-435-70,דירה בבית קומות,4.0,חמישית,102.0,,,,2014.0,,6.0,7877700350,1,10402435,False,32% ב 9.2 שנים,חדרה,משמר הגבול,3.48,10402-435-70,10402/435,,32.4289611458,34.9289844698,2021
2021-12-07,2021-07-12,"קיבוץ גלויות 27, חדרה",קיבוץ גלויות 27,7727-52-2,קוטג' דו משפחתי,2.0,קרקע,35.48,,,,1960.0,,,7875923770,1,772752,False,,חדרה,קבוץ גלויות,,7727-52-2,7727/52,,32.4236236917,34.9543598062,2021
2021-12-07,2021-07-12,"הדודאים 3, חדרה",הדודאים 3,12795-9-21,דירה בבית קומות,5.0,קומה ‎6‏,123.7,,,,2015.0,,14.0,7875958155,1,127959,False,25% ב 7.5 שנים,חדרה,הדודאים,3.33,12795-9-21,12795/9,,32.4302181526,34.8851957476,2021
2021-12-07,2021-07-12,"נחל פרת 4, חדרה",נחל פרת 4,10031-61-33,דירה בבית קומות,3.0,שמינית,80.36,,,,2005.0,,9.0,7874946235,1,1003161,False,16% ב 4.6 שנים,חדרה,נחל פרת,3.48,10031-61-33,10031/61,,32.4336115966,34.9401705586,2021
2021-12-07,2021-07-12,"יחיעם 2, חדרה",יחיעם 2,10049-333-14,דירה בבית קומות,3.0,רביעית,50.1,,,,1960.0,,4.0,7874857770,1,10049333,False,49% ב 5.2 שנים,חדרה,יחיעם,9.42,10049-333-14,10049/333,,32.4403685422,34.9039999021,2021
2021-12-07,2021-07-12,"ד""ר ברין 1, חדרה","ד""ר ברין 1",10041-386-32,דירה בבית קומות,3.0,רביעית,62.2,,,,1970.0,,4.0,7875000900,1,10041386,False,,חדרה,"ד""ר ברין",,10041-386-32,10041/386,,32.4306640104,34.9159671852,2021
2021-12-07,2021-07-12,"הנשיא ויצמן 73, חדרה",הנשיא ויצמן 73,10034-406-66,דירה בבית קומות,4.0,חמישית,118.0,,1.0,גני הנשיא/הנשיא 73,2016.0,,9.0,7875081825,1,10034406,False,,חדרה,הנשיא ויצמן,,10034-406-66,10034/406,,32.4386293413,34.9249834793,2021
2021-12-07,2021-07-12,"הרצל 18, חדרה",הרצל 18,10036-179-16,דירה בבית קומות,4.0,שישית,85.93,,,,1998.0,,8.0,7875079095,1,10036179,False,,חדרה,הרצל,,10036-179-16,10036/179,,32.4370790109,34.9195411874,2021
2021-12-07,2021-07-12,"ירושלים 44, חדרה",ירושלים 44,10032-257-2,דירה בבית קומות,6.0,ראשונה,200.0,,,,1948.0,,1.0,7874917765,1,10032257,False,,חדרה,ירושלים,,10032-257-2,10032/257,,32.4402098349,34.9279478457,2021
2021-12-07,2021-07-12,"הרברט סמואל 90, חדרה",הרברט סמואל 90,10037-550-31,דירה בבית קומות,5.0,ראשונה,98.29,,,,1992.0,,7.0,7875362300,1,10037550,False,,חדרה,הרברט סמואל,,10037-550-31,10037/550,,32.4348168179,34.9240056784,2021
2021-12-07,2021-07-12,"הנשיא ויצמן 20, חדרה",הנשיא ויצמן 20,10036-223-1,ניוד זכויות בניה,,,,,,,,,,7881101800,1,10036223,False,,חדרה,הנשיא ויצמן,,10036-223-1,10036/223,,32.440112598,34.9170268585,2021
2021-12-05,2021-05-12,"עין זיוון 5, חדרה",עין זיוון 5,10031-55-13,קוטג' דו משפחתי,5.0,קרקע ראשונה,130.0,,,,1995.0,,2.0,7871903455,1,1003155,False,10% ב 3.9 שנים,חדרה,עין זיוון,2.56,10031-55-13,10031/55,,32.4357727122,34.9416549657,2021
2021-12-05,2021-05-12,"נחל שורק 2, חדרה",נחל שורק 2,10403-91-72,דירה בבית קומות,4.0,רביעית,127.0,,,,2017.0,,6.0,7871595095,1,1040391,False,,חדרה,נחל שורק,,10403-91-72,10403/91,,32.4283208853,34.938272994,2021
2021-12-05,2021-05-12,"הגיבורים 71, חדרה",הגיבורים 71,10037-554-20,דירה בבית קומות,4.0,שישית,121.0,,,,2000.0,,6.0,7871481605,1,10037554,False,,חדרה,הגבורים,,10037-554-20,10037/554,,32.4378432563,34.922775053,2021
2021-12-05,2021-05-12,"מדורסקי 33, חדרה",מדורסקי 33,10032-389-7,קוטג' חד משפחתי,5.0,קרקע וראשונה,117.04,,,,1992.0,,2.0,7871548555,1,10032389,False,17% ב 4.6 שנים,חדרה,מדורסקי,3.7,10032-389-7,10032/389,,32.4362529341,34.9293278994,2021
2021-12-05,2021-05-12,"ברוך בוארון 7, חדרה",ברוך בוארון 7,10570-494-94,דירה בבית קומות,3.0,חמישית,72.2,,,,1995.0,,7.0,7871497660,1,10570494,False,,חדרה,בוארון ברוך,,10570-494-94,10570/494,,32.4398246791,34.8819583045,2021
2021-12-05,2021-05-12,"מילנר 26, חדרה",מילנר 26,10061-18-2,דירה בבית קומות,5.0,קרקע,159.0,,,,1997.0,,,7871503315,1,1006118,False,,חדרה,מילנר,,10061-18-2,10061/18,,32.417534046,34.9465486012,2021
2021-12-05,2021-05-12,"הדודאים 5, חדרה",הדודאים 5,12795-9-60,דירה בבית קומות,5.0,קומה ‎1‏,123.75,,,,2015.0,,16.0,7872048275,1,127959,False,,חדרה,הדודאים,,12795-9-60,12795/9,,32.4302181526,34.8851957476,2021
2021-12-05,2021-05-12,"חבצלת השרון 7, חדרה",חבצלת השרון 7,10574-135-1,קוטג' דו משפחתי,5.0,ראשונה,176.0,,,,2010.0,,,7871498700,1,10574135,False,,חדרה,חבצלת השרון,,10574-135-1,10574/135,,32.4263558774,34.8839138858,2021
2021-12-05,2021-05-12,"האשור 1, חדרה",האשור 1,10032-440-5,דירה בבית קומות,4.0,ראשונה,109.0,,,,2021.0,,5.0,7871791395,1,10032440,False,,חדרה,האשור,,10032-440-5,10032/440,,32.4377419394,34.928576558,2021
2021-12-05,2021-05-12,"ד""ר ברין 2, חדרה","ד""ר ברין 2",10041-359-10,דירה בבית קומות,4.0,שניה,77.6,,,,1970.0,,4.0,7872823140,1,10041359,False,46% ב 7.1 שנים,חדרה,"ד""ר ברין",6.48,10041-359-10,10041/359,,32.4302104592,34.9159074009,2021
2021-12-04,2021-04-12,"הדודאים 3, חדרה",הדודאים 3,12795-9-51,דירה בבית קומות,5.0,קומה ‎13‏,121.7,,,,2015.0,,14.0,7870942625,1,127959,False,2% ב 5.6 שנים,חדרה,הדודאים,0.36,12795-9-51,12795/9,,32.4302181526,34.8851957476,2021
2021-12-04,2021-04-12,"לכיש 2, חדרה",לכיש 2,10403-236-47,,4.0,חמש עשרה,108.0,,1.0,,2018.0,,17.0,11181172934,1,10403236,False,,חדרה,לכיש,,10403-236-47,10403/236,,32.4294056615,34.9366635683,2021
2021-12-04,2021-04-12,"חוט השני 7, חדרה",חוט השני 7,12795-26-10,דירה בבית קומות,4.0,שניה,100.0,,,,2012.0,,9.0,7870805800,1,1279526,False,,חדרה,חוט השני,,12795-26-10,12795/26,,32.4307567986,34.884039055,2021
2021-12-04,2021-04-12,"הקידה 17, חדרה",הקידה 17,10063-48-29,דירת גג,5.0,שניה,90.1,,,,1992.0,,2.0,7869800900,1,1006348,False,,חדרה,הקידה,,10063-48-29,10063/48,,32.4211111443,34.9465808978,2021
2021-12-04,2021-04-12,"שניר 1, חדרה",שניר 1,10403-220-217,דירה בבית קומות,4.0,שלוש עשרה,100.0,,,,2017.0,,18.0,7870932940,1,10403220,False,,חדרה,שניר,,10403-220-217,10403/220,,32.4300801362,34.9328978708,2021
2021-12-04,2021-04-12,"נחל צין 4, חדרה",נחל צין 4,10403-8-14,דירה בבית קומות,3.0,ראשונה,80.0,,,,1996.0,,7.0,7870071690,1,104038,False,,חדרה,נחל צין,,10403-8-14,10403/8,,32.4316042833,34.9374061746,2021
2021-12-04,2021-04-12,"ניצנים 1, חדרה",ניצנים 1,10031-17-228,דירה בבית קומות,5.0,שלישית,130.0,,1.0,go in,2018.0,,12.0,7870783375,1,1003117,False,,חדרה,ניצנים,,10031-17-228,10031/17,,32.4327245907,34.9437183605,2021
2021-12-04,2021-04-12,"נתיבות 1, חדרה",נתיבות 1,10031-68-52,דירה בבית קומות,5.0,קומה ‎3‏,122.27,,,,2015.0,,12.0,7870045950,1,1003168,False,,חדרה,נתיבות,,10031-68-52,10031/68,,32.4329704566,34.9423691364,2021
2021-12-04,2021-04-12,"שניר 12, חדרה",שניר 12,10403-222-26,דירה בבית קומות,5.0,קומה ‎7‏,140.5,,,,2014.0,,8.0,7870850845,1,10403222,False,,חדרה,שניר,,10403-222-26,10403/222,,32.4285909731,34.9316318787,2021
2021-12-04,2021-04-12,"שניר 12, חדרה",שניר 12,10403-222-2,דירת גן,5.0,קומה ‎0‏,118.2,,,,2014.0,,8.0,7871264830,1,10403222,False,29% ב 4.9 שנים,חדרה,שניר,5.92,10403-222-2,10403/222,,32.4285909731,34.9316318787,2021
2021-12-04,2021-04-12,"משמר הגבול 39, חדרה",משמר הגבול 39,10403-89-12,דירה בבית קומות,4.0,רביעית,96.93,,,,2014.0,,6.0,7870175820,1,1040389,False,28% ב 9.1 שנים,חדרה,משמר הגבול,3.08,10403-89-12,10403/89,,32.4271420213,34.9400641325,2021
2021-12-02,2021-02-12,"אלכסנדר 2, חדרה",אלכסנדר 2,10402-311-35,דירה בבית קומות,5.0,תשיעית,110.35,,,,2005.0,,9.0,7867966925,1,10402311,False,96% ב 15 שנים,חדרה,אלכסנדר,6.4,10402-311-35,10402/311,,32.4265556462,34.9245070237,2021
2021-12-01,2021-01-12,"יצחק בן-צבי 8, חדרה",יצחק בן-צבי 8,10041-430-7,דירה בבית קומות,3.0,שניה,44.4,,,,1970.0,,3.0,7866018095,1,10041430,False,,חדרה,בן צבי יצחק,,10041-430-7,10041/430,,32.4271048799,34.915734351,2021
2021-12-01,2021-01-12,"מנחם בגין 1, חדרה",מנחם בגין 1,10008-162-14,דירה בבית קומות,4.0,שביעית,119.7,,,,2012.0,,7.0,7865959725,1,10008162,False,45% ב 8.3 שנים,חדרה,בגין מנחם,5.42,10008-162-14,10008/162,,32.4443768418,34.8809248992,2021
2021-12-01,2021-01-12,"פרנק 28, חדרה",פרנק 28,10049-285-28,דירה בבית קומות,3.0,חמישית,67.0,,,,1993.0,,9.0,7866365000,1,10049285,False,58% ב 11.3 שנים,חדרה,פרנק,5.13,10049-285-28,10049/285,,32.4424164473,34.9077865061,2021
2021-12-01,2021-01-12,"חטיבת אלכסנדרוני 13, חדרה",חטיבת אלכסנדרוני 13,10009-315-1,קוטג' חד משפחתי,7.0,ראשונה,309.0,,,,1991.0,,1.0,7865643370,1,10009315,False,,חדרה,חטיבת אלכסנדרוני,,10009-315-1,10009/315,,32.4471112379,34.9002318116,2021
2021-11-30,2021-11-30,"הרצל 24, חדרה",הרצל 24,10036-259-9,דירה בבית קומות,4.0,רביעית,90.56,,,,1960.0,,5.0,7881611270,1,10036259,False,,חדרה,הרצל,,10036-259-9,10036/259,,32.4373994779,34.9196457478,2021
2021-11-30,2021-11-30,"הזכוכית 20, חדרה",הזכוכית 20,7731-207-16,קוטג' דו משפחתי,5.0,ראשונה,128.0,,,,2005.0,,1.0,7882454840,1,7731207,False,,חדרה,הזכוכית,,7731-207-16,7731/207,,32.4279804465,34.9412830934,2021
2021-11-30,2021-11-30,"הצאלון 12, חדרה",הצאלון 12,10058-31-13,דירה בבית קומות,3.0,ראשונה,73.8,,,,1993.0,,,7881889080,1,1005831,False,,חדרה,הצאלון,,10058-31-13,10058/31,,32.4224480639,34.9569413905,2021
2021-11-30,2021-11-30,"וילנסקי 2, חדרה",וילנסקי 2,10060-33-4,דירה בבית קומות,3.0,ראשונה,64.25,,,,1990.0,,3.0,7883104775,1,1006033,False,,חדרה,וילנסקי,,10060-33-4,10060/33,,32.413591831,34.9532533727,2021
2021-11-30,2021-11-30,"צה""ל 4, חדרה","צה""ל 4",10032-116-2,דירת גן,4.0,ראשונה,73.0,,,,1960.0,,2.0,7881715270,1,10032116,False,240% ב 12.1 שנים,חדרה,"צה""ל",19.83,10032-116-2,10032/116,,32.4381913228,34.9284348084,2021
2021-11-30,2021-11-30,"ניצנים 1, חדרה",ניצנים 1,10031-17-178,דירה בבית קומות,4.0,רביעית,125.0,,,,2018.0,,12.0,7882652115,1,1003117,False,,חדרה,ניצנים,,10031-17-178,10031/17,,32.4327245907,34.9437183605,2021
2021-11-29,2021-11-29,"הנבל 6, חדרה",הנבל 6,10042-474-3,קוטג' דו משפחתי,5.0,ראשונה,216.0,,,,1995.0,,1.0,7881562585,1,10042474,False,,חדרה,הנבל,,10042-474-3,10042/474,,32.427631066,34.9104710134,2021
2021-11-28,2021-11-28,"רוטשילד 8, חדרה",רוטשילד 8,10037-99-7,דירה בבית קומות,5.0,ראשונה ושניה,137.43,,,,1990.0,,1.0,7881623685,1,1003799,False,35% ב 3.4 שנים,חדרה,רוטשילד,10.29,10037-99-7,10037/99,,32.4339076597,34.9202902736,2021
2021-11-28,2021-11-28,"פיינברג 3, חדרה",פיינברג 3,10041-371-10,דירה בבית קומות,3.0,שלישית,76.0,,,,1970.0,,3.0,7882003870,1,10041371,False,109% ב 11 שנים,חדרה,פיינברג,9.91,10041-371-10,10041/371,,32.4288902046,34.9162238784,2021
2021-11-28,2021-11-28,"הרצל 86, חדרה",הרצל 86,10035-450-2,קוטג' דו משפחתי,5.0,מרתף+קרקע+ראשונה,205.73,,,,1994.0,,,7882572230,1,10035450,False,55% ב 9.3 שנים,חדרה,הרצל,5.91,10035-450-2,10035/450,,32.4454343153,34.9222775764,2021
2021-11-28,2021-11-28,"הירדן 14, חדרה",הירדן 14,10402-436-14,דירה בבית קומות,4.0,רביעית,120.0,,,,2014.0,,3.0,7881777475,1,10402436,False,,חדרה,הירדן,,10402-436-14,10402/436,,32.4262849547,34.9288265776,2021
2021-11-28,2021-11-28,"המעפילים 11, חדרה",המעפילים 11,10570-114-1,קוטג' חד משפחתי,5.0,קרקע,106.0,,,,1970.0,,,7881496545,1,10570114,False,,חדרה,המעפילים,,10570-114-1,10570/114,,32.4378872433,34.8854116594,2021
2021-11-28,2021-11-28,"השקמה 43, חדרה",השקמה 43,10059-30-2,דירה בבית קומות,6.0,קרקע וראשונה,118.1,,,,1990.0,,,7882555070,1,1005930,False,,חדרה,השקמה,,10059-30-2,10059/30,,32.4192088397,34.9569765952,2021
2021-11-28,2021-11-28,"הירדן 2, חדרה",הירדן 2,10402-433-0,דירת גן,1.0,ראשונה,4549.0,,,,2014.0,,7.0,7882161950,1,10402433,False,68% ב 4.9 שנים,חדרה,הירדן,13.88,10402-433-0,10402/433,,32.4309276871,34.93099562,2021
2021-11-25,2021-11-25,"גורדון 10, חדרה",גורדון 10,10037-68-45,דירה בבית קומות,4.0,חמישית,80.38,,,,1980.0,,7.0,7882915950,1,1003768,False,134% ב 16.1 שנים,חדרה,גורדון,8.32,10037-68-45,10037/68,,32.4347866298,34.9216711984,2021
2021-11-25,2021-11-25,"עין גב 3, חדרה",עין גב 3,10054-182-17,דירה בבית קומות,4.0,חמישית,84.6,,,,1997.0,,7.0,7882637100,1,10054182,False,46% ב 8.4 שנים,חדרה,עין גב,5.48,10054-182-17,10054/182,,32.4382505343,34.9046286309,2021
2021-11-25,2021-11-25,"משמר הגבול 15, חדרה",משמר הגבול 15,10403-222-107,דירה בבית קומות,5.0,קומה ‎5‏,134.6,,,,2014.0,,9.0,7881361930,1,10403222,False,,חדרה,משמר הגבול,,10403-222-107,10403/222,,32.4285909731,34.9316318787,2021
2021-11-25,2021-11-25,"העלייה הראשונה 7, חדרה",העלייה הראשונה 7,10037-417-5,דירה בבית קומות,3.0,שביעית,92.0,,1.0,,2022.0,,,7882928300,1,10037417,False,,חדרה,העליה הראשונה,,10037-417-5,10037/417,,,,2021
2021-11-25,2021-11-25,"אלכסנדר 2, חדרה",אלכסנדר 2,10402-311-13,דירה בבית קומות,4.0,שלישית,98.3,,,,2005.0,,9.0,7881551275,1,10402311,False,,חדרה,אלכסנדר,,10402-311-13,10402/311,,32.4265556462,34.9245070237,2021
2021-11-25,2021-11-25,"ירושלים 11, חדרה",ירושלים 11,10037-445-1,דירה בבית קומות,3.0,קרקע,79.4,,,,1958.0,2019.0,,7881780140,1,10037445,True,-35% ב 3.6 שנים,חדרה,ירושלים,-9.72,10037-445-1,10037/445,,32.4362753877,34.9260672851,2021
2021-11-24,2021-11-24,"ניצנים 1, חדרה",ניצנים 1,10031-17-176,דירה בבית קומות,4.0,שישית,110.0,,,,2018.0,,12.0,7883021120,1,1003117,False,,חדרה,ניצנים,,10031-17-176,10031/17,,32.4327245907,34.9437183605,2021
2021-11-24,2021-11-24,"הרב קוק 19, חדרה",הרב קוק 19,10035-345-3,ללא תיכנון,,,224.0,,,,,,,7882038125,1,10035345,False,,חדרה,הרב קוק,,10035-345-3,10035/345,,32.4426063925,34.9189614118,2021
2021-11-24,2021-11-24,"הנשיא ויצמן 25, חדרה",הנשיא ויצמן 25,10035-408-15,דירה בבית קומות,3.0,שלישית,51.0,,,,1960.0,,4.0,7882020445,1,10035408,False,8% ב 2 שנים,חדרה,הנשיא ויצמן,4.0,10035-408-15,10035/408,,32.4401394053,34.9193425486,2021
2021-11-24,2021-11-24,"טיומקין 1, חדרה",טיומקין 1,10035-299-1,דירה בבית קומות,1.0,קרקע,25.55,,,,1960.0,,2.0,7881417115,1,10035299,False,113% ב 11.3 שנים,חדרה,טיומקין,10.0,10035-299-1,10035/299,,32.4417383657,34.9168426313,2021
2021-11-24,2021-11-24,"הרברט סמואל 91, חדרה",הרברט סמואל 91,10037-495-13,דירה בבית קומות,4.0,שלישית,77.78,,,,1960.0,,4.0,7882057430,1,10037495,False,47% ב 10.4 שנים,חדרה,הרברט סמואל,4.52,10037-495-13,10037/495,,32.4358000753,34.9232265224,2021
2021-11-24,2021-11-24,"סמילנסקי 11, חדרה",סמילנסקי 11,10036-345-182,דירה בבית קומות,5.0,שתים עשרה,122.0,,,,2022.0,,1.0,7883101005,1,10036345,False,,חדרה,סמילנסקי,,10036-345-182,10036/345,,32.4344493297,34.9143750071,2021
2021-11-24,2021-11-24,"הגיבורים 127, חדרה",הגיבורים 127,10034-16-2,קוטג' חד משפחתי,5.0,ראשונה,180.0,,,,2022.0,,1.0,7882228900,1,1003416,False,,חדרה,הגבורים,,10034-16-2,10034/16,,32.4435881404,34.924484229,2021
2021-11-24,2021-11-24,"הצוקים 12, חדרה",הצוקים 12,12795-27-67,דירה בבית קומות,4.0,שניה,105.0,,1.0,AQUA PRIME,2016.0,,18.0,7882192045,1,1279527,False,,חדרה,הצוקים,,12795-27-67,12795/27,,32.4296406258,34.8839853153,2021
2021-11-23,2021-11-23,"הנביאים 7, חדרה",הנביאים 7,10572-93-3,דירה בבית קומות,2.0,קרקע,24.8,,,,1950.0,,1.0,7882019470,1,1057293,False,34% ב 2.7 שנים,חדרה,הנביאים,12.59,10572-93-3,10572/93,,32.435443921,34.8863953505,2021
2021-11-23,2021-11-23,"חטיבת הנח""ל 24, חדרה","חטיבת הנח""ל 24",10403-230-2,דירה בבית קומות,4.0,שניה,116.0,,,,1996.0,,1.0,7881214380,1,10403230,False,,חדרה,"חטיבת הנח""ל",,10403-230-2,10403/230,,32.4305922096,34.9368593444,2021
2021-11-23,2021-11-23,"הצאלון 14, חדרה",הצאלון 14,10058-31-20,דירה בבית קומות,3.0,ראשונה,73.9,,,,1990.0,,,7882518670,1,1005831,False,,חדרה,הצאלון,,10058-31-20,10058/31,,32.4224480639,34.9569413905,2021
2021-11-23,2021-11-23,"יחיעם 6, חדרה",יחיעם 6,10049-334-13,דירה בבית קומות,4.0,רביעית,65.0,,,,1970.0,,4.0,7882679025,1,10049334,False,2% ב 1.3 שנים,חדרה,יחיעם,1.54,10049-334-13,10049/334,,32.4404062313,34.9043217815,2021
2021-11-23,2021-11-23,"מיכאל חזני 4, חדרה",מיכאל חזני 4,10041-365-14,דירה בבית קומות,3.0,שלישית,58.5,,,,1970.0,,3.0,7881860090,1,10041365,False,40% ב 2.8 שנים,חדרה,חזני מיכאל,14.29,10041-365-14,10041/365,,32.4289456754,34.9171172034,2021
2021-11-22,2021-11-22,"הרברט סמואל 47, חדרה",הרברט סמואל 47,10036-24-32,דירה בבית קומות,3.0,ראשונה,54.8,,,,1950.0,,2.0,7881626870,1,1003624,False,81% ב 12.3 שנים,חדרה,הרברט סמואל,6.59,10036-24-32,10036/24,,32.4375514475,34.9167131001,2021
2021-11-22,2021-11-22,"רחבעם זאבי 1, חדרה",רחבעם זאבי 1,10011-46-45,דירת נופש,1.0,שניה,35.6,,,,1998.0,,7.0,7881192410,1,1001146,False,,חדרה,רחבעם זאבי,,10011-46-45,10011/46,,32.4449177945,34.8796665649,2021
2021-11-22,2021-11-22,"רמב""ם 24, חדרה","רמב""ם 24",10036-502-14,דירה בבית קומות,4.0,רביעית,79.25,,,,1990.0,,8.0,7881230500,1,10036502,False,2% ב 4.1 שנים,חדרה,"רמב""ם",0.49,10036-502-14,10036/502,,32.4388128125,34.9145553111,2021
2021-11-22,2021-11-22,"עין עבדת 18, חדרה",עין עבדת 18,10403-79-3,קוטג' דו משפחתי,5.0,ראשונה,210.0,,,,2016.0,,2.0,7881900780,1,1040379,False,,חדרה,עין עבדת,,10403-79-3,10403/79,,32.4275416588,34.9396721628,2021
2021-11-22,2021-11-22,"החסידה 4, חדרה",החסידה 4,10054-231-22,דירה בבית קומות,5.0,רביעית,91.66,,,,1996.0,,7.0,7882677985,1,10054231,False,,חדרה,החסידה,,10054-231-22,10054/231,,32.4387985236,34.9043204768,2021
2021-11-22,2021-11-22,"הצוקים 12, חדרה",הצוקים 12,12795-27-66,דירה בבית קומות,4.0,חמישית,105.0,,1.0,AQUA PRIME,2016.0,,18.0,7882135820,1,1279527,False,,חדרה,הצוקים,,12795-27-66,12795/27,,32.4296406258,34.8839853153,2021
2021-11-22,2021-11-22,"רמב""ם 13, חדרה","רמב""ם 13",10036-525-50,דירה בבית קומות,4.0,שלישית,97.56,,,,1970.0,,4.0,7881137680,1,10036525,False,20% ב 6.2 שנים,חדרה,"רמב""ם",3.23,10036-525-50,10036/525,,32.4359835946,34.9128428888,2021
2021-11-22,2021-11-22,"אסירי ציון 2, חדרה",אסירי ציון 2,10041-385-14,דירה בבית קומות,3.0,רביעית,62.2,,,,1970.0,,4.0,7882178655,1,10041385,False,18% ב 1.3 שנים,חדרה,אסירי ציון,13.85,10041-385-14,10041/385,,32.4311525225,34.9159873702,2021
2021-11-22,2021-11-22,"משה דיין 10, חדרה",משה דיין 10,10049-348-22,דירה בבית קומות,4.0,שישית,73.1,,,,1985.0,,6.0,7881644485,1,10049348,False,,חדרה,דיין משה,,10049-348-22,10049/348,,32.4433679846,34.9099927419,2021
2021-11-21,2021-11-21,"לכיש 19, חדרה",לכיש 19,10403-225-46,דירת גן,5.0,"קומה ‎0‏, קומה ‎1‏",138.7,,,,2014.0,,7.0,7882553380,1,10403225,False,,חדרה,לכיש,,10403-225-46,10403/225,,32.4275406706,34.9370504827,2021
2021-11-21,2021-11-21,"העלייה הראשונה 7, חדרה",העלייה הראשונה 7,10037-417-1,דירה,4.0,,109.0,,1.0,,,,,11181168944,1,10037417,False,,חדרה,העליה הראשונה,,10037-417-1,10037/417,,,,2021
2021-11-21,2021-11-21,"הקידה 15, חדרה",הקידה 15,10063-51-11,דירה בבית קומות,3.0,שניה,65.7,,,,1990.0,,2.0,7881141450,1,1006351,False,,חדרה,הקידה,,10063-51-11,10063/51,,32.4203195044,34.9472058802,2021
2021-11-21,2021-11-21,"רמב""ם 51, חדרה","רמב""ם 51",10049-200-19,דירה בבית קומות,3.0,ראשונה,53.0,,,,1960.0,,4.0,7881407495,1,10049200,False,,חדרה,"רמב""ם",,10049-200-19,10049/200,,32.4408199402,34.9144327241,2021
2021-11-21,2021-11-21,"שמואלזון 11, חדרה",שמואלזון 11,10049-350-45,דירה בבית קומות,3.0,רביעית,61.7,,,,1980.0,,4.0,7881521115,1,10049350,False,12% ב 4.6 שנים,חדרה,שמואלזון,2.61,10049-350-45,10049/350,,32.441674345,34.9100408415,2021
2021-11-21,2021-11-21,"קדימה 26, חדרה",קדימה 26,10572-241-5,דירה,5.0,ראשונה,151.0,,1.0,,2014.0,,2.0,7881346850,1,10572241,False,,חדרה,קדימה,,10572-241-5,10572/241,,32.4359073964,34.8829876871,2021
2021-11-21,2021-11-21,"שמואלזון 3, חדרה",שמואלזון 3,10049-351-14,דירה בבית קומות,3.0,רביעית,73.1,,,,1970.0,,9.0,7881115320,1,10049351,False,,חדרה,שמואלזון,,10049-351-14,10049/351,,32.4418392847,34.9093165599,2021
2021-11-21,2021-11-21,"הרברט סמואל 9, חדרה",הרברט סמואל 9,10049-118-10,דירה בבית קומות,3.0,ראשונה,70.56,,,,1996.0,,5.0,7881078725,1,10049118,True,-11% ב 7.6 שנים,חדרה,הרברט סמואל,-1.45,10049-118-10,10049/118,,32.438585248,34.9119039977,2021
2021-11-21,2021-11-21,"הגבורים 84, חדרה",הגבורים 84,10037-20-20,משרד,,ראשונה,53.4,,,,1980.0,,6.0,7881590340,1,1003720,False,,חדרה,הגבורים,,10037-20-20,10037/20,,32.4383080261,34.9238076888,2021
2021-11-19,2021-11-19,"תרנ""א 46, חדרה","תרנ""א 46",10037-493-98,דירה בבית קומות,3.0,רביעית,49.3,,,,1960.0,,5.0,7881403205,1,10037493,False,116% ב 4.2 שנים,חדרה,"תרנ""א",27.62,10037-493-98,10037/493,,32.4374688573,34.9259996318,2021
2021-11-19,2021-11-19,"חטיבת גולני 22, חדרה",חטיבת גולני 22,10038-63-36,דירה בבית קומות,4.0,שמינית,83.12,,,,2003.0,,9.0,7882023175,1,1003863,False,169% ב 18.1 שנים,חדרה,חטיבת גולני,9.34,10038-63-36,10038/63,,32.4328826762,34.9320148546,2021
2021-11-19,2021-11-19,"הגיבורים 54, חדרה",הגיבורים 54,10037-552-12,דירה בבית קומות,5.0,שלישית,114.4,,,,2011.0,,14.0,7881068585,1,10037552,False,,חדרה,הגבורים,,10037-552-12,10037/552,,32.4343905661,34.9229332483,2021
2021-11-19,2021-11-19,"שבטי ישראל 10, חדרה",שבטי ישראל 10,10572-263-8,דירה בבית קומות,2.0,שניה,35.0,,,,1950.0,,2.0,7881016585,1,10572263,False,,חדרה,שבטי ישראל,,10572-263-8,10572/263,,32.4327802073,34.8877440441,2021
2021-11-19,2021-11-19,"חטיבת הנח""ל 28, חדרה","חטיבת הנח""ל 28",10403-232-10,דירה בבית קומות,4.0,שישית,130.0,,,,1995.0,,4.0,7881278275,1,10403232,False,,חדרה,"חטיבת הנח""ל",,10403-232-10,10403/232,,32.4305251404,34.9374937404,2021
2021-11-19,2021-11-19,"שקצר 2, חדרה",שקצר 2,10061-117-11,דירה בבית קומות,4.0,שנייה ושלישית,93.21,,,,1995.0,,3.0,7882764760,1,10061117,False,54% ב 6.2 שנים,חדרה,שקצר,8.71,10061-117-11,10061/117,,32.4157585783,34.9498051312,2021
2021-11-19,2021-11-19,"אלי כהן 31, חדרה",אלי כהן 31,10572-371-1,דירה בבית קומות,3.0,קרקע,45.6,,,,1960.0,,2.0,7881011190,1,10572371,False,,חדרה,אלי כהן,,10572-371-1,10572/371,,32.4365730325,34.8839278397,2021
2021-11-18,2021-11-18,"אבשלום 1, חדרה",אבשלום 1,10041-114-1,קוטג' חד משפחתי,4.0,ראשונה,100.0,,,,1960.0,,1.0,7882551885,1,10041114,False,,חדרה,אבשלום,,10041-114-1,10041/114,,32.4279144906,34.9204599606,2021
2021-11-18,2021-11-18,"משה דיין 2, חדרה",משה דיין 2,10049-346-7,דירה בבית קומות,4.0,שניה,73.3,,,,1990.0,,9.0,7881009500,1,10049346,False,13% ב 5.2 שנים,חדרה,דיין משה,2.5,10049-346-7,10049/346,,32.4422040867,34.90876378,2021
2021-11-18,2021-11-18,"אלי כהן 36, חדרה",אלי כהן 36,10572-303-2,דירה בבית קומות,3.0,ראשונה,48.0,,,,1950.0,,3.0,7882700930,1,10572303,False,,חדרה,אלי כהן,,10572-303-2,10572/303,,32.4351999127,34.8836855482,2021
2021-11-18,2021-11-18,"הרב עובדיה יוסף 9, חדרה",הרב עובדיה יוסף 9,10049-376-15,דירה בבית קומות,3.0,רביעית,62.1,,,,1990.0,,6.0,7881107195,1,10049376,False,13% ב 9.1 שנים,חדרה,החרות,1.43,10049-376-15,10049/376,,32.4415075954,34.914402224,2021
2021-11-18,2021-11-18,"אידלווין 1, חדרה",אידלווין 1,10063-10-5,דירה בבית קומות,3.0,שלישית,78.0,,,,1990.0,,3.0,7881106155,1,1006310,False,,חדרה,אידלווין,,10063-10-5,10063/10,,32.4206553187,34.9461187306,2021
2021-11-18,2021-11-18,"ירושלים 80, חדרה",ירושלים 80,10033-89-2,קוטג' דו משפחתי,5.0,ראשונה,180.0,,,,1996.0,,1.0,7882408235,1,1003389,False,,חדרה,ירושלים,,10033-89-2,10033/89,,32.444748373,34.9291152738,2021
2021-11-18,2021-11-18,"הרברט סמואל 99, חדרה",הרברט סמואל 99,10037-525-23,דירה בבית קומות,4.0,שלישית,88.43,,,,1993.0,,5.0,7881514680,1,10037525,False,152% ב 20.9 שנים,חדרה,הרברט סמואל,7.27,10037-525-23,10037/525,,32.4355365786,34.9244047909,2021
2021-11-18,2021-11-18,"נחל צין 4, חדרה",נחל צין 4,10403-8-15,דירה בבית קומות,4.0,שניה,97.0,,,,1996.0,,7.0,7882631770,1,104038,False,,חדרה,נחל צין,,10403-8-15,10403/8,,32.4316042833,34.9374061746,2021
2021-11-18,2021-11-18,"האשד 2, חדרה",האשד 2,10062-18-11,דירה בבית קומות,2.0,קרקע,43.35,,,,1992.0,,3.0,7881041805,1,1006218,False,,חדרה,האשד,,10062-18-11,10062/18,,32.4150807633,34.9473721844,2021
2021-11-18,2021-11-18,"האפרסמון 17, חדרה",האפרסמון 17,10402-208-1,דירה בבית קומות,5.0,ראשונה,155.0,,,,2017.0,,1.0,7881415620,1,10402208,False,38% ב 5.9 שנים,חדרה,האפרסמון,6.44,10402-208-1,10402/208,,32.4282205904,34.9267734468,2021
2021-11-18,2021-11-18,"רוטשילד 68, חדרה",רוטשילד 68,10034-155-4,דירה בבית קומות,3.0,ראשונה,74.14,,,,1970.0,,5.0,7882412460,1,10034155,False,50% ב 9.3 שנים,חדרה,רוטשילד,5.38,10034-155-4,10034/155,,32.440511359,34.9225105732,2021
2021-11-18,2021-11-18,"ארלוזורוב 1, חדרה",ארלוזורוב 1,10032-439-133,דירה בבית קומות,4.0,שישית,100.0,,,,2016.0,,14.0,7881133455,1,10032439,False,,חדרה,ארלוזורוב,,10032-439-133,10032/439,,32.4379158033,34.9280366031,2021
2021-11-17,2021-11-17,"יהושע חנקין 20, חדרה",יהושע חנקין 20,10035-158-9,דירה בבית קומות,4.0,שניה,111.44,,,,1970.0,,2.0,7880943590,1,10035158,False,,חדרה,חנקין יהושע,,10035-158-9,10035/158,,32.4424532469,34.9199640859,2021
2021-11-17,2021-11-17,"הצוקים 12, חדרה",הצוקים 12,12795-27-65,דירה בבית קומות,5.0,עשירית,140.0,,1.0,AQUA PRIME,2016.0,,18.0,7882131400,1,1279527,False,,חדרה,הצוקים,,12795-27-65,12795/27,,32.4296406258,34.8839853153,2021
2021-11-17,2021-11-17,"הרב קוק 12, חדרה",הרב קוק 12,10035-414-14,דירה בבית קומות,3.0,שלישית,58.12,,,,1970.0,,4.0,7881432195,1,10035414,False,,חדרה,הרב קוק,,10035-414-14,10035/414,,32.4416429819,34.9193150528,2021
2021-11-17,2021-11-17,"אחד העם 17, חדרה",אחד העם 17,10036-126-28,דירה בבית קומות,5.0,שישית,110.43,,,,2012.0,,8.0,7882725110,1,10036126,False,2% ב 9.7 שנים,חדרה,אחד העם,0.21,10036-126-28,10036/126,,32.4354024029,34.9180048239,2021
2021-11-17,2021-11-17,"הנשיא ויצמן 25, חדרה",הנשיא ויצמן 25,10035-408-8,דירה בבית קומות,3.0,ראשונה,67.0,,,,1960.0,,4.0,7880835300,1,10035408,False,19% ב 6.2 שנים,חדרה,הנשיא ויצמן,3.06,10035-408-8,10035/408,,32.4401394053,34.9193425486,2021
2021-11-17,2021-11-17,"הדודאים 1, חדרה",הדודאים 1,12795-29-32,דירה בבית קומות,5.0,שמונה עשרה,154.0,,,,2013.0,,19.0,7881011710,1,1279529,False,,חדרה,הדודאים,,12795-29-32,12795/29,,32.4295893826,34.8849348373,2021
2021-11-17,2021-11-17,"רמב""ם 13, חדרה","רמב""ם 13",10036-525-28,דירה בבית קומות,3.0,שלישית,67.0,,,,1970.0,,4.0,7881087370,1,10036525,False,,חדרה,"רמב""ם",,10036-525-28,10036/525,,32.4359835946,34.9128428888,2021
2021-11-17,2021-11-17,"הצוקים 12, חדרה",הצוקים 12,12795-27-64,דירה בבית קומות,5.0,שמינית,142.0,,1.0,AQUA PRIME,2016.0,,18.0,7882124965,1,1279527,False,,חדרה,הצוקים,,12795-27-64,12795/27,,32.4296406258,34.8839853153,2021
2021-11-16,2021-11-16,"מקווה ישראל 11, חדרה",מקווה ישראל 11,10036-359-2,קוטג' דו משפחתי,3.0,קרקע,84.92,,,,1950.0,,,7882448925,1,10036359,False,191% ב 13.3 שנים,חדרה,מקוה ישראל,14.36,10036-359-2,10036/359,,32.4339962778,34.9143623688,2021
2021-11-16,2021-11-16,"הגיבורים 52, חדרה",הגיבורים 52,10037-96-53,דירה בבית קומות,4.0,שישית,96.59,,,,1970.0,,9.0,7882134130,1,1003796,False,,חדרה,הגבורים,,10037-96-53,10037/96,,32.4341398881,34.922679429,2021
2021-11-16,2021-11-16,"הרברט סמואל 29, חדרה",הרברט סמואל 29,10036-217-10,משרד,,קומה ‎1‏,68.4,,,,1998.0,,8.0,7882423640,1,10036217,False,28% ב 23.5 שנים,חדרה,הרברט סמואל,1.19,10036-217-10,10036/217,,32.4382936055,34.9144132283,2021
2021-11-16,2021-11-16,"העבודה 21, חדרה",העבודה 21,10041-54-2,קוטג' חד משפחתי,5.0,ראשונה,214.0,,,,1990.0,,1.0,7882020965,1,1004154,False,,חדרה,העבודה,,10041-54-2,10041/54,,32.4274745662,34.9172005663,2021
2021-11-16,2021-11-16,"הצוקים 12, חדרה",הצוקים 12,12795-27-63,דירה בבית קומות,5.0,שלוש עשרה,144.0,,1.0,AQUA PRIME,2016.0,,18.0,7882094480,1,1279527,False,,חדרה,הצוקים,,12795-27-63,12795/27,,32.4296406258,34.8839853153,2021
2021-11-16,2021-11-16,"הצוקים 12, חדרה",הצוקים 12,12795-27-62,דירה בבית קומות,5.0,שתים עשרה,140.0,,1.0,AQUA PRIME,2016.0,,18.0,7882088565,1,1279527,False,,חדרה,הצוקים,,12795-27-62,12795/27,,32.4296406258,34.8839853153,2021
2021-11-16,2021-11-16,"הצוקים 12, חדרה",הצוקים 12,12795-27-61,דירה בבית קומות,4.0,שלישית,124.0,,1.0,AQUA PRIME,2016.0,,18.0,7881094845,1,1279527,False,,חדרה,הצוקים,,12795-27-61,12795/27,,32.4296406258,34.8839853153,2021
2021-11-16,2021-11-16,"הצוקים 12, חדרה",הצוקים 12,12795-27-60,דירה בבית קומות,5.0,רביעית,105.0,,1.0,AQUA PRIME,2016.0,,18.0,7882075695,1,1279527,False,,חדרה,הצוקים,,12795-27-60,12795/27,,32.4296406258,34.8839853153,2021
2021-11-16,2021-11-16,"הקידה 21, חדרה",הקידה 21,10063-48-7,דירה בבית קומות,4.0,ראשונה,76.1,,,,1995.0,,2.0,7880901340,1,1006348,False,25% ב 6.5 שנים,חדרה,הקידה,3.85,10063-48-7,10063/48,,32.4211111443,34.9465808978,2021
2021-11-16,2021-11-16,"הפלג 11, חדרה",הפלג 11,10061-119-13,דירה בבית קומות,3.0,קרקע,76.1,,,,1991.0,,2.0,7881616080,1,10061119,False,205% ב 7.9 שנים,חדרה,הפלג,25.95,10061-119-13,10061/119,,32.417963353,34.949190426,2021
2021-11-16,2021-11-16,"יש""י 34, חדרה","יש""י 34",10008-301-1,קוטג' חד משפחתי,5.0,ראשונה,160.0,,,,1995.0,,,7880946840,1,10008301,False,,חדרה,"יש""י",,10008-301-1,10008/301,,32.4462464806,34.8894790511,2021
2021-11-15,2021-11-15,"הרצל 53, חדרה",הרצל 53,10036-31-30,דירה בבית קומות,6.0,"שישית, שביעית",131.0,,,,1995.0,,6.0,7880928055,1,1003631,False,,חדרה,הרצל,,10036-31-30,10036/31,,32.4391664733,34.9192297744,2021
2021-11-15,2021-11-15,"הרברט סמואל 41, חדרה",הרברט סמואל 41,10036-188-24,דירה בבית קומות,5.0,חמישית,97.0,,1.0,,2012.0,,5.0,7882319185,1,10036188,False,,חדרה,הרברט סמואל,,10036-188-24,10036/188,,32.4377915702,34.915802109,2021
2021-11-15,2021-11-15,"הצוקים 12, חדרה",הצוקים 12,12795-27-122,דירה בבית קומות,5.0,שישית,124.0,,,,2016.0,,18.0,7881359200,1,1279527,False,,חדרה,הצוקים,,12795-27-122,12795/27,,32.4296406258,34.8839853153,2021
2021-11-15,2021-11-15,"הצוקים 12, חדרה",הצוקים 12,12795-27-59,דירה,5.0,,124.0,,1.0,AQUA PRIME,2016.0,,18.0,11181187185,1,1279527,False,,חדרה,הצוקים,,12795-27-59,12795/27,,32.4296406258,34.8839853153,2021
2021-11-15,2021-11-15,"יצחק בן-צבי 8, חדרה",יצחק בן-צבי 8,10041-430-30,דירה בבית קומות,3.0,שלישית,59.5,,,,1970.0,,3.0,7880907255,1,10041430,False,,חדרה,בן צבי יצחק,,10041-430-30,10041/430,,32.4271048799,34.915734351,2021
2021-11-15,2021-11-15,"הנצי""ב 10, חדרה","הנצי""ב 10",10054-201-16,דירה בבית קומות,3.0,רביעית,59.42,,,,1970.0,,4.0,7880871700,1,10054201,False,5% ב 4.7 שנים,חדרה,"הנצי""ב",1.06,10054-201-16,10054/201,,32.438077002,34.9082031926,2021
2021-11-15,2021-11-15,"הרצל 25, חדרה",הרצל 25,10036-48-63,דירה בבית קומות,5.0,שניה,131.0,,,,2018.0,,,7881291665,1,1003648,False,,חדרה,הרצל,,10036-48-63,10036/48,,,,2021
2021-11-15,2021-11-15,"פיק""א 10, חדרה","פיק""א 10",10032-377-30,דירה בבית קומות,3.0,רביעית,52.3,,,,1960.0,,4.0,7880748915,1,10032377,False,96% ב 22 שנים,חדרה,"פיק""א",4.36,10032-377-30,10032/377,,32.4354182181,34.9291815599,2021
2021-11-14,2021-11-14,"ניצנים 1, חדרה",ניצנים 1,10031-17-175,דירה בבית קומות,4.0,שמינית,116.0,,,,2018.0,,12.0,7881317405,1,1003117,False,,חדרה,ניצנים,,10031-17-175,10031/17,,32.4327245907,34.9437183605,2021
2021-11-14,2021-11-14,"שבטי ישראל 14, חדרה",שבטי ישראל 14,10572-261-2,דירה בבית קומות,3.0,ראשונה,35.0,,,,1960.0,,2.0,7880624570,1,10572261,False,104% ב 10.5 שנים,חדרה,שבטי ישראל,9.9,10572-261-2,10572/261,,32.4329501287,34.8864362747,2021
2021-11-14,2021-11-14,"הנשיא ויצמן 7, חדרה",הנשיא ויצמן 7,10035-9-3,קרקע למגורים,,,1575.0,,,,1988.0,,1.0,7882980300,1,100359,False,,חדרה,הנשיא ויצמן,,10035-9-3,10035/9,,32.4409135825,34.916680257,2021
2021-11-14,2021-11-14,"ביאליק 44, חדרה",ביאליק 44,10041-420-4,דירה בבית קומות,4.0,ראשונה,66.45,,,,1994.0,,6.0,7880706600,1,10041420,False,111% ב 13.3 שנים,חדרה,ביאליק,8.35,10041-420-4,10041/420,,32.4319555729,34.9172667021,2021
2021-11-14,2021-11-14,"הנגב 38, חדרה",הנגב 38,10570-211-3,דירה בבית קומות,2.0,שניה,33.95,,,,1960.0,,2.0,7880902315,1,10570211,False,16% ב 1.3 שנים,חדרה,הנגב,12.31,10570-211-3,10570/211,,32.4422794956,34.8824555667,2021
2021-11-14,2021-11-14,"שפאק 5, חדרה",שפאק 5,10062-4-36,דירה בבית קומות,3.0,שניה,63.9,,,,1992.0,,3.0,7880721095,1,100624,False,16% ב 1.9 שנים,חדרה,שפאק,8.42,10062-4-36,10062/4,,32.4181720412,34.9454235974,2021
2021-11-12,2021-12-11,"התאנים 16, חדרה",התאנים 16,7730-23-2,קרקע למגורים,,-,31.25,,,,1960.0,,2.0,7933259685,1,773023,False,60% ב 11.1 שנים,חדרה,התאנים,5.41,7730-23-2,7730/23,,32.4197882766,34.9502638296,2021
2021-11-11,2021-11-11,"גורדון 10, חדרה",גורדון 10,10037-68-11,דירה בבית קומות,4.0,שלישית,101.64,,,,1980.0,,7.0,7882074135,1,1003768,False,31% ב 9 שנים,חדרה,גורדון,3.44,10037-68-11,10037/68,,32.4347866298,34.9216711984,2021
2021-11-11,2021-11-11,"הנצי""ב 6, חדרה","הנצי""ב 6",10054-199-16,דירה בבית קומות,3.0,רביעית,59.1,,,,1970.0,,4.0,7882075175,1,10054199,False,,חדרה,"הנצי""ב",,10054-199-16,10054/199,,32.4381922141,34.9074354041,2021
2021-11-11,2021-11-11,"רמב""ם 33, חדרה","רמב""ם 33",10049-172-9,דירה בבית קומות,4.0,שלישית,107.92,,,,1970.0,,3.0,7881013335,1,10049172,False,45% ב 7.2 שנים,חדרה,"רמב""ם",6.25,10049-172-9,10049/172,,32.438557337,34.9137316898,2021
2021-11-11,2021-11-11,"יצחק (כושי) עפגין 1, חדרה",יצחק (כושי) עפגין 1,10049-401-11,דירה בבית קומות,4.0,שלישית,98.1,,,,1998.0,,7.0,7880968810,1,10049401,False,23% ב 8.7 שנים,חדרה,עפגין יצחק,2.64,10049-401-11,10049/401,,32.4420277575,34.9148573361,2021
2021-11-11,2021-11-11,"אלי כהן 33, חדרה",אלי כהן 33,10572-371-61,דירה בבית קומות,2.0,קרקע,46.0,,,,1960.0,,2.0,7882187820,1,10572371,False,,חדרה,אלי כהן,,10572-371-61,10572/371,,32.4365730325,34.8839278397,2021
2021-11-11,2021-11-11,"נהלל 3, חדרה",נהלל 3,10038-66-41,דירה בבית קומות,4.0,שלישית,81.5,,,,1995.0,,8.0,7880974205,1,1003866,False,,חדרה,נהלל,,10038-66-41,10038/66,,32.4322876635,34.9319954697,2021
2021-11-11,2021-11-11,"הנשיא ויצמן 66, חדרה",הנשיא ויצמן 66,10037-345-10,דירה בבית קומות,2.0,קרקע,47.18,,,,1995.0,,7.0,7882819945,1,10037345,False,,חדרה,הנשיא ויצמן,,10037-345-10,10037/345,,32.4379892142,34.9241241361,2021
2021-11-10,2021-10-11,"הרב עוזיאל 2, חדרה",הרב עוזיאל 2,10049-431-35,דירה בבית קומות,4.0,שניה,90.0,,,,2000.0,,9.0,7878994825,1,10049431,False,,חדרה,הרב עוזיאל,,10049-431-35,10049/431,,32.4412722758,34.9117874901,2021
2021-11-10,2021-10-11,"עצמון 62, חדרה",עצמון 62,10062-132-2,קוטג' דו משפחתי,5.0,קרקע וראשונה,114.0,,,,1992.0,,,7879471080,1,10062132,False,,חדרה,עצמון,,10062-132-2,10062/132,,32.4136305424,34.9477158162,2021
2021-11-10,2021-10-11,"השקמה 78, חדרה",השקמה 78,10058-21-12,דירה בבית קומות,4.0,שניה,93.0,,,,1992.0,,2.0,7879004965,1,1005821,False,,חדרה,השקמה,,10058-21-12,10058/21,,32.4217439111,34.9566747221,2021
2021-11-10,2021-10-11,"טביב 3, חדרה",טביב 3,10033-36-5,דירה בבית קומות,5.0,ראשונה,156.0,,,,1950.0,2009.0,1.0,7879618045,1,1003336,False,,חדרה,טביב,,10033-36-5,10033/36,,32.4464699438,34.9259694448,2021
2021-11-10,2021-10-11,"חטיבת הנח""ל 6, חדרה","חטיבת הנח""ל 6",10038-92-11,דירה בבית קומות,4.0,שלישית,84.9,,,,2011.0,,8.0,7879055470,1,1003892,False,,חדרה,"חטיבת הנח""ל",,10038-92-11,10038/92,,32.4315414126,34.9308328604,2021
2021-11-10,2021-10-11,"נחל פרת 4, חדרה",נחל פרת 4,10031-61-29,דירה בבית קומות,3.0,שביעית,80.36,,,,2005.0,,9.0,7879293565,1,1003161,False,,חדרה,נחל פרת,,10031-61-29,10031/61,,32.4336115966,34.9401705586,2021
2021-11-08,2021-08-11,"נחל רמון 4, חדרה",נחל רמון 4,10403-97-64,דירה בבית קומות,4.0,חמישית,100.0,,,,2016.0,,7.0,7876831690,1,1040397,False,,חדרה,נחל רמון,,10403-97-64,10403/97,,32.4299792836,34.9371314926,2021
2021-11-08,2021-08-11,"נחומובסקי 4, חדרה",נחומובסקי 4,10042-139-2,קוטג' דו משפחתי,5.0,קרקע + ראשונה,137.28,,,,1990.0,,,7876710400,1,10042139,False,25% ב 6.6 שנים,חדרה,נחומובסקי,3.79,10042-139-2,10042/139,,32.434640234,34.9108278493,2021
2021-11-08,2021-08-11,"לכיש 10, חדרה",לכיש 10,10403-224-86,דירה בבית קומות,4.0,שניה,108.0,,,,2016.0,,18.0,7876416600,1,10403224,False,,חדרה,לכיש,,10403-224-86,10403/224,,32.4282816211,34.9365593291,2021
2021-11-08,2021-08-11,"יצחק רבין 39, חדרה",יצחק רבין 39,10037-513-70,דירה בבית קומות,3.0,ראשונה,64.0,,,,1998.0,,8.0,7876415560,1,10037513,False,176% ב 14.7 שנים,חדרה,רבין יצחק,11.97,10037-513-70,10037/513,,32.4321346986,34.9245402495,2021
2021-11-07,2021-07-11,"הרברט סמואל 93, חדרה",הרברט סמואל 93,10037-494-13,דירה בבית קומות,3.0,ראשונה,85.61,,,,1960.0,,3.0,7875000380,1,10037494,False,180% ב 15.8 שנים,חדרה,הרברט סמואל,11.39,10037-494-13,10037/494,,32.4357243464,34.9234949485,2021
2021-11-07,2021-07-11,"אהרונסון 45, חדרה",אהרונסון 45,10009-349-2,קוטג' חד משפחתי,6.0,ראשונה,170.0,,,,1970.0,,1.0,7874817535,1,10009349,False,,חדרה,אהרונסון,,10009-349-2,10009/349,,32.4457607347,34.9001852632,2021
2021-11-07,2021-07-11,"הפלג 7, חדרה",הפלג 7,10061-120-11,דירה בבית קומות,4.0,קרקע,79.4,,,,1993.0,,2.0,7874924200,1,10061120,False,,חדרה,הפלג,,10061-120-11,10061/120,,32.417436568,34.9496321395,2021
2021-11-07,2021-07-11,"העלייה הראשונה 6, חדרה",העלייה הראשונה 6,10037-45-13,דירה בבית קומות,3.0,שלישית,75.0,,,,1995.0,,4.0,7875857275,1,1003745,False,,חדרה,העליה הראשונה,,10037-45-13,10037/45,,32.4357536674,34.9240910082,2021
2021-11-06,2021-06-11,"סלוצקין 3, חדרה",סלוצקין 3,10062-50-2,קוטג' דו משפחתי,5.0,קרקע וראשונה,122.35,,,,1995.0,,,7873602815,1,1006250,False,,חדרה,סלוצקין,,10062-50-2,10062/50,,32.4177850237,34.9450395583,2021
2021-11-06,2021-06-11,"משה דיין 10, חדרה",משה דיין 10,10049-348-38,דירה בבית קומות,4.0,רביעית,73.1,,,,1985.0,,6.0,7874093565,1,10049348,False,105% ב 11.1 שנים,חדרה,דיין משה,9.46,10049-348-38,10049/348,,32.4433679846,34.9099927419,2021
2021-11-05,2021-05-11,"נחל פרת 8, חדרה",נחל פרת 8,10031-61-104,דירה בבית קומות,3.0,שמינית,79.2,,,,1999.0,,9.0,7871738875,1,1003161,False,,חדרה,נחל פרת,,10031-61-104,10031/61,,32.4336115966,34.9401705586,2021
2021-11-05,2021-05-11,"הרצל 23, חדרה",הרצל 23,10036-120-24,דירה בבית קומות,3.0,שלישית,61.05,,,,1990.0,,6.0,7871491225,1,10036120,False,,חדרה,הרצל,,10036-120-24,10036/120,,32.4361021797,34.9182323774,2021
2021-11-05,2021-05-11,"הרצל 23, חדרה",הרצל 23,10036-120-30,דירה בבית קומות,3.0,רביעית,61.05,,,,1990.0,,6.0,7871464315,1,10036120,False,1% ב 4 שנים,חדרה,הרצל,0.25,10036-120-30,10036/120,,32.4361021797,34.9182323774,2021
2021-11-05,2021-05-11,"הרב קוק 44, חדרה",הרב קוק 44,10035-351-2,דירה בבית קומות,5.0,קרקע ראשונה,139.54,,,,1989.0,,,7871517875,1,10035351,False,,חדרה,הרב קוק,,10035-351-2,10035/351,,32.4449049023,34.920344765,2021
2021-11-05,2021-05-11,"אלי כהן 31, חדרה",אלי כהן 31,10572-371-14,דירה בבית קומות,2.0,קרקע,46.0,,,,1960.0,,2.0,7871435390,1,10572371,False,,חדרה,אלי כהן,,10572-371-14,10572/371,,32.4365730325,34.8839278397,2021
2021-11-05,2021-05-11,"רחבעם זאבי 1, חדרה",רחבעם זאבי 1,10011-46-421,דירת נופש,3.0,רביעית,48.2,,,,1998.0,,7.0,7871523270,1,1001146,False,,חדרה,רחבעם זאבי,,10011-46-421,10011/46,,32.4449177945,34.8796665649,2021
2021-11-05,2021-05-11,"נחל רמון 6, חדרה",נחל רמון 6,10403-96-78,דירה בבית קומות,5.0,שניה,171.0,,,,2016.0,,8.0,7871596785,1,1040396,False,,חדרה,נחל רמון,,10403-96-78,10403/96,,32.4292285686,34.9379913791,2021
2021-11-04,2021-04-11,"הירדן 7, חדרה",הירדן 7,10403-110-10,דירה בבית קומות,5.0,שניה,121.0,,,,2013.0,,9.0,7869713020,1,10403110,False,31% ב 9.2 שנים,חדרה,הירדן,3.37,10403-110-10,10403/110,,32.4291363656,34.9307877847,2021
2021-11-04,2021-04-11,"אלכסנדר 8, חדרה",אלכסנדר 8,10402-312-6,דירה בבית קומות,4.0,ראשונה,108.75,,,,2009.0,,9.0,7869819100,1,10402312,False,,חדרה,אלכסנדר,,10402-312-6,10402/312,,32.4263670396,34.9254347976,2021
2021-11-04,2021-04-11,"הדודאים 1, חדרה",הדודאים 1,12795-29-29,דירה בבית קומות,5.0,רביעית,120.0,,,,2013.0,,19.0,7869900610,1,1279529,False,,חדרה,הדודאים,,12795-29-29,12795/29,,32.4295893826,34.8849348373,2021
2021-11-03,2021-03-11,"לכיש 2, חדרה",לכיש 2,10403-236-119,דירה בבית קומות,4.0,ארבע עשרה,100.0,,,,2018.0,,17.0,7869210570,1,10403236,False,,חדרה,לכיש,,10403-236-119,10403/236,,32.4294056615,34.9366635683,2021
2021-11-03,2021-03-11,"האלה 16, חדרה",האלה 16,10032-165-2,דירה בבית קומות,5.0,ראשונה,118.0,,,,1990.0,,1.0,7868948750,1,10032165,False,,חדרה,האלה,,10032-165-2,10032/165,,32.4371653357,34.9318764115,2021
2021-11-03,2021-03-11,"האשור 1, חדרה",האשור 1,10032-440-27,דירה בבית קומות,5.0,שניה,127.0,,,,2021.0,,5.0,7869248465,1,10032440,False,,חדרה,האשור,,10032-440-27,10032/440,,32.4377419394,34.928576558,2021
2021-11-03,2021-03-11,"הקידה 11, חדרה",הקידה 11,10063-52-2,דירה בבית קומות,4.0,קרקע,78.4,,,,1992.0,,3.0,7869199780,1,1006352,False,7% ב 2 שנים,חדרה,הקידה,3.5,10063-52-2,10063/52,,32.4197884713,34.9476567539,2021
2021-11-03,2021-03-11,"דקל הדום 11, חדרה",דקל הדום 11,10402-461-27,דירה בבית קומות,5.0,קומה ‎7‏,126.2,,,,2016.0,,14.0,7868787355,1,10402461,False,8% ב 4.5 שנים,חדרה,דקל הדום,1.78,10402-461-27,10402/461,,32.425957194,34.9248172541,2021
2021-11-03,2021-03-11,"שקצר 12, חדרה",שקצר 12,10061-78-1,קוטג' דו משפחתי,5.0,קרקע וראשונה,116.23,,,,1991.0,,2.0,7868747705,1,1006178,False,,חדרה,שקצר,,10061-78-1,10061/78,,32.415706995,34.9489386693,2021
2021-11-03,2021-03-11,"חוט השני 5, חדרה",חוט השני 5,12794-16-64,דירה בבית קומות,5.0,שלוש עשרה,138.0,,,,2009.0,,16.0,7868613610,1,1279416,False,,חדרה,חוט השני,,12794-16-64,12794/16,,32.4306203115,34.8829949096,2021
2021-11-03,2021-03-11,"הדודאים 1, חדרה",הדודאים 1,12795-29-24,דירה בבית קומות,4.0,שש עשרה,116.0,,,,2013.0,,19.0,7869088305,1,1279529,False,,חדרה,הדודאים,,12795-29-24,12795/29,,32.4295893826,34.8849348373,2021
2021-11-02,2021-02-11,"נערן 2, חדרה",נערן 2,10012-24-20,קוטג' חד משפחתי,5.0,ראשונה,184.0,,,,2017.0,,1.0,7867358785,1,1001224,False,,חדרה,נערן,,10012-24-20,10012/24,,,,2021
2021-11-02,2021-02-11,"מלחמת ששת הימים 13, חדרה",מלחמת ששת הימים 13,10036-501-41,דירה בבית קומות,4.0,ראשונה,82.0,,,,1995.0,,8.0,7867176460,1,10036501,False,,חדרה,מלחמת ששת הימים,,10036-501-41,10036/501,,32.4386097474,34.9151490561,2021
2021-11-02,2021-02-11,"הרב קוק 37, חדרה",הרב קוק 37,10035-468-4,קוטג' דו משפחתי,6.0,ראשונה,156.0,,,,2009.0,,1.0,7868290885,1,10035468,False,,חדרה,הרב קוק,,10035-468-4,10035/468,,32.4443763419,34.9195311115,2021
2021-11-01,2021-01-11,"הנצי""ב 8, חדרה","הנצי""ב 8",10054-200-32,דירה בבית קומות,4.0,שמינית,71.28,,,,1970.0,,8.0,7865710970,1,10054200,False,,חדרה,"הנצי""ב",,10054-200-32,10054/200,,32.4381409989,34.9077811311,2021
2021-11-01,2021-01-11,"הבנים 7, חדרה",הבנים 7,10036-377-12,דירה בבית קומות,4.0,קומה ‎6‏,120.0,,,,2016.0,,6.0,8061017380,1,10036377,False,,חדרה,הבנים,,10036-377-12,10036/377,,32.4378960759,34.9201797556,2021
2021-11-01,2021-01-11,"ד""ר אביאור 59, חדרה","ד""ר אביאור 59",10035-73-12,קוטג' דו משפחתי,6.0,ראשונה,198.0,,,,1940.0,2021.0,1.0,7866675635,1,1003573,False,,חדרה,"ד""ר אביאור",,10035-73-12,10035/73,,32.4448329499,34.9232790239,2021
2021-10-31,2021-10-31,"הצוקים 12, חדרה",הצוקים 12,12795-27-54,דירה בבית קומות,5.0,תשיעית,142.0,,1.0,AQUA PRIME,2016.0,,18.0,7881789305,1,1279527,False,,חדרה,הצוקים,,12795-27-54,12795/27,,32.4296406258,34.8839853153,2021
2021-10-31,2021-10-31,"חטיבת הנח""ל 6, חדרה","חטיבת הנח""ל 6",10038-92-15,דירה בבית קומות,4.0,רביעית,84.9,,,,2011.0,,8.0,7880127450,1,1003892,False,,חדרה,"חטיבת הנח""ל",,10038-92-15,10038/92,,32.4315414126,34.9308328604,2021
2021-10-31,2021-10-31,"הצוקים 12, חדרה",הצוקים 12,12795-27-55,דירה,5.0,שתים עשרה,140.0,,1.0,AQUA PRIME,2016.0,,18.0,7880279615,1,1279527,False,,חדרה,הצוקים,,12795-27-55,12795/27,,32.4296406258,34.8839853153,2021
2021-10-31,2021-10-31,"ניצנים 2, חדרה",ניצנים 2,10031-17-205,דירת גן,5.0,ראשונה,175.0,,,,2018.0,,12.0,7879865760,1,1003117,False,,חדרה,ניצנים,,10031-17-205,10031/17,,32.4327245907,34.9437183605,2021
2021-10-31,2021-10-31,"הצוקים 12, חדרה",הצוקים 12,12795-27-52,דירה בבית קומות,5.0,עשירית,140.0,,1.0,AQUA PRIME,2016.0,,18.0,7880640170,1,1279527,False,,חדרה,הצוקים,,12795-27-52,12795/27,,32.4296406258,34.8839853153,2021
2021-10-31,2021-10-31,"הנצי""ב 8, חדרה","הנצי""ב 8",10054-200-7,דירה בבית קומות,4.0,שניה,70.45,,,,1970.0,,8.0,7879975675,1,10054200,False,10% ב 3.7 שנים,חדרה,"הנצי""ב",2.7,10054-200-7,10054/200,,32.4381409989,34.9077811311,2021
2021-10-31,2021-10-31,"הצוקים 12, חדרה",הצוקים 12,12795-27-53,דירה,5.0,,125.0,,1.0,AQUA PRIME,2016.0,,18.0,11181187184,1,1279527,False,,חדרה,הצוקים,,12795-27-53,12795/27,,32.4296406258,34.8839853153,2021
2021-10-31,2021-10-31,"הגיבורים 68, חדרה",הגיבורים 68,10037-42-31,דירה בבית קומות,5.0,ראשונה,109.83,,,,1970.0,,6.0,7879864720,1,1003742,False,,חדרה,הגבורים,,10037-42-31,10037/42,,32.4361546142,34.9233236412,2021
2021-10-31,2021-10-31,"מנחם בגין 6, חדרה",מנחם בגין 6,10008-360-26,דירה בבית קומות,5.0,שביעית,151.0,,,,2014.0,,6.0,7880036320,1,10008360,False,,חדרה,בגין מנחם,,10008-360-26,10008/360,,32.4435388122,34.881643667,2021
2021-10-31,2021-10-31,"אלכסנדר 4, חדרה",אלכסנדר 4,10402-311-62,דירה בבית קומות,5.0,שישית,110.35,,,,2006.0,,9.0,7880018055,1,10402311,False,,חדרה,אלכסנדר,,10402-311-62,10402/311,,32.4265556462,34.9245070237,2021
2021-10-31,2021-10-31,"חטיבת הנח""ל 27, חדרה","חטיבת הנח""ל 27",10403-2-17,דירה בבית קומות,3.0,תשיעית,81.0,,,,1995.0,,6.0,7880376790,1,104032,False,,חדרה,"חטיבת הנח""ל",,10403-2-17,10403/2,,32.43161084,34.9340627231,2021
2021-10-31,2021-10-31,"מיכאל חזני 6, חדרה",מיכאל חזני 6,10041-364-9,דירה בבית קומות,3.0,שניה,58.5,,,,1970.0,,3.0,7880165020,1,10041364,False,,חדרה,חזני מיכאל,,10041-364-9,10041/364,,32.4292165997,34.9171268381,2021
2021-10-31,2021-10-31,"הצוקים 12, חדרה",הצוקים 12,12795-27-50,דירה בבית קומות,5.0,רביעית,124.0,,1.0,AQUA PRIME,2016.0,,18.0,7880572570,1,1279527,False,,חדרה,הצוקים,,12795-27-50,12795/27,,32.4296406258,34.8839853153,2021
2021-10-31,2021-10-31,"חוט השני 7, חדרה",חוט השני 7,12795-26-11,דירה בבית קומות,4.0,חמש עשרה,116.0,,,,2012.0,,9.0,7880387515,1,1279526,False,,חדרה,חוט השני,,12795-26-11,12795/26,,32.4307567986,34.884039055,2021
2021-10-31,2021-10-31,"יצחק בן-צבי 8, חדרה",יצחק בן-צבי 8,10041-430-1,דירה בבית קומות,3.0,ראשונה,44.4,,,,1970.0,,3.0,7879874405,1,10041430,False,15% ב 1.5 שנים,חדרה,בן צבי יצחק,10.0,10041-430-1,10041/430,,32.4271048799,34.915734351,2021
2021-10-31,2021-10-31,"אחד העם 16, חדרה",אחד העם 16,10036-167-36,דירה בבית קומות,5.0,חמישית,122.13,,,,1980.0,,7.0,7879868490,1,10036167,False,30% ב 6.4 שנים,חדרה,אחד העם,4.69,10036-167-36,10036/167,,32.4341426204,34.9194775185,2021
2021-10-31,2021-10-31,"הצוקים 12, חדרה",הצוקים 12,12795-27-51,דירה בבית קומות,5.0,חמישית,140.0,,1.0,AQUA PRIME,2016.0,,18.0,7880986620,1,1279527,False,,חדרה,הצוקים,,12795-27-51,12795/27,,32.4296406258,34.8839853153,2021
2021-10-31,2021-10-31,"לכיש 10, חדרה",לכיש 10,10403-224-89,דירה בבית קומות,4.0,שלישית,108.0,,,,2016.0,,18.0,7880836990,1,10403224,False,,חדרה,לכיש,,10403-224-89,10403/224,,32.4282816211,34.9365593291,2021
2021-10-31,2021-10-31,"הירדן 10, חדרה",הירדן 10,10402-438-51,דירה בבית קומות,5.0,שניה,118.0,,,,2014.0,,7.0,7880022280,1,10402438,False,,חדרה,הירדן,,10402-438-51,10402/438,,32.4277756262,34.9293909756,2021
2021-10-30,2021-10-30,"עירית 19, חדרה",עירית 19,10063-65-4,קוטג' דו משפחתי,4.0,קרקע ראשונה,113.4,,,,1992.0,,2.0,7881657355,1,1006365,False,,חדרה,עירית,,10063-65-4,10063/65,,32.4208781517,34.9484362994,2021
2021-10-30,2021-10-30,"הירדן 10, חדרה",הירדן 10,10402-438-22,,5.0,שניה,118.0,,1.0,חלומות פארק חדרה,2014.0,,7.0,11181172432,1,10402438,False,,חדרה,הירדן,,10402-438-22,10402/438,,32.4277756262,34.9293909756,2021
2021-10-29,2021-10-29,"תרנ""א 49, חדרה","תרנ""א 49",10037-457-9,דירה בבית קומות,3.0,שניה,59.65,,,,1950.0,,2.0,7879846455,1,10037457,False,39% ב 9.6 שנים,חדרה,"תרנ""א",4.06,10037-457-9,10037/457,,32.4368536828,34.9246362759,2021
2021-10-29,2021-10-29,"הצוקים 12, חדרה",הצוקים 12,12795-27-49,דירה בבית קומות,5.0,שלישית,140.0,,1.0,AQUA PRIME,2016.0,,18.0,7880558010,1,1279527,False,,חדרה,הצוקים,,12795-27-49,12795/27,,32.4296406258,34.8839853153,2021
2021-10-29,2021-10-29,"יצחק רבין 35, חדרה",יצחק רבין 35,10037-513-125,דירה בבית קומות,3.0,שביעית,64.0,,,,1999.0,,8.0,7880423915,1,10037513,False,40% ב 7.8 שנים,חדרה,רבין יצחק,5.13,10037-513-125,10037/513,,32.4321346986,34.9245402495,2021
2021-10-28,2021-10-28,"האיקליפטוס 10, חדרה",האיקליפטוס 10,10032-23-2,קוטג' חד משפחתי,5.0,ראשונה,179.0,,,,1980.0,,1.0,7879850680,1,1003223,False,,חדרה,האקליפטוס,,10032-23-2,10032/23,,32.4388083695,34.9309668912,2021
2021-10-28,2021-10-28,"הלל יפה 16, חדרה",הלל יפה 16,10036-441-15,דירה בבית קומות,3.0,שלישית,71.97,,,,1969.0,,3.0,7879896765,1,10036441,False,173% ב 13.4 שנים,חדרה,הלל יפה,12.91,10036-441-15,10036/441,,32.4357257367,34.9169312021,2021
2021-10-28,2021-10-28,"בן-גוריון 535, חדרה",בן-גוריון 535,10580-47-7,דירה בבית קומות,3.0,שניה,65.24,,,,1970.0,,4.0,7879844245,1,1058047,False,,חדרה,בן גוריון,,10580-47-7,10580/47,,32.4399726057,34.8902498991,2021
2021-10-28,2021-10-28,"הצוקים 12, חדרה",הצוקים 12,12795-27-48,דירה בבית קומות,5.0,שביעית,125.0,,,,2016.0,,18.0,7880107625,1,1279527,False,,חדרה,הצוקים,,12795-27-48,12795/27,,32.4296406258,34.8839853153,2021
2021-10-28,2021-10-28,"חוט השני 5, חדרה",חוט השני 5,12794-16-40,דירה בבית קומות,4.0,אחת עשרה,110.0,,,,2009.0,,16.0,7881057275,1,1279416,False,,חדרה,חוט השני,,12794-16-40,12794/16,,32.4306203115,34.8829949096,2021
2021-10-28,2021-10-28,"אחד העם 16, חדרה",אחד העם 16,10036-167-35,דירה בבית קומות,4.0,רביעית,82.95,,,,1980.0,,7.0,7879938755,1,10036167,False,31% ב 6.1 שנים,חדרה,אחד העם,5.08,10036-167-35,10036/167,,32.4341426204,34.9194775185,2021
2021-10-27,2021-10-27,"האתרוג 12, חדרה",האתרוג 12,10408-17-5,קוטג' דו משפחתי,6.0,"קומה ‎0‏, קומה ‎1‏",168.65,,1.0,,2021.0,,1.0,7879939275,1,1040817,False,,חדרה,האתרוג,,10408-17-5,10408/17,,32.4237186729,34.9235182076,2021
2021-10-27,2021-10-27,"האתרוג 2, חדרה",האתרוג 2,10408-12-3,קוטג' דו משפחתי,5.0,ראשונה,165.0,,,,1989.0,,1.0,7880243280,1,1040812,False,,חדרה,האתרוג,,10408-12-3,10408/12,,32.4235906411,34.9216943271,2021
2021-10-27,2021-10-27,"הצוקים 12, חדרה",הצוקים 12,12795-27-47,,5.0,שביעית,125.0,,1.0,AQUA PRIME,2016.0,,18.0,11181187183,1,1279527,False,,חדרה,הצוקים,,12795-27-47,12795/27,,32.4296406258,34.8839853153,2021
2021-10-27,2021-10-27,"תרנ""א 77, חדרה","תרנ""א 77",10034-450-9,דירה בבית קומות,4.0,קומה ‎3‏,102.6,,,,2016.0,,5.0,7879805115,1,10034450,False,,חדרה,"תרנ""א",,10034-450-9,10034/450,,32.4393218569,34.9258111139,2021
2021-10-27,2021-10-27,"הצוקים 12, חדרה",הצוקים 12,12795-27-133,דירה בבית קומות,5.0,חמישית,140.0,,,,2016.0,,18.0,7880248155,1,1279527,False,,חדרה,הצוקים,,12795-27-133,12795/27,,32.4296406258,34.8839853153,2021
2021-10-26,2021-10-26,"הצוקים 12, חדרה",הצוקים 12,12795-27-42,דירה בבית קומות,5.0,שלוש עשרה,125.0,,,,2016.0,,18.0,7880116205,1,1279527,False,,חדרה,הצוקים,,12795-27-42,12795/27,,32.4296406258,34.8839853153,2021
2021-10-26,2021-10-26,"רחבעם זאבי 2, חדרה",רחבעם זאבי 2,10011-46-179,דירת נופש,3.0,שניה,59.0,,,,1995.0,,7.0,7880034630,1,1001146,False,,חדרה,רחבעם זאבי,,10011-46-179,10011/46,,32.4449177945,34.8796665649,2021
2021-10-26,2021-10-26,"הרברט סמואל 38, חדרה",הרברט סמואל 38,10036-230-10,דירה בבית קומות,4.0,שניה,96.5,,,,1990.0,,6.0,7879792765,1,10036230,False,45% ב 7.5 שנים,חדרה,הרברט סמואל,6.0,10036-230-10,10036/230,,32.4371259785,34.9158092883,2021
2021-10-26,2021-10-26,"הצוקים 12, חדרה",הצוקים 12,12795-27-137,דירה בבית קומות,5.0,שלוש עשרה,144.0,,,,2016.0,,18.0,7880208505,1,1279527,False,,חדרה,הצוקים,,12795-27-137,12795/27,,32.4296406258,34.8839853153,2021
2021-10-26,2021-10-26,"הצוקים 12, חדרה",הצוקים 12,12795-27-44,,5.0,שמינית,125.0,,1.0,AQUA PRIME,2016.0,,18.0,11181187180,1,1279527,False,,חדרה,הצוקים,,12795-27-44,12795/27,,32.4296406258,34.8839853153,2021
2021-10-26,2021-10-26,"הצוקים 12, חדרה",הצוקים 12,12795-27-43,,5.0,שביעית,125.0,,1.0,AQUA PRIME,2016.0,,18.0,11181187179,1,1279527,False,,חדרה,הצוקים,,12795-27-43,12795/27,,32.4296406258,34.8839853153,2021
2021-10-26,2021-10-26,"הנבל 7, חדרה",הנבל 7,10042-472-51,דירה בבית קומות,4.0,שתים עשרה,103.0,,,,2014.0,,14.0,7880256150,1,10042472,False,,חדרה,הנבל,,10042-472-51,10042/472,,32.4281882464,34.9108202562,2021
2021-10-26,2021-10-26,"אדני פז 48, חדרה",אדני פז 48,12795-6-63,דירת גן,5.0,קומה ‎17‏,100.7,,,,2015.0,,23.0,7879692535,1,127956,False,71% ב 6.6 שנים,חדרה,אדני פז,10.76,12795-6-63,12795/6,,32.4313657125,34.884861299,2021
2021-10-26,2021-10-26,"תרנ""א 20, חדרה","תרנ""א 20",10038-104-103,דירה בבית קומות,4.0,תשיעית,109.0,,,,2020.0,,24.0,7880615470,1,10038104,False,,חדרה,"תרנ""א",,10038-104-103,10038/104,,32.4336925543,34.9249607702,2021
2021-10-26,2021-10-26,"הצוקים 12, חדרה",הצוקים 12,12795-27-45,,5.0,חמישית,140.0,,1.0,AQUA PRIME,2016.0,,18.0,11181187181,1,1279527,False,,חדרה,הצוקים,,12795-27-45,12795/27,,32.4296406258,34.8839853153,2021
2021-10-26,2021-10-26,"הצוקים 12, חדרה",הצוקים 12,12795-27-46,,5.0,שישית,140.0,,1.0,AQUA PRIME,2016.0,,18.0,11181187182,1,1279527,False,,חדרה,הצוקים,,12795-27-46,12795/27,,32.4296406258,34.8839853153,2021
2021-10-25,2021-10-25,"הנרייטה סאלד 2, חדרה",הנרייטה סאלד 2,10032-384-30,דירת גן,3.0,רביעית,65.1,,,,1970.0,,4.0,7879617525,1,10032384,False,50% ב 7.3 שנים,חדרה,סולד הנרייטה,6.85,10032-384-30,10032/384,,32.4344727548,34.9283836989,2021
2021-10-25,2021-10-25,"הדרור 9, חדרה",הדרור 9,10042-308-2,דירת גן,5.0,ראשונה,145.0,,,,1950.0,,1.0,7879990755,1,10042308,False,,חדרה,הדרור,,10042-308-2,10042/308,,32.4297674942,34.9097327979,2021
2021-10-25,2021-10-25,"הרצל 56, חדרה",הרצל 56,10035-122-2,קוטג' דו משפחתי,5.0,ראשונה,140.0,,,,1996.0,,,7879598220,1,10035122,False,,חדרה,הרצל,,10035-122-2,10035/122,,32.4410940497,34.9208560241,2021
2021-10-25,2021-10-25,"מהרי""ץ 4, חדרה","מהרי""ץ 4",10033-50-1,קוטג' חד משפחתי,6.0,ראשונה,99.0,,,,1983.0,,1.0,7879770795,1,1003350,False,,חדרה,"מהרי""ץ",,10033-50-1,10033/50,,32.4464455752,34.9269693176,2021
2021-10-25,2021-10-25,"רמב""ם 24, חדרה","רמב""ם 24",10036-502-13,דירה בבית קומות,4.0,רביעית,79.25,,,,1990.0,,8.0,7881063190,1,10036502,False,20% ב 6.4 שנים,חדרה,"רמב""ם",3.12,10036-502-13,10036/502,,32.4388128125,34.9145553111,2021
2021-10-25,2021-10-25,"הצוקים 12, חדרה",הצוקים 12,12795-27-40,,5.0,שלוש עשרה,125.0,,1.0,AQUA PRIME,2016.0,,18.0,11181187177,1,1279527,False,,חדרה,הצוקים,,12795-27-40,12795/27,,32.4296406258,34.8839853153,2021
2021-10-25,2021-10-25,"הצוקים 12, חדרה",הצוקים 12,12795-27-41,,5.0,שלוש עשרה,144.0,,1.0,AQUA PRIME,2016.0,,18.0,11181187178,1,1279527,False,,חדרה,הצוקים,,12795-27-41,12795/27,,32.4296406258,34.8839853153,2021
2021-10-24,2021-10-24,"הקנה 2, חדרה",הקנה 2,10037-508-1,קרקע למגורים,,,947.0,,,,,,,7881879395,1,10037508,False,,חדרה,הקנה,,10037-508-1,10037/508,,32.4292958238,34.9187873817,2021
2021-10-24,2021-10-24,"הרצל 46, חדרה",הרצל 46,10036-321-3,דירה בבית קומות,4.0,קומה ‎1‏,77.65,,,,1990.0,,6.0,7880114060,1,10036321,False,,חדרה,הרצל,,10036-321-3,10036/321,,32.4390860853,34.9201857744,2021
2021-10-24,2021-10-24,"רחבעם זאבי 1, חדרה",רחבעם זאבי 1,10011-46-14,דירת נופש,3.0,ראשונה,60.4,,,,1998.0,,7.0,7879547260,1,1001146,False,,חדרה,רחבעם זאבי,,10011-46-14,10011/46,,32.4449177945,34.8796665649,2021
2021-10-24,2021-10-24,"העגור 12, חדרה",העגור 12,10054-167-29,דירה בבית קומות,3.0,רביעית,42.9,,,,1960.0,,4.0,7879738100,1,10054167,False,,חדרה,העגור,,10054-167-29,10054/167,,32.4390768765,34.9055866578,2021
2021-10-24,2021-10-24,"שבטי ישראל 35, חדרה",שבטי ישראל 35,10572-281-5,דירה בבית קומות,3.0,ראשונה,35.0,,,,1950.0,,2.0,7880489435,1,10572281,False,,חדרה,שבטי ישראל,,10572-281-5,10572/281,,32.4327656498,34.8833607035,2021
2021-10-24,2021-10-24,"הקונגרס 11, חדרה",הקונגרס 11,10570-218-1,דירה בבית קומות,3.0,ראשונה,33.95,,,,1980.0,,2.0,7879562730,1,10570218,False,,חדרה,הקונגרס,,10570-218-1,10570/218,,32.4427267319,34.8839762285,2021
2021-10-24,2021-10-24,"ניצנים 1, חדרה",ניצנים 1,10031-17-206,דירה בבית קומות,4.0,רביעית,119.0,,,,2018.0,,12.0,7879518790,1,1003117,False,,חדרה,ניצנים,,10031-17-206,10031/17,,32.4327245907,34.9437183605,2021
2021-10-24,2021-10-24,"יגאל 43, חדרה",יגאל 43,7731-300-1,קרקע למגורים,,קרקע,178.2,,,,1970.0,,,7881197805,1,7731300,False,,חדרה,יגאל,,7731-300-1,7731/300,,32.4244811557,34.9459888192,2021
2021-10-22,2021-10-22,"גולדנברג 18, חדרה",גולדנברג 18,10035-369-4,דירה בבית קומות,7.0,קרקע וראשונה,174.34,,,,1995.0,,,7879483950,1,10035369,False,,חדרה,גולדנברג,,10035-369-4,10035/369,,32.4440762698,34.920660412,2021
2021-10-22,2021-10-22,"דקל הדום 11, חדרה",דקל הדום 11,10402-461-34,דירה בבית קומות,5.0,קומה ‎9‏,134.8,,,,2016.0,,14.0,7882386720,1,10402461,False,10% ב 8.3 שנים,חדרה,דקל הדום,1.2,10402-461-34,10402/461,,32.425957194,34.9248172541,2021
2021-10-21,2021-10-21,"קרן קיימת לישראל 29, חדרה",קרן קיימת לישראל 29,10570-292-3,דירה בבית קומות,4.0,שניה,105.0,,,,1955.0,,2.0,7880033590,1,10570292,False,,חדרה,הרב דוד משתה,,10570-292-3,10570/292,,32.4426123766,34.8858812313,2021
2021-10-21,2021-10-21,"האשור 1, חדרה",האשור 1,10032-440-23,דירה בבית קומות,5.0,ראשונה,117.0,,,,2021.0,,5.0,7880816515,1,10032440,False,,חדרה,האשור,,10032-440-23,10032/440,,32.4377419394,34.928576558,2021
2021-10-21,2021-10-21,"חטיבת הנח""ל 20, חדרה","חטיבת הנח""ל 20",10403-228-27,דירה בבית קומות,4.0,שביעית,76.5,,,,2004.0,,7.0,7879504295,1,10403228,False,,חדרה,"חטיבת הנח""ל",,10403-228-27,10403/228,,32.4306565169,34.9362256814,2021
2021-10-21,2021-10-21,"העגור 10, חדרה",העגור 10,10054-166-8,דירה בבית קומות,3.0,שניה,42.9,,,,1960.0,,4.0,7879515605,1,10054166,False,,חדרה,העגור,,10054-166-8,10054/166,,32.4391789028,34.9049758784,2021
2021-10-21,2021-10-21,"הרצל 84, חדרה",הרצל 84,10035-88-6,דירה בבית קומות,4.0,שניה,84.3,,,,1960.0,,2.0,7879565915,1,1003588,False,190% ב 21.4 שנים,חדרה,הרצל,8.88,10035-88-6,10035/88,,32.4450292324,34.9220467727,2021
2021-10-21,2021-10-21,"הרצל 43, חדרה",הרצל 43,10036-492-20,דירה בבית קומות,4.0,ראשונה,104.3,,,,1996.0,,6.0,7879867970,1,10036492,False,11% ב 2.9 שנים,חדרה,הרצל,3.79,10036-492-20,10036/492,,32.4384486066,34.9190206896,2021
2021-10-21,2021-10-21,"הלוי 37, חדרה",הלוי 37,10063-41-23,דירה בבית קומות,3.0,שניה,63.5,,,,1993.0,,3.0,7879442610,1,1006341,False,,חדרה,הלוי,,10063-41-23,10063/41,,32.4196460695,34.9469641054,2021
2021-10-20,2021-10-20,"לכיש 10, חדרה",לכיש 10,10403-224-113,דירת גן,4.0,שתים עשרה,120.0,,,,2016.0,,18.0,7880402530,1,10403224,False,,חדרה,לכיש,,10403-224-113,10403/224,,32.4282816211,34.9365593291,2021
2021-10-20,2021-10-20,"השקמה 61, חדרה",השקמה 61,10058-11-4,דירת גן,4.0,ראשונה,88.9,,,,1992.0,,2.0,7879424475,1,1005811,False,,חדרה,השקמה,,10058-11-4,10058/11,,32.4207027223,34.9564234441,2021
2021-10-20,2021-10-20,"הקידה 17, חדרה",הקידה 17,10063-48-21,דירה בבית קומות,4.0,קרקע,76.1,,,,1992.0,,2.0,7879431300,1,1006348,False,0% ב 1.6 שנים,חדרה,הקידה,0.0,10063-48-21,10063/48,,32.4211111443,34.9465808978,2021
2021-10-20,2021-10-20,"עין גב 3, חדרה",עין גב 3,10054-182-18,דירה בבית קומות,4.0,חמישית,84.6,,,,1997.0,,7.0,7879518270,1,10054182,False,,חדרה,עין גב,,10054-182-18,10054/182,,32.4382505343,34.9046286309,2021
2021-10-20,2021-10-20,"עין גב 5, חדרה",עין גב 5,10054-178-27,דירה בבית קומות,4.0,חמישית,86.5,,,,2004.0,,8.0,7879442090,1,10054178,False,,חדרה,עין גב,,10054-178-27,10054/178,,32.4382643686,34.9051330176,2021
2021-10-20,2021-10-20,"רון 8, חדרה",רון 8,10035-78-1,קרקע למגורים,,,300.0,,,,,,,7881021330,1,1003578,False,,חדרה,רון,,10035-78-1,10035/78,,32.4442771913,34.9224148938,2021
2021-10-19,2021-10-19,"הדודאים 3, חדרה",הדודאים 3,12795-9-18,דירה בבית קומות,4.0,קומה ‎5‏,102.3,,,,2015.0,,14.0,7879716065,1,127959,False,44% ב 8.2 שנים,חדרה,הדודאים,5.37,12795-9-18,12795/9,,32.4302181526,34.8851957476,2021
2021-10-19,2021-10-19,"הברוש 6, חדרה",הברוש 6,10040-56-8,דירה בבית קומות,6.0,ראשונה,180.0,,,,2021.0,,1.0,7880641730,1,1004056,False,,חדרה,הברוש,,10040-56-8,10040/56,,32.4199857589,34.919731053,2021
2021-10-19,2021-10-19,"משה דיין 10, חדרה",משה דיין 10,10049-348-41,דירה בבית קומות,3.0,חמישית,61.9,,,,1985.0,,6.0,7879797185,1,10049348,False,11% ב 2.7 שנים,חדרה,דיין משה,4.07,10049-348-41,10049/348,,32.4433679846,34.9099927419,2021
2021-10-19,2021-10-19,"שקצר 33, חדרה",שקצר 33,10061-65-1,דירת גן,2.0,קרקע,37.18,,,,1992.0,,3.0,7879696760,1,1006165,False,41% ב 8.3 שנים,חדרה,שקצר,4.94,10061-65-1,10061/65,,32.4147049894,34.9516788222,2021
2021-10-19,2021-10-19,"הירדן 10, חדרה",הירדן 10,10402-438-52,דירה בבית קומות,5.0,שלישית,123.0,,1.0,חלומות פארק חדרה,2014.0,,7.0,7879921465,1,10402438,False,,חדרה,הירדן,,10402-438-52,10402/438,,32.4277756262,34.9293909756,2021
2021-10-19,2021-10-19,"צה""ל 18, חדרה","צה""ל 18",10032-123-22,דירה בבית קומות,3.0,שניה,78.76,,,,1960.0,,2.0,7879463085,1,10032123,False,21% ב 5 שנים,חדרה,"צה""ל",4.2,10032-123-22,10032/123,,32.4386066744,34.9293509798,2021
2021-10-19,2021-10-19,"הברוש 6, חדרה",הברוש 6,10040-56-3,קוטג' דו משפחתי,6.0,ראשונה,180.0,,,,2021.0,,1.0,7880648165,1,1004056,False,,חדרה,הברוש,,10040-56-3,10040/56,,32.4199857589,34.919731053,2021
2021-10-19,2021-10-19,"תרנ""א 91, חדרה","תרנ""א 91",10034-287-16,דירה בבית קומות,4.0,שניה,77.01,,,,1970.0,,3.0,7880824575,1,10034287,False,,חדרה,"תרנ""א",,10034-287-16,10034/287,,32.4411082037,34.9264522335,2021
2021-10-18,2021-10-18,"רח""ש 11, חדרה","רח""ש 11",10034-109-1,קוטג' דו משפחתי,5.0,קרקע וראשונה,136.92,,,,1994.0,,,7880020720,1,10034109,False,,חדרה,"רח""ש",,10034-109-1,10034/109,,32.4401767237,34.9256311907,2021
2021-10-18,2021-10-18,"הירדן 10, חדרה",הירדן 10,10402-438-53,דירה בבית קומות,4.0,שניה,100.0,,1.0,חלומות פארק חדרה,2014.0,,7.0,7880670135,1,10402438,False,,חדרה,הירדן,,10402-438-53,10402/438,,32.4277756262,34.9293909756,2021
2021-10-18,2021-10-18,"רמב""ם 14, חדרה","רמב""ם 14",10036-220-1,קרקע למגורים,,,500.0,,,,,,,7880908295,1,10036220,False,,חדרה,"רמב""ם",,10036-220-1,10036/220,,32.4368782991,34.9138142271,2021
2021-10-18,2021-10-18,"הברוש 6, חדרה",הברוש 6,10040-56-9,דירה בבית קומות,6.0,ראשונה,180.0,,,,2021.0,,1.0,7880636920,1,1004056,False,,חדרה,הברוש,,10040-56-9,10040/56,,32.4199857589,34.919731053,2021
2021-10-18,2021-10-18,"הטייסים 5, חדרה",הטייסים 5,10035-118-16,קוטג' חד משפחתי,5.0,ראשונה,160.0,,,,1995.0,,1.0,7879734330,1,10035118,False,,חדרה,הטייסים,,10035-118-16,10035/118,,32.4453467357,34.9210768098,2021
2021-10-18,2021-10-18,"הרצל 31, חדרה",הרצל 31,10036-337-1,קרקע למגורים,,,646.0,,,,,,,7880909920,1,10036337,False,,חדרה,הרצל,,10036-337-1,10036/337,,32.4377689437,34.9187803941,2021
2021-10-17,2021-10-17,"אכזיב 18, חדרה",אכזיב 18,10402-442-11,דירה בבית קומות,5.0,שלישית,125.0,,,,2018.0,,4.0,7880622425,1,10402442,False,,חדרה,אכזיב,,10402-442-11,10402/442,,32.4263642964,34.9278016514,2021
2021-10-17,2021-10-17,"יגאל אלון 12, חדרה",יגאל אלון 12,10016-223-1,קרקע למגורים,,,1518.0,,,,,,,7880707705,1,10016223,False,,חדרה,אלון יגאל,,10016-223-1,10016/223,,32.4448622625,34.9026865275,2021
2021-10-17,2021-10-17,"השקמה 33, חדרה",השקמה 33,10059-25-10,דירה בבית קומות,3.0,ראשונה,69.6,,,,1990.0,,2.0,7879401920,1,1005925,False,18% ב 5.8 שנים,חדרה,השקמה,3.1,10059-25-10,10059/25,,32.418237976,34.9569064614,2021
2021-10-17,2021-10-17,"הרמב""ן 14, חדרה","הרמב""ן 14",10016-311-13,דירה בבית קומות,3.0,רביעית,48.1,,,,1960.0,,4.0,7879411605,1,10016311,False,,חדרה,"הרמב""ן",,10016-311-13,10016/311,,32.4451846359,34.9093283335,2021
2021-10-17,2021-10-17,"הצוקים 12, חדרה",הצוקים 12,12795-27-138,דירה בבית קומות,5.0,ראשונה,160.0,,,,2016.0,,18.0,7879354730,1,1279527,False,,חדרה,הצוקים,,12795-27-138,12795/27,,32.4296406258,34.8839853153,2021
2021-10-17,2021-10-17,"החולית 10, חדרה",החולית 10,10009-171-2,קוטג' חד משפחתי,5.0,קרקע ראשונה ושניה,145.15,,,,1985.0,,,7879737580,1,10009171,False,,חדרה,החולית,,10009-171-2,10009/171,,32.445423816,34.8976757827,2021
2021-10-17,2021-10-17,"הלל יפה 43, חדרה",הלל יפה 43,10036-319-19,דירה בבית קומות,4.0,שלישית,71.58,,,,1998.0,,9.0,7879452295,1,10036319,False,43% ב 5.5 שנים,חדרה,הלל יפה,7.82,10036-319-19,10036/319,,32.4400507348,34.9176725982,2021
2021-10-15,2021-10-15,"משמר הגבול 15, חדרה",משמר הגבול 15,10403-222-115,דירה בבית קומות,5.0,קומה ‎7‏,134.6,,,,2014.0,,9.0,7879647945,1,10403222,False,,חדרה,משמר הגבול,,10403-222-115,10403/222,,32.4285909731,34.9316318787,2021
2021-10-15,2021-10-15,"מילנר 2, חדרה",מילנר 2,10061-5-12,דירה בבית קומות,4.0,שנייה,83.1,,,,1996.0,,2.0,7879577225,1,100615,False,16% ב 4.1 שנים,חדרה,מילנר,3.9,10061-5-12,10061/5,,32.4186156496,34.9478321117,2021
2021-10-15,2021-10-15,"נהרונית 42, חדרה",נהרונית 42,10058-33-4,דירת גן,3.0,שניה,70.0,,,,1990.0,,4.0,7879177735,1,1005833,True,-1% ב 4.6 שנים,חדרה,נהרונית,-0.22,10058-33-4,10058/33,,32.4210142842,34.9575171408,2021
2021-10-14,2021-10-14,"חוט השני 5, חדרה",חוט השני 5,12794-16-61,דירה בבית קומות,4.0,רביעית,92.0,,,,2009.0,,16.0,7879541345,1,1279416,False,,חדרה,חוט השני,,12794-16-61,12794/16,,32.4306203115,34.8829949096,2021
2021-10-14,2021-10-14,"הר סיני 2, חדרה",הר סיני 2,10031-59-9,דירה בבית קומות,5.0,קרקע ראשונה,130.8,,,,1996.0,,1.0,7879291485,1,1003159,False,,חדרה,הר סיני,,10031-59-9,10031/59,,32.43436852,34.941896324,2021
2021-10-14,2021-10-14,"הבנים 7, חדרה",הבנים 7,10036-377-7,דירה בבית קומות,4.0,קומה ‎4‏,130.0,,,,2016.0,,6.0,7879345045,1,10036377,False,17% ב 0.4 שנים,חדרה,הבנים,42.5,10036-377-7,10036/377,,32.4378960759,34.9201797556,2021
2021-10-14,2021-10-14,"המעפילים 46, חדרה",המעפילים 46,10570-71-2,דירת גן,2.0,ראשונה,38.7,,,,1950.0,,2.0,7879348295,1,1057071,False,,חדרה,המעפילים,,10570-71-2,10570/71,,32.4372087265,34.8808489144,2021
2021-10-13,2021-10-13,"חרובים 1, חדרה",חרובים 1,7731-302-0,קוטג' דו משפחתי,2.0,ראשונה,30.0,,,,1970.0,,,7880999360,1,7731302,False,,חדרה,חרובים,,7731-302-0,7731/302,,32.4235492228,34.9460976871,2021
2021-10-13,2021-10-13,"הגיבורים 45, חדרה",הגיבורים 45,10037-342-8,דירה בבית קומות,4.0,שלישית,90.6,,,,2000.0,,9.0,7879173315,1,10037342,False,173% ב 15 שנים,חדרה,הגבורים,11.53,10037-342-8,10037/342,,32.4350416626,34.9219020561,2021
2021-10-13,2021-10-13,"הירדן 8, חדרה",הירדן 8,10402-434-21,דירה בבית קומות,4.0,חמישית,102.0,,,,2013.0,,8.0,7879573520,1,10402434,False,50% ב 9.8 שנים,חדרה,הירדן,5.1,10402-434-21,10402/434,,32.4296844754,34.9303211848,2021
2021-10-13,2021-10-13,"דקל הדום 11, חדרה",דקל הדום 11,10402-461-116,דירה בבית קומות,5.0,קומה ‎5‏,137.1,,,,2016.0,,14.0,7879090310,1,10402461,False,17% ב 4.1 שנים,חדרה,דקל הדום,4.15,10402-461-116,10402/461,,32.425957194,34.9248172541,2021
2021-10-13,2021-10-13,"עין זיוון 10, חדרה",עין זיוון 10,10031-55-34,קוטג' דו משפחתי,5.0,קרקע ראשונה,130.0,,,,1992.0,,2.0,7879268345,1,1003155,False,,חדרה,עין זיוון,,10031-55-34,10031/55,,32.4357727122,34.9416549657,2021
2021-10-13,2021-10-13,"ז'בוטינסקי 17, חדרה",ז'בוטינסקי 17,10036-172-34,דירה בבית קומות,4.0,ראשונה,74.01,,,,1970.0,,3.0,7879319825,1,10036172,False,37% ב 5.9 שנים,חדרה,ז'בוטינסקי,6.27,10036-172-34,10036/172,,32.4334280876,34.9192605672,2021
2021-10-13,2021-10-13,"חטיבת הנח""ל 7, חדרה","חטיבת הנח""ל 7",10038-39-16,דירה בבית קומות,4.0,רביעית,96.7,,,,1997.0,,9.0,7879274260,1,1003839,False,,חדרה,"חטיבת הנח""ל",,10038-39-16,10038/39,,32.4326794396,34.9293660296,2021
2021-10-11,2021-11-10,"טביב 3, חדרה",טביב 3,10033-36-6,קוטג' דו משפחתי,6.0,ראשונה,187.0,,,,1950.0,2010.0,1.0,7880503345,1,1003336,False,,חדרה,טביב,,10033-36-6,10033/36,,32.4464699438,34.9259694448,2021
2021-10-11,2021-11-10,"החסידה 6, חדרה",החסידה 6,10054-180-3,דירה בבית קומות,4.0,ראשונה,91.55,,,,1997.0,,7.0,7880758080,1,10054180,False,63% ב 8.4 שנים,חדרה,החסידה,7.5,10054-180-3,10054/180,,32.4387613916,34.9046996162,2021
2021-10-11,2021-11-10,"העוגב 10, חדרה",העוגב 10,10042-338-4,דירת גן,3.0,ראשונה,78.0,,,,2002.0,,1.0,7880524340,1,10042338,False,,חדרה,העוגב,,10042-338-4,10042/338,,32.4285971631,34.9138037507,2021
2021-10-11,2021-11-10,"משמר הגבול 15, חדרה",משמר הגבול 15,10403-222-111,דירת גן,5.0,קומה ‎6‏,134.6,,,,2014.0,,9.0,7880425085,1,10403222,False,,חדרה,משמר הגבול,,10403-222-111,10403/222,,32.4285909731,34.9316318787,2021
2021-10-11,2021-11-10,"נחל פרת 7, חדרה",נחל פרת 7,10031-65-60,דירת גן,4.0,חמישית,99.78,,,,2012.0,,9.0,7880425605,1,1003165,False,21% ב 5.8 שנים,חדרה,נחל פרת,3.62,10031-65-60,10031/65,,32.4330158381,34.9398364482,2021
2021-10-11,2021-11-10,"הצוקים 12, חדרה",הצוקים 12,12795-27-57,דירה בבית קומות,5.0,רביעית,140.0,,1.0,AQUA PRIME,2016.0,,18.0,7881242330,1,1279527,False,,חדרה,הצוקים,,12795-27-57,12795/27,,32.4296406258,34.8839853153,2021
2021-10-11,2021-11-10,"הרצל 103, חדרה",הרצל 103,10035-118-17,קוטג' דו משפחתי,6.0,ראשונה,151.0,,,,1995.0,,1.0,7880837445,1,10035118,False,,חדרה,הרצל,,10035-118-17,10035/118,,32.4453467357,34.9210768098,2021
2021-10-11,2021-11-10,"ד""ר ברין 1, חדרה","ד""ר ברין 1",10041-386-31,דירה בבית קומות,3.0,רביעית,63.4,,,,1970.0,,4.0,7880983890,1,10041386,False,,חדרה,"ד""ר ברין",,10041-386-31,10041/386,,32.4306640104,34.9159671852,2021
2021-10-11,2021-11-10,"הצוקים 12, חדרה",הצוקים 12,12795-27-58,דירה בבית קומות,5.0,אחת עשרה,140.0,,1.0,AQUA PRIME,2016.0,,18.0,7882078425,1,1279527,False,,חדרה,הצוקים,,12795-27-58,12795/27,,32.4296406258,34.8839853153,2021
2021-10-10,2021-10-10,"צה""ל 19, חדרה","צה""ל 19",10032-209-1,קוטג' דו משפחתי,8.0,ראשונה,358.0,,,,1950.0,,1.0,7880322125,1,10032209,False,,חדרה,"צה""ל",,10032-209-1,10032/209,,32.4389725138,34.9284776412,2021
2021-10-10,2021-10-10,"ביאליק 65, חדרה",ביאליק 65,10037-231-25,דירה בבית קומות,4.0,שלישית,86.02,,,,1970.0,,3.0,7879302080,1,10037231,False,,חדרה,ביאליק,,10037-231-25,10037/231,,32.4317450755,34.9208128623,2021
2021-10-10,2021-10-10,"רמב""ם 24, חדרה","רמב""ם 24",10036-502-22,דירה בבית קומות,4.0,שישית,79.25,,,,1990.0,,8.0,7878967070,1,10036502,False,,חדרה,"רמב""ם",,10036-502-22,10036/502,,32.4388128125,34.9145553111,2021
2021-10-10,2021-10-10,"קדימה 6, חדרה",קדימה 6,10572-381-16,ללא תיכנון,,,250.0,,,,0.0,,1.0,7880735005,1,10572381,False,,חדרה,קדימה,,10572-381-16,10572/381,,32.4340612063,34.8826325713,2021
2021-10-10,2021-10-10,"ניצנים 1, חדרה",ניצנים 1,10031-17-208,דירה בבית קומות,4.0,שביעית,116.0,,,,2018.0,,12.0,7879009385,1,1003117,False,,חדרה,ניצנים,,10031-17-208,10031/17,,32.4327245907,34.9437183605,2021
2021-10-10,2021-10-10,"מלחמת ששת הימים 16, חדרה",מלחמת ששת הימים 16,10036-19-22,דירה בבית קומות,2.0,שלישית,55.51,,,,1960.0,,3.0,7879525225,1,1003619,False,,חדרה,מלחמת ששת הימים,,10036-19-22,10036/19,,32.4385189912,34.9161474286,2021
2021-10-10,2021-10-10,"חטיבת הנח""ל 20, חדרה","חטיבת הנח""ל 20",10403-228-24,דירה בבית קומות,4.0,שישית,76.5,,,,2004.0,,7.0,7879206140,1,10403228,False,,חדרה,"חטיבת הנח""ל",,10403-228-24,10403/228,,32.4306565169,34.9362256814,2021
2021-10-10,2021-10-10,"רח""ש 7, חדרה","רח""ש 7",10034-111-2,קוטג' חד משפחתי,5.0,ראשונה,110.0,,,,1982.0,,1.0,7881664310,1,10034111,False,,חדרה,"רח""ש",,10034-111-2,10034/111,,32.4404123699,34.9254575085,2021
2021-10-10,2021-10-10,"אידלווין 3, חדרה",אידלווין 3,10063-9-8,דירה בבית קומות,4.0,ראשונה,110.0,,,,1991.0,,2.0,7879292005,1,100639,False,,חדרה,אידלווין,,10063-9-8,10063/9,,32.4209850561,34.9458430348,2021
2021-10-08,2021-08-10,"לכיש 2, חדרה",לכיש 2,10403-236-74,,5.0,עשרים,159.0,,1.0,,2018.0,,17.0,11181172955,1,10403236,False,,חדרה,לכיש,,10403-236-74,10403/236,,32.4294056615,34.9366635683,2021
2021-10-08,2021-08-10,"שאר ישוב 22, חדרה",שאר ישוב 22,10034-376-15,דירה בבית קומות,4.0,שלישית,96.94,,,,1970.0,,3.0,7876675690,1,10034376,False,,חדרה,שאר ישוב,,10034-376-15,10034/376,,32.4415075399,34.9251439467,2021
2021-10-08,2021-08-10,"חטיבת הנח""ל 22, חדרה","חטיבת הנח""ל 22",10403-229-23,דירת גן,4.0,קומה ‎7‏,110.0,,,,1997.0,,8.0,7876801140,1,10403229,False,71% ב 10.6 שנים,חדרה,"חטיבת הנח""ל",6.7,10403-229-23,10403/229,,32.4306243342,34.9365426744,2021
2021-10-08,2021-08-10,"נחל רמון 11, חדרה",נחל רמון 11,10403-112-12,דירה בבית קומות,4.0,רביעית,119.95,,,,2015.0,,6.0,7876399440,1,10403112,False,16% ב 5.3 שנים,חדרה,נחל רמון,3.02,10403-112-12,10403/112,,32.4279156104,34.9389663548,2021
2021-10-08,2021-08-10,"זולוטרוב 1, חדרה",זולוטרוב 1,10060-32-1,קוטג' דו משפחתי,4.0,קרקע וראשונה,113.7,,,,1992.0,,,7876380135,1,1006032,False,,חדרה,זולוטרוב,,10060-32-1,10060/32,,32.4135002546,34.9529846087,2021
2021-10-08,2021-08-10,"תרנ""א 28, חדרה","תרנ""א 28",10037-385-28,דירה בבית קומות,3.0,שניה,65.08,,,,1970.0,,4.0,7877540190,1,10037385,False,196% ב 13.7 שנים,חדרה,"תרנ""א",14.31,10037-385-28,10037/385,,32.4351901033,34.9252531156,2021
2021-10-06,2021-06-10,"לכיש 2, חדרה",לכיש 2,10403-236-113,דירה בבית קומות,4.0,שש עשרה,108.0,,,,2018.0,,17.0,7874200295,1,10403236,False,,חדרה,לכיש,,10403-236-113,10403/236,,32.4294056615,34.9366635683,2021
2021-10-06,2021-06-10,"הרב קוק 19, חדרה",הרב קוק 19,10035-345-2,קרקע למגורים,,,223.0,,,,,,,7874685585,1,10035345,False,,חדרה,הרב קוק,,10035-345-2,10035/345,,32.4426063925,34.9189614118,2021
2021-10-06,2021-06-10,"מלחמת ששת הימים 19, חדרה",מלחמת ששת הימים 19,10036-208-26,דירה בבית קומות,5.0,עשרים ואחת,160.0,,,,2019.0,,2.0,7873711755,1,10036208,False,,חדרה,מלחמת ששת הימים,,10036-208-26,10036/208,,32.4404002943,34.9159982997,2021
2021-10-06,2021-06-10,"רחבעם זאבי 4, חדרה",רחבעם זאבי 4,10011-46-306,דירת נופש,3.0,ראשונה,55.5,,,,1998.0,,7.0,7874485060,1,1001146,False,234% ב 16.7 שנים,חדרה,רחבעם זאבי,14.01,10011-46-306,10011/46,,32.4449177945,34.8796665649,2021
2021-10-06,2021-06-10,"ארלוזורוב 1, חדרה",ארלוזורוב 1,10032-439-172,דירה בבית קומות,4.0,ראשונה,98.0,,,,2016.0,,14.0,7873308495,1,10032439,False,,חדרה,ארלוזורוב,,10032-439-172,10032/439,,32.4379158033,34.9280366031,2021
2021-10-06,2021-06-10,"אלי כהן 39, חדרה",אלי כהן 39,10572-309-3,דירה בבית קומות,3.0,שניה,48.4,,,,1960.0,,3.0,7873589945,1,10572309,False,,חדרה,אלי כהן,,10572-309-3,10572/309,,32.433731405,34.8832970001,2021
2021-10-06,2021-06-10,"נחל רמון 7, חדרה",נחל רמון 7,10403-112-50,דירה בבית קומות,4.0,רביעית,96.66,,,,2015.0,,6.0,7873092955,1,10403112,False,23% ב 8.6 שנים,חדרה,נחל רמון,2.67,10403-112-50,10403/112,,32.4279156104,34.9389663548,2021
2021-10-06,2021-06-10,"העגור 10, חדרה",העגור 10,10054-166-9,דירה בבית קומות,3.0,שניה,42.9,,,,1960.0,,4.0,7873100950,1,10054166,False,201% ב 19.9 שנים,חדרה,העגור,10.1,10054-166-9,10054/166,,32.4391789028,34.9049758784,2021
2021-10-05,2021-05-10,"ניצנים 1, חדרה",ניצנים 1,10031-17-224,דירה בבית קומות,5.0,שישית,130.0,,,,2018.0,,12.0,7871777485,1,1003117,False,,חדרה,ניצנים,,10031-17-224,10031/17,,32.4327245907,34.9437183605,2021
2021-10-05,2021-05-10,"לכיש 2, חדרה",לכיש 2,10403-236-115,דירה בבית קומות,4.0,שביעית,108.0,,,,2018.0,,17.0,7871546865,1,10403236,False,,חדרה,לכיש,,10403-236-115,10403/236,,32.4294056615,34.9366635683,2021
2021-10-05,2021-05-10,"יצחק (כושי) עפגין 6, חדרה",יצחק (כושי) עפגין 6,10049-402-87,דירה בבית קומות,4.0,רביעית,100.0,,,,2007.0,,9.0,7871351215,1,10049402,False,,חדרה,עפגין יצחק,,10049-402-87,10049/402,,32.4420722527,34.9156763722,2021
2021-10-05,2021-05-10,"בן-גוריון 35, חדרה",בן-גוריון 35,10580-56-32,דירה בבית קומות,3.0,שניה,66.12,,,,1991.0,,4.0,7871365775,1,1058056,False,,חדרה,בן גוריון,,10580-56-32,10580/56,,32.4415086425,34.8909380184,2021
2021-10-05,2021-05-10,"ניצנים 1, חדרה",ניצנים 1,10031-17-159,דירה בבית קומות,4.0,שביעית,110.0,,,,2018.0,,12.0,7871549010,1,1003117,False,,חדרה,ניצנים,,10031-17-159,10031/17,,32.4327245907,34.9437183605,2021
2021-10-05,2021-05-10,"הלל יפה 22, חדרה",הלל יפה 22,10036-540-43,דירה בבית קומות,4.0,קומה ‎8‏,115.0,,,,2014.0,,11.0,7871372600,1,10036540,False,13% ב 5.3 שנים,חדרה,הלל יפה,2.45,10036-540-43,10036/540,,32.4363454229,34.9173233104,2021
2021-10-05,2021-05-10,"האתרוג 12, חדרה",האתרוג 12,10408-17-2,קוטג' דו משפחתי,6.0,ראשונה,191.0,,1.0,,2021.0,,1.0,7871746350,1,1040817,False,,חדרה,האתרוג,,10408-17-2,10408/17,,32.4237186729,34.9235182076,2021
2021-10-05,2021-05-10,"סלוצקין 28, חדרה",סלוצקין 28,10062-21-7,דירה בבית קומות,3.0,שניה,69.1,,,,1990.0,,2.0,7871499870,1,1006221,False,,חדרה,סלוצקין,,10062-21-7,10062/21,,32.4157637972,34.9467876752,2021
2021-10-05,2021-05-10,"הבונים 45, חדרה",הבונים 45,7726-147-2,קוטג' חד משפחתי,3.0,קרקע,90.41,,,,1960.0,,,7871680960,1,7726147,False,,חדרה,הבונים,,7726-147-2,7726/147,,32.4269387626,34.9538065929,2021
2021-10-05,2021-05-10,"שקצר 2, חדרה",שקצר 2,10061-117-7,דירה בבית קומות,3.0,ראשונה,68.79,,,,1995.0,,3.0,7871520605,1,10061117,False,,חדרה,שקצר,,10061-117-7,10061/117,,32.4157585783,34.9498051312,2021
