DEALDATE,DEALDATETIME,FULLADRESS,DISPLAYADRESS,GUSH,DEALNATUREDESCRIPTION,ASSETROOMNUM,FLOORNO,DEALNATURE,DEALAMOUNT,NEWPROJECTTEXT,PROJECTNAME,BUILDINGYEAR,YEARBUILT,BUILDINGFLOORS,KEYVALUE,TYPE,POLYGON_ID,TREND_IS_NEGATIVE,TREND_FORMAT,city_name,street,presentage per year,GUSH - Copy,Gush_Helka,Price per sqm,lat,lon,Year
2022-12-30,2022-12-30,"רות הילמן 41, ",רות הילמן 41,100613-281-1,דירה בבית קומות,5.0,ראשונה,158.0,3330000,,,2020.0,,1.0,11070062730,1,100613281,False,,באר שבע,רות הילמן,,100613-281-1,100613/281,21075.949367088608,31.2737046645,34.7560005687,2022
2022-12-30,2022-12-30,"שרעבי 17, באר שבע",שרעבי 17,38076-26-28,דירה בבית קומות,3.0,ראשונה,64.0,690000,,,1960.0,,3.0,11071679850,1,3807626,True,-17% ב 6.1 שנים,באר שבע,שרעבי,-2.79,38076-26-28,38076/26,10781.25,31.2547892561,34.8120178491,2022
2022-12-30,2022-12-30,"אביה השופט 1, באר שבע",אביה השופט 1,38073-260-33,דירה בבית קומות,2.0,קומה ‎4‏,36.5,567000,,,2009.0,,13.0,11070829710,1,38073260,False,4% ב 2.9 שנים,באר שבע,אביה השופט,1.38,38073-260-33,38073/260,15534.246575342466,31.2678228089,34.7950277269,2022
2022-12-30,2022-12-30,"שמשון עמיצור 15, באר שבע",שמשון עמיצור 15,38371-11-51,דירה בבית קומות,4.0,רביעית,92.0,1355000,,,2009.0,,6.0,11070854100,1,3837111,False,10% ב 4.7 שנים,באר שבע,עמיצור שמשון,2.13,38371-11-51,38371/11,14728.260869565218,31.2823832458,34.7985624866,2022
2022-12-30,2022-12-30,"פיארברג 39, באר שבע",פיארברג 39,38139-55-121,דירה בבית קומות,3.0,תשיעית,55.7,925000,,,2007.0,,,11071739250,1,3813955,False,20% ב 6.7 שנים,באר שבע,פיארברג,2.99,38139-55-121,38139/55,16606.82226211849,31.2359853298,34.7712348245,2022
2022-12-30,2022-12-30,"פיארברג 14, באר שבע",פיארברג 14,38139-32-37,דירה בבית קומות,3.0,רביעית,67.0,1070000,,,1998.0,,5.0,11070169650,1,3813932,False,20% ב 4 שנים,באר שבע,פיארברג,5.0,38139-32-37,38139/32,15970.149253731342,31.2353745312,34.7755441405,2022
2022-12-30,2022-12-30,"אלכסנדר ינאי 21, באר שבע",אלכסנדר ינאי 21,38072-23-7,דירה בבית קומות,3.0,שניה,43.6,840000,,,1970.0,,2.0,11070957510,1,3807223,False,68% ב 7.6 שנים,באר שבע,אלכסנדר ינאי,8.95,38072-23-7,38072/23,19266.05504587156,31.2633199259,34.794249831,2022
2022-12-29,2022-12-29,"יאשיהו 21, באר שבע",יאשיהו 21,38107-20-1,קוטג' חד משפחתי,5.0,ראשונה,220.0,2400000,,,1970.0,,1.0,11070097470,1,3810720,False,,באר שבע,יאשיהו,,38107-20-1,38107/20,10909.09090909091,31.2626672167,34.7806319651,2022
2022-12-29,2022-12-29,"העלייה 65, באר שבע",העלייה 65,38101-29-48,דירה בבית קומות,2.0,רביעית,46.9,600000,,,1970.0,,5.0,11070232740,1,3810129,False,30% ב 2.5 שנים,באר שבע,העליה,12.0,38101-29-48,38101/29,12793.17697228145,31.2567009307,34.7767511673,2022
2022-12-29,2022-12-29,"עולי הגרדום 3, באר שבע",עולי הגרדום 3,38030-260-3,חנות,,קרקע,77.1,800000,,,1960.0,,,11070157680,1,38030260,False,128% ב 5.9 שנים,באר שבע,עולי הגרדום,21.69,38030-260-3,38030/260,10376.134889753568,31.2520287592,34.8043395874,2022
2022-12-29,2022-12-29,"הרב יוסף סוסו הכהן 11, באר שבע",הרב יוסף סוסו הכהן 11,38073-163-43,דירה בבית קומות,3.0,ראשונה,63.5,850000,,,1960.0,,3.0,11070130320,1,38073163,True,-3% ב 5.5 שנים,באר שבע,הרב סוסו יוסף,-0.55,38073-163-43,38073/163,13385.826771653545,31.265355515,34.7974018546,2022
2022-12-29,2022-12-29,"גוש עציון 20, באר שבע",גוש עציון 20,38028-60-11,דירה בבית קומות,4.0,שישית,130.0,1310000,,,2014.0,,8.0,11013499080,1,3802860,False,,באר שבע,גוש עציון,,38028-60-11,38028/60,10076.923076923076,31.2547638086,34.8078650638,2022
2022-12-29,2022-12-29,"ראובן רובין 5, באר שבע",ראובן רובין 5,38075-96-151,דירה בבית קומות,3.0,קומה ‎6‏,82.88,1550000,,,2018.0,,10.0,11072044530,1,3807596,False,22% ב 4.1 שנים,באר שבע,רובין ראובן,5.37,38075-96-151,38075/96,18701.73745173745,31.2590184285,34.7966774266,2022
2022-12-29,2022-12-29,"פרופ' יהודה ליאו פיקרד 1, באר שבע",פרופ' יהודה ליאו פיקרד 1,38375-10-12,דירה בבית קומות,4.0,רביעית,120.0,1300000,,,2003.0,,4.0,11070784440,1,3837510,False,,באר שבע,פיקרד,,38375-10-12,38375/10,10833.333333333334,31.2780424514,34.7993715267,2022
2022-12-29,2022-12-29,"אברהם אבינו 2, באר שבע",אברהם אבינו 2,38072-29-14,דירה בבית קומות,4.0,ראשונה,61.8,890000,,,1960.0,,3.0,11071000440,1,3807229,False,,באר שבע,אברהם אבינו,,38072-29-14,38072/29,14401.294498381878,31.2623719286,34.7946294819,2022
2022-12-29,2022-12-29,"עולי הגרדום 3, באר שבע",עולי הגרדום 3,38030-260-5,חנות,,קרקע,,500000,,,1960.0,,,11070166590,1,38030260,False,42% ב 5 שנים,באר שבע,עולי הגרדום,8.4,38030-260-5,38030/260,,31.2520287592,34.8043395874,2022
2022-12-29,2022-12-29,"השלום 56, באר שבע",השלום 56,38076-48-43,דירה בבית קומות,2.0,ראשונה,56.0,630000,,,1996.0,,14.0,11070568980,1,3807648,False,,באר שבע,השלום,,38076-48-43,38076/48,11250.0,31.2524618749,34.809508991,2022
2022-12-29,2022-12-29,"צקלג 5, באר שבע",צקלג 5,38073-153-3,דירה בבית קומות,4.0,ראשונה,74.1,860000,,,1960.0,,1.0,11070139230,1,38073153,False,24% ב 7.5 שנים,באר שבע,צקלג,3.2,38073-153-3,38073/153,11605.937921727396,31.2650312277,34.795846971,2022
2022-12-29,2022-12-29,"גדעון האוזנר 49, באר שבע",גדעון האוזנר 49,38365-1-46,דירה בבית קומות,4.0,רביעית,105.5,1625000,,,2015.0,,7.0,11013514020,1,383651,False,,באר שבע,האוזנר גדעון,,38365-1-46,38365/1,15402.843601895736,31.2886736371,34.8058117565,2022
2022-12-29,2022-12-29,"משה דיין 10, באר שבע",משה דיין 10,38352-4-9,דירה בבית קומות,3.5,ראשונה,83.0,1190000,,,1997.0,,3.0,11070045630,1,383524,False,,באר שבע,דיין משה,,38352-4-9,38352/4,14337.349397590362,31.2649899152,34.7726294577,2022
2022-12-29,2022-12-29,"השלום 22, באר שבע",השלום 22,38030-19-4,דירה בבית קומות,3.0,שניה,73.3,825000,,,1970.0,,3.0,11070724230,1,3803019,False,94% ב 11.7 שנים,באר שבע,השלום,8.03,38030-19-4,38030/19,11255.11596180082,31.2524943325,34.8030914548,2022
2022-12-29,2022-12-29,"איינשטיין 20, באר שבע",איינשטיין 20,38070-1-10,דירה בבית קומות,2.0,ראשונה,34.5,1550000,,,1980.0,,2.0,11073459600,1,380701,False,14% ב 0.2 שנים,באר שבע,אינשטיין,70.0,38070-1-10,38070/1,44927.536231884056,31.2568341817,34.7909319874,2022
2022-12-29,2022-12-29,"השלום 22, באר שבע",השלום 22,38030-19-39,דירה בבית קומות,3.0,קרקע,44.0,650000,,,1970.0,,3.0,11013480540,1,3803019,False,6% ב 5.6 שנים,באר שבע,השלום,1.07,38030-19-39,38030/19,14772.727272727272,31.2524943325,34.8030914548,2022
2022-12-29,2022-12-29,"צפת 34, באר שבע",צפת 34,38112-3-23,דירה בבית קומות,5.0,שישית,100.1,1250000,,,1980.0,,8.0,11070535590,1,381123,False,,באר שבע,צפת,,38112-3-23,38112/3,12487.512487512487,31.2481824167,34.7761142341,2022
2022-12-28,2022-12-28,"פל-ים 52, באר שבע",פל-ים 52,38100-45-23,דירה בבית קומות,4.0,ראשונה,80.6,740000,,,1970.0,,3.0,11013503490,1,3810045,False,,באר שבע,פל-ים,,38100-45-23,38100/45,9181.141439205956,31.2643455469,34.7778973309,2022
2022-12-28,2022-12-28,"יהודי סוריה 12, באר שבע",יהודי סוריה 12,38101-27-3,דירה בבית קומות,3.0,שניה,62.4,720000,,,1970.0,,4.0,11070971550,1,3810127,False,,באר שבע,יהודי סוריה,,38101-27-3,38101/27,11538.46153846154,31.2573467429,34.7749125399,2022
2022-12-28,2022-12-28,"אשבל מיכאל 26, באר שבע",אשבל מיכאל 26,38190-4-4,דירה בבית קומות,4.0,ראשונה,92.0,1415000,,,2001.0,,3.0,11070842310,1,381904,False,96% ב 12.9 שנים,באר שבע,אשבל מיכאל,7.44,38190-4-4,38190/4,15380.434782608696,31.2416328487,34.7758917391,2022
2022-12-28,2022-12-28,"אברהם אבינו 20, באר שבע",אברהם אבינו 20,38072-1-21,דירה בבית קומות,3.0,שניה,65.5,750000,,,1960.0,,4.0,11013383430,1,380721,False,20% ב 7.8 שנים,באר שבע,אברהם אבינו,2.56,38072-1-21,38072/1,11450.381679389311,31.2644419116,34.7938541292,2022
2022-12-28,2022-12-28,"מבצע ברוש 11, באר שבע",מבצע ברוש 11,38108-148-20,דירה בבית קומות,4.0,שישית,74.0,1110000,,,2000.0,,9.0,11013481980,1,38108148,False,,באר שבע,מבצע ברוש,,38108-148-20,38108/148,15000.0,31.2653502058,34.7838754681,2022
2022-12-28,2022-12-28,"יצחק גרינבוים 1, באר שבע",יצחק גרינבוים 1,38130-106-3,קוטג' דו משפחתי,6.0,ראשונה,156.0,2200000,,,1992.0,,1.0,11013452370,1,38130106,False,,באר שבע,גרינבוים יצחק,,38130-106-3,38130/106,14102.564102564103,31.261208207,34.7655256696,2022
2022-12-28,2022-12-28,"דובדבן 59, באר שבע",דובדבן 59,38363-7-2,קוטג' חד משפחתי,5.0,"קומה ‎0‏, קומה ‎1‏",164.65,3100000,,,1995.0,,1.0,11013357420,1,383637,False,,באר שבע,דובדבן,,38363-7-2,38363/7,18827.816580625567,31.2868871543,34.7986737542,2022
2022-12-28,2022-12-28,"הרב יוסף סוסו הכהן 3, באר שבע",הרב יוסף סוסו הכהן 3,38073-161-28,דירה בבית קומות,3.0,ראשונה,63.5,940000,,,1960.0,,3.0,11070228330,1,38073161,False,6% ב 4.9 שנים,באר שבע,הרב סוסו יוסף,1.22,38073-161-28,38073/161,14803.149606299212,31.2659183694,34.7973429044,2022
2022-12-28,2022-12-28,"בני אור 5, באר שבע",בני אור 5,38020-12-3,דירה בבית קומות,3.0,שניה,66.9,725000,,,1970.0,,3.0,11070834840,1,3802012,False,,באר שבע,בני אור,,38020-12-3,38020/12,10837.070254110611,31.258174897,34.7871006948,2022
2022-12-28,2022-12-28,"מבצע חורב 20, באר שבע",מבצע חורב 20,38088-25-3,בית בודד,5.0,ראשונה,167.0,2460000,,,1970.0,,1.0,11072290230,1,3808825,False,,באר שבע,מבצע חורב,,38088-25-3,38088/25,14730.538922155689,31.2613872022,34.7846558283,2022
2022-12-28,2022-12-28,"סנהדרין 92, באר שבע",סנהדרין 92,38090-13-13,דירה בבית קומות,3.0,שלישית,45.9,520000,,,1960.0,,4.0,11013444900,1,3809013,False,30% ב 8.4 שנים,באר שבע,סנהדרין,3.57,38090-13-13,38090/13,11328.976034858388,31.270639522,34.7897468139,2022
2022-12-28,2022-12-28,"משה פרייבס 10, באר שבע",משה פרייבס 10,38374-36-2,דירה בבית קומות,4.5,קרקע,97.0,1750000,,,2000.0,,4.0,11070843030,1,3837436,False,52% ב 8.8 שנים,באר שבע,פריבס משה,5.91,38374-36-2,38374/36,18041.23711340206,31.2792312143,34.7988458949,2022
2022-12-28,2022-12-28,"רוטנברג 8, באר שבע",רוטנברג 8,38027-9-52,דירה בבית קומות,3.0,שלישית,46.4,819000,,,1960.0,,4.0,11013472530,1,380279,False,76% ב 9.2 שנים,באר שבע,רוטנברג,8.26,38027-9-52,38027/9,17650.862068965518,31.2596197746,34.8088922844,2022
2022-12-28,2022-12-28,"דוד המלך 31, באר שבע",דוד המלך 31,38079-21-40,דירה בבית קומות,3.0,רביעית,38.8,580000,,,1970.0,,4.0,11070407250,1,3807921,False,9% ב 4 שנים,באר שבע,דוד המלך,2.25,38079-21-40,38079/21,14948.453608247424,31.2639440287,34.7899714333,2022
2022-12-28,2022-12-28,"גוש עציון 16, באר שבע",גוש עציון 16,38028-61-10,דירה בבית קומות,5.0,שביעית,168.0,1525000,,,2014.0,,8.0,11013433830,1,3802861,False,,באר שבע,גוש עציון,,38028-61-10,38028/61,9077.380952380952,31.2545005023,34.8079541756,2022
2022-12-28,2022-12-28,"סוקולוב 8, באר שבע",סוקולוב 8,38264-4-59,דירה בבית קומות,3.0,רביעית,57.4,1200000,,,1970.0,,4.0,11072308050,1,382644,False,61% ב 2 שנים,באר שבע,סוקולוב,30.5,38264-4-59,38264/4,20905.923344947736,31.2481782383,34.7911889537,2022
2022-12-28,2022-12-28,"מאיר גרוסמן 26, באר שבע",מאיר גרוסמן 26,38146-35-10,דירה בבית קומות,4.0,ראשונה,86.0,1150000,,,1998.0,,3.0,11013468030,1,3814635,False,198% ב 18.7 שנים,באר שבע,גרוסמן מאיר,10.59,38146-35-10,38146/35,13372.093023255817,31.2375415383,34.7683008541,2022
2022-12-28,2022-12-28,"חביבה רייק 1, באר שבע",חביבה רייק 1,38026-97-12,דירה בבית קומות,2.0,ראשונה,38.25,650000,,,1960.0,,3.0,11013509610,1,3802697,False,253% ב 13.5 שנים,באר שבע,רייק חביבה,18.74,38026-97-12,38026/97,16993.46405228758,31.2568541575,34.8078334598,2022
2022-12-27,2022-12-27,"השלום 56, באר שבע",השלום 56,38076-48-42,דירה בבית קומות,3.0,אחת עשרה,62.0,700000,,,1996.0,,14.0,11070596610,1,3807648,False,,באר שבע,השלום,,38076-48-42,38076/48,11290.32258064516,31.2524618749,34.809508991,2022
2022-12-27,2022-12-27,"אשר ברש 3, באר שבע",אשר ברש 3,38138-69-4,דירה בבית קומות,3.0,ראשונה,61.5,850000,,,1994.0,,8.0,11013454710,1,3813869,False,291% ב 2.8 שנים,באר שבע,ברש אשר,103.93,38138-69-4,38138/69,13821.138211382116,31.2394551748,34.7776017479,2022
2022-12-27,2022-12-27,"יפתח הגלעדי 18, באר שבע",יפתח הגלעדי 18,38006-104-1,בית בודד,5.0,ראשונה,110.0,2050000,,,1960.0,,1.0,11013257070,1,38006104,False,,באר שבע,יפתח הגלעדי,,38006-104-1,38006/104,18636.36363636364,31.2412484942,34.7801482257,2022
2022-12-27,2022-12-27,"יהודי סוריה 12, באר שבע",יהודי סוריה 12,38101-27-20,דירה בבית קומות,3.0,שניה,62.4,740000,,,1970.0,,4.0,11013395130,1,3810127,False,35% ב 7.9 שנים,באר שבע,יהודי סוריה,4.43,38101-27-20,38101/27,11858.97435897436,31.2573467429,34.7749125399,2022
2022-12-27,2022-12-27,"חנה סנש 5, באר שבע",חנה סנש 5,38027-45-34,דירה בבית קומות,2.0,ראשונה,38.2,600000,,,1960.0,,3.0,11071336230,1,3802745,False,,באר שבע,סנש חנה,,38027-45-34,38027/45,15706.806282722511,31.2576858111,34.8095899924,2022
2022-12-27,2022-12-27,"סנהדרין 136, באר שבע",סנהדרין 136,38090-18-14,דירה בבית קומות,3.0,ראשונה,45.9,590000,,,1960.0,,3.0,11013309810,1,3809018,False,15% ב 1.5 שנים,באר שבע,סנהדרין,10.0,38090-18-14,38090/18,12854.030501089324,31.269901461,34.7883477812,2022
2022-12-27,2022-12-27,"אלכסנדר ינאי 23, באר שבע",אלכסנדר ינאי 23,38072-24-11,דירה בבית קומות,3.0,שניה,43.6,680000,,,1960.0,,2.0,11070953730,1,3807224,False,86% ב 12.7 שנים,באר שבע,אלכסנדר ינאי,6.77,38072-24-11,38072/24,15596.330275229357,31.2630963029,34.7942559078,2022
2022-12-27,2022-12-27,"בני אור 60, באר שבע",בני אור 60,38021-13-14,דירה בבית קומות,3.0,רביעית,66.8,730000,,,1970.0,,4.0,11013253290,1,3802113,True,-8% ב 6 שנים,באר שבע,בני אור,-1.33,38021-13-14,38021/13,10928.14371257485,31.2580033706,34.7829385804,2022
2022-12-27,2022-12-27,"מבצע עובדה 110, באר שבע",מבצע עובדה 110,38106-24-26,דירה בבית קומות,4.0,שביעית,79.7,1050000,,,1980.0,,8.0,11070090000,1,3810624,False,41% ב 4.8 שנים,באר שבע,מבצע עובדה,8.54,38106-24-26,38106/24,13174.404015056462,31.2630170698,34.7741298967,2022
2022-12-27,2022-12-27,"דב יוסף 3, באר שבע",דב יוסף 3,38105-9-15,דירה בבית קומות,4.0,רביעית,80.0,860000,,,1970.0,,4.0,11013442740,1,381059,False,36% ב 1 שנים,באר שבע,דב יוסף,36.0,38105-9-15,38105/9,10750.0,31.2560752201,34.7655859934,2022
2022-12-26,2022-12-26,"אלכסנדר ארגוב 13, באר שבע",אלכסנדר ארגוב 13,38358-8-1,קוטג' חד משפחתי,5.0,ראשונה,200.0,3000000,,,1997.0,,1.0,11070141300,1,383588,False,,באר שבע,ארגוב אלכסנדר,,38358-8-1,38358/8,15000.0,31.248100897,34.7578392228,2022
2022-12-26,2022-12-26,"יותם 6, באר שבע",יותם 6,38108-83-6,דירה בבית קומות,3.0,שלישית,63.1,725000,,,1980.0,,4.0,11071162440,1,3810883,False,3% ב 6.6 שנים,באר שבע,יותם,0.45,38108-83-6,38108/83,11489.698890649765,31.2643214881,34.7833211756,2022
2022-12-26,2022-12-26,"משה סתווי 1, באר שבע",משה סתווי 1,38145-3-19,דירה בבית קומות,4.0,שלישית,105.0,890000,,,1998.0,,6.0,11013223500,1,381453,False,,באר שבע,סתוי משה,,38145-3-19,38145/3,8476.190476190477,31.2408006022,34.76722739,2022
2022-12-26,2022-12-26,"הערים התאומות 23, באר שבע",הערים התאומות 23,38371-3-30,דירה בבית קומות,4.0,ראשונה,94.5,1350000,,,2001.0,,5.0,11070364770,1,383713,False,53% ב 9.3 שנים,באר שבע,הערים התאומות,5.7,38371-3-30,38371/3,14285.714285714286,31.2804217123,34.7989336766,2022
2022-12-26,2022-12-26,"מיכאל חזני 1, באר שבע",מיכאל חזני 1,38106-13-54,דירה בבית קומות,4.0,שניה,80.96,1150000,,,1996.0,,8.0,11070039600,1,3810613,False,76% ב 10 שנים,באר שבע,חזני מיכאל,7.6,38106-13-54,38106/13,14204.545454545456,31.2610513358,34.7704673471,2022
2022-12-26,2022-12-26,"שלמה סקולסקי 5, באר שבע",שלמה סקולסקי 5,38191-14-19,דירה בבית קומות,4.0,שלישית,80.0,1265000,,,2001.0,,6.0,11013191820,1,3819114,False,13% ב 2.4 שנים,באר שבע,סקולסקי שלמה,5.42,38191-14-19,38191/14,15812.5,31.2383985297,34.7707133247,2022
2022-12-26,2022-12-26,"בית אל 29, באר שבע",בית אל 29,38115-19-37,דירה בבית קומות,3.0,שלישית,60.0,695000,,,1970.0,,4.0,11013456150,1,3811519,False,25% ב 7.8 שנים,באר שבע,בית אל,3.21,38115-19-37,38115/19,11583.333333333334,31.2449731283,34.7745833348,2022
2022-12-26,2022-12-26,"מבצע משה 1, באר שבע",מבצע משה 1,38137-17-21,דירה בבית קומות,3.0,ראשונה,67.7,840000,,,1991.0,,,11013331410,1,3813717,False,58% ב 11.4 שנים,באר שבע,מבצע משה,5.09,38137-17-21,38137/17,12407.68094534712,31.2365157229,34.7784798071,2022
2022-12-26,2022-12-26,"מצדה 91, באר שבע",מצדה 91,38021-10-16,דירה בבית קומות,4.0,שניה,76.0,790000,,,1970.0,,5.0,11070130950,1,3802110,False,9% ב 5.2 שנים,באר שבע,מצדה,1.73,38021-10-16,38021/10,10394.736842105263,31.2580250269,34.781469105,2022
2022-12-26,2022-12-26,"ביאליק 123, באר שבע",ביאליק 123,38116-38-14,דירה בבית קומות,3.0,שלישית,52.15,780000,,,1970.0,,3.0,11013277230,1,3811638,False,26% ב 7.5 שנים,באר שבע,ביאליק,3.47,38116-38-14,38116/38,14956.8552253116,31.2457347369,34.7883261642,2022
2022-12-26,2022-12-26,"הרב קוק 6, באר שבע",הרב קוק 6,38103-5-9,דירה בבית קומות,4.0,ראשונה,76.1,880000,,,1970.0,,4.0,11071709640,1,381035,False,66% ב 8.8 שנים,באר שבע,הרב קוק,7.5,38103-5-9,38103/5,11563.731931668855,31.2588123759,34.7712469964,2022
2022-12-26,2022-12-26,"נגבה 83, באר שבע",נגבה 83,38006-34-1,דירה בבית קומות,3.5,ראשונה,100.0,1750000,,,1970.0,,1.0,11013225120,1,3800634,False,,באר שבע,נגבה,,38006-34-1,38006/34,17500.0,31.2424527107,34.7807591728,2022
2022-12-26,2022-12-26,"פקועה 1, באר שבע",פקועה 1,38255-25-1,מסחרי + משרדים,,,1198.0,2600000,,,,,,11071262610,1,3825525,False,,באר שבע,פקועה,,38255-25-1,38255/25,2170.2838063439067,31.2314956239,34.7961138141,2022
2022-12-26,2022-12-26,"דוד ניב ניב 7, באר שבע",דוד ניב ניב 7,38189-3-93,דירה בבית קומות,3.0,חמישית,71.7,1270000,,,1999.0,,13.0,11070134010,1,381893,False,24% ב 4.4 שנים,באר שבע,ניב דוד,5.45,38189-3-93,38189/3,17712.691771269176,31.2379603811,34.769256777,2022
2022-12-25,2022-12-25,"מצדה 144, באר שבע",מצדה 144,38128-10-16,דירה בבית קומות,3.0,רביעית,66.0,920000,,,1970.0,,6.0,11013320160,1,3812810,False,76% ב 2.4 שנים,באר שבע,מצדה,31.67,38128-10-16,38128/10,13939.39393939394,31.2592245748,34.7841343163,2022
2022-12-25,2022-12-25,"חזני מיכאל 20, באר שבע",חזני מיכאל 20,38106-6-12,דירה בבית קומות,3.0,ראשונה,68.5,800000,,,1992.0,,3.0,11071257390,1,381066,False,,באר שבע,חזני מיכאל,,38106-6-12,38106/6,11678.83211678832,31.2615325797,34.7716829009,2022
2022-12-25,2022-12-25,"סנהדרין 33, באר שבע",סנהדרין 33,38082-17-8,דירה בבית קומות,3.0,ראשונה,42.7,630000,,,1960.0,,3.0,11070211230,1,3808217,False,,באר שבע,סנהדרין,,38082-17-8,38082/17,14754.098360655737,31.2721877221,34.7950875989,2022
2022-12-25,2022-12-25,"הראל 2, באר שבע",הראל 2,38100-1-13,דירה בבית קומות,4.0,שניה,79.5,820000,,,1980.0,,3.0,11071167570,1,381001,False,,באר שבע,הראל,,38100-1-13,38100/1,10314.465408805032,31.2638799361,34.7744989899,2022
2022-12-25,2022-12-25,"הרב קוק 3, באר שבע",הרב קוק 3,38103-11-27,דירה בבית קומות,4.0,שניה,72.6,920000,,,1970.0,,4.0,11072112750,1,3810311,False,180% ב 23.5 שנים,באר שבע,הרב קוק,7.66,38103-11-27,38103/11,12672.176308539943,31.2582851229,34.7712679623,2022
2022-12-25,2022-12-25,"ימית 18, באר שבע",ימית 18,38111-197-12,דירה בבית קומות,4.0,שלישית,83.5,1300000,,,2001.0,,9.0,11013274890,1,38111197,False,78% ב 11.5 שנים,באר שבע,ימית,6.78,38111-197-12,38111/197,15568.862275449104,31.2449694494,34.7724349585,2022
2022-12-25,2022-12-25,"יהודה גור 3, באר שבע",יהודה גור 3,38190-9-9,דירה בבית קומות,3.0,שניה,74.0,1220000,,,1999.0,,5.0,11013136020,1,381909,False,238% ב 15.4 שנים,באר שבע,גור יהודה,15.45,38190-9-9,38190/9,16486.486486486487,31.2409577106,34.7751558087,2022
2022-12-23,2022-12-23,"בני אור 28, באר שבע",בני אור 28,38128-19-33,דירה בבית קומות,4.0,שניה,84.0,790000,,,1970.0,,4.0,11070872820,1,3812819,False,,באר שבע,בני אור,,38128-19-33,38128/19,9404.761904761905,31.2588040607,34.7847797899,2022
2022-12-23,2022-12-23,"הרב הרצוג 27, באר שבע",הרב הרצוג 27,38124-40-6,דירה בבית קומות,3.0,שלישית,61.0,730000,,,1990.0,,3.0,11013289110,1,3812440,True,-2% ב 1.5 שנים,באר שבע,הרב הרצוג,-1.33,38124-40-6,38124/40,11967.2131147541,31.2603899584,34.7677590068,2022
2022-12-22,2022-12-22,"דוד ניב ניב 26, באר שבע",דוד ניב ניב 26,38189-62-51,חנות,,ראשונה,56.0,628000,,,2010.0,,3.0,11013358140,1,3818962,False,,באר שבע,ניב דוד,,38189-62-51,38189/62,11214.285714285714,31.2393437544,34.7694478322,2022
2022-12-22,2022-12-22,"הגאולים 5, באר שבע",הגאולים 5,38030-136-1,דירה בבית קומות,3.0,קרקע,72.0,1111000,,,2022.0,,1.0,11070044910,1,38030136,True,-7% ב 5.8 שנים,באר שבע,הגאולים,-1.21,38030-136-1,38030/136,15430.555555555557,31.2491854404,34.8033254018,2022
2022-12-22,2022-12-22,"מצדה 156, באר שבע",מצדה 156,38128-9-30,דירה בבית קומות,4.0,שניה,89.0,800000,,,1970.0,,3.0,11071428930,1,381289,False,142% ב 12.5 שנים,באר שבע,מצדה,11.36,38128-9-30,38128/9,8988.76404494382,31.2589005188,34.783099983,2022
2022-12-22,2022-12-22,,,38273-81-4,דירה בבית קומות,6.0,ראשונה,188.0,2925000,,,2021.0,,,11071030860,2,3827381,False,,באר שבע,נעמי שמר,,38273-81-4,38273/81,15558.510638297872,31.2664359932,34.7539186951,2022
2022-12-22,2022-12-22,"ידידיה אדמון 26, באר שבע",ידידיה אדמון 26,38301-109-2,דירת גן,3.0,ראשונה,100.0,1490000,,,1990.0,,1.0,11013457500,1,38301109,False,,באר שבע,אדמון ידידיה,,38301-109-2,38301/109,14900.0,31.2207167073,34.7723203843,2022
2022-12-22,2022-12-22,"מבצע יואב 41, באר שבע",מבצע יואב 41,38094-29-23,דירה בבית קומות,3.0,רביעית,65.0,675000,,,1970.0,,4.0,11070229050,1,3809429,False,,באר שבע,מבצע יואב,,38094-29-23,38094/29,10384.615384615385,31.2602326979,34.7799813637,2022
2022-12-22,2022-12-22,"ירקוני עמוס 11, באר שבע",ירקוני עמוס 11,38352-17-5,דירה בבית קומות,4.0,שניה,82.0,1145000,,,1995.0,,3.0,11072541870,1,3835217,False,30% ב 4 שנים,באר שבע,ירקוני עמוס,7.5,38352-17-5,38352/17,13963.414634146342,31.2662122781,34.7754110297,2022
2022-12-22,2022-12-22,"יעלים 106, באר שבע",יעלים 106,38101-26-23,דירה בבית קומות,3.0,רביעית,61.7,650000,,,1970.0,,4.0,11013062400,1,3810126,False,,באר שבע,יעלים,,38101-26-23,38101/26,10534.84602917342,31.2567543166,34.7750244595,2022
2022-12-22,2022-12-22,"אלכסנדר ינאי 22, באר שבע",אלכסנדר ינאי 22,38072-8-3,דירה בבית קומות,2.0,קרקע,38.5,423000,,,1950.0,,,11013225840,1,380728,False,,באר שבע,אלכסנדר ינאי,,38072-8-3,38072/8,10987.012987012988,31.2638978717,34.794812439,2022
2022-12-22,2022-12-22,"דולצ'ין אריה 8, באר שבע",דולצ'ין אריה 8,38130-65-14,דירה בבית קומות,3.0,שניה,67.0,750000,,,1990.0,,3.0,11070151830,1,3813065,False,37% ב 7.6 שנים,באר שבע,דולצ'ין אריה,4.87,38130-65-14,38130/65,11194.029850746268,31.2636807046,34.7669966382,2022
2022-12-22,2022-12-22,"גוש עציון 1, באר שבע",גוש עציון 1,38028-31-4,דירה בבית קומות,4.0,ראשונה,67.0,885000,,,1960.0,,1.0,11070460620,1,3802831,False,16% ב 5.5 שנים,באר שבע,גוש עציון,2.91,38028-31-4,38028/31,13208.955223880595,31.2539163594,34.809551524,2022
2022-12-22,2022-12-22,"החיד""א 2, באר שבע","החיד""א 2",38118-36-20,דירה בבית קומות,4.0,חמישית,93.9,920000,,,1970.0,,8.0,11013340950,1,3811836,False,10% ב 7 שנים,באר שבע,"החיד""א",1.43,38118-36-20,38118/36,9797.65708200213,31.2542235848,34.7696204627,2022
2022-12-22,2022-12-22,"הקנאים 4, באר שבע",הקנאים 4,38080-18-8,דירה בבית קומות,3.0,שניה,46.8,660000,,,1960.0,,2.0,11070021780,1,3808018,False,37% ב 5.5 שנים,באר שבע,הקנאים,6.73,38080-18-8,38080/18,14102.564102564103,31.2699313359,34.793401841,2022
2022-12-22,2022-12-22,"מיכאל חזני 1, באר שבע",מיכאל חזני 1,38106-13-47,דירה בבית קומות,4.0,ראשונה,77.8,1460000,,,1996.0,,8.0,11013032700,1,3810613,False,,באר שבע,חזני מיכאל,,38106-13-47,38106/13,18766.066838046278,31.2610513358,34.7704673471,2022
2022-12-22,2022-12-22,"יוסף בורג 30, באר שבע",יוסף בורג 30,38195-5-16,דירה בבית קומות,3.0,קומה ‎2‏,73.3,1600000,,,2015.0,,3.0,11012985990,1,381955,False,,באר שבע,בורג יוסף,,38195-5-16,38195/5,21828.103683492496,31.2334370023,34.7718935352,2022
2022-12-22,2022-12-22,"שרת משה 22, באר שבע",שרת משה 22,38105-11-21,דירה בבית קומות,4.0,שישית,76.8,595000,,,1980.0,,8.0,11013082560,1,3810511,False,,באר שבע,שרת משה,,38105-11-21,38105/11,7747.395833333334,31.2569747515,34.7674226959,2022
2022-12-22,2022-12-22,"פנחס רוזן 9, באר שבע",פנחס רוזן 9,38130-130-2,דירה בבית קומות,6.0,ראשונה,200.0,2810000,,,1970.0,,1.0,11070207450,1,38130130,False,,באר שבע,רוזן פנחס,,38130-130-2,38130/130,14050.0,31.2621470676,34.7646013806,2022
2022-12-22,2022-12-22,"יהודה בורלא 1, באר שבע",יהודה בורלא 1,38081-5-55,דירה בבית קומות,3.0,ראשונה,63.2,775000,,,1970.0,,3.0,11013175440,1,380815,False,9% ב 5.8 שנים,באר שבע,בורלא יהודה,1.55,38081-5-55,38081/5,12262.6582278481,31.2510979371,34.7760680793,2022
2022-12-22,2022-12-22,"יריחו 35, באר שבע",יריחו 35,38115-76-17,דירה בבית קומות,4.0,חמישית,97.0,960000,,,1980.0,,8.0,11013147090,1,3811576,False,6% ב 6.6 שנים,באר שבע,יריחו,0.91,38115-76-17,38115/76,9896.907216494845,31.2439810463,34.7770421237,2022
2022-12-21,2022-12-21,"שיטרית 2, באר שבע",שיטרית 2,38105-26-2,דירה בבית קומות,4.5,רביעית,114.0,1300000,,,1999.0,,,11070858600,1,3810526,False,,באר שבע,שיטרית,,38105-26-2,38105/26,11403.508771929824,31.2549298312,34.7654622397,2022
2022-12-21,2022-12-21,"בני אור 21, באר שבע",בני אור 21,38020-14-1,דירה בבית קומות,4.0,ראשונה,81.4,785000,,,1970.0,,4.0,11070537210,1,3802014,False,,באר שבע,בני אור,,38020-14-1,38020/14,9643.734643734642,31.2583534628,34.7857131844,2022
2022-12-21,2022-12-21,"יהודה הנחתום 4, באר שבע",יהודה הנחתום 4,38084-82-5,משרד,,שניה,160.0,1420000,,,2000.0,,3.0,11013372900,1,3808482,False,,באר שבע,יהודה הנחתום,,38084-82-5,38084/82,8875.0,31.2568220384,34.8133014959,2022
2022-12-21,2022-12-21,"דוד טוביהו 121, באר שבע",דוד טוביהו 121,38110-5-241,דירה בבית קומות,6.0,רביעית,212.0,2240000,,,2019.0,,30.0,11012917050,1,381105,False,,באר שבע,טוביהו דוד,,38110-5-241,38110/5,10566.037735849057,31.2499573475,34.773857833,2022
2022-12-21,2022-12-21,"מבצע יואב 24, באר שבע",מבצע יואב 24,38128-1-64,דירה בבית קומות,3.0,שלישית,63.0,610000,,,1970.0,,3.0,11013244380,1,381281,False,23% ב 7.2 שנים,באר שבע,מבצע יואב,3.19,38128-1-64,38128/1,9682.539682539682,31.2598148146,34.7810304876,2022
2022-12-21,2022-12-21,"אסוולדו ארניה 7, באר שבע",אסוולדו ארניה 7,38092-44-2,דירה בבית קומות,3.0,ראשונה,43.4,900000,,,1960.0,,4.0,11012959980,1,3809244,False,5% ב 5.8 שנים,באר שבע,ארניה אסוולדו,0.86,38092-44-2,38092/44,20737.327188940093,31.2671547322,34.8014069577,2022
2022-12-21,2022-12-21,"עמרי 9, באר שבע",עמרי 9,38107-57-1,קרקע למגורים,,,211.0,2232000,,,,,,11013091470,1,3810757,False,,באר שבע,עמרי,,38107-57-1,38107/57,10578.1990521327,31.2617817084,34.7821838194,2022
2022-12-21,2022-12-21,"יוהנה ז'בוטינסקי 19, באר שבע",יוהנה ז'בוטינסקי 19,38139-16-21,דירה בבית קומות,3.0,שניה,64.0,1065000,,,1998.0,,8.0,11013011280,1,3813916,False,,באר שבע,יוהנה ז'בוטינסקי,,38139-16-21,38139/16,16640.625,31.2368393237,34.7721766552,2022
2022-12-21,2022-12-21,"הכנסת 18, באר שבע",הכנסת 18,38082-33-44,דירה בבית קומות,2.0,רביעית,38.0,430000,,,1960.0,,4.0,11070255780,1,3808233,False,,באר שבע,הכנסת,,38082-33-44,38082/33,11315.78947368421,31.2714353749,34.7958479266,2022
2022-12-21,2022-12-21,"שמעון בר-גיורא 5, באר שבע",שמעון בר-גיורא 5,38079-50-4,דירה בבית קומות,1.5,שניה,27.9,710000,,,1960.0,,3.0,11013004710,1,3807950,False,46% ב 1.5 שנים,באר שבע,שמעון בר גיורא,30.67,38079-50-4,38079/50,25448.028673835128,31.263352294,34.7928605807,2022
2022-12-21,2022-12-21,"ח""ן 12, באר שבע","ח""ן 12",38353-9-24,דירה בבית קומות,4.0,שישית,90.1,1330000,,,1998.0,,7.0,11012921460,1,383539,False,83% ב 9 שנים,באר שבע,"ח""ן",9.22,38353-9-24,38353/9,14761.376248612654,31.2659401879,34.7777809288,2022
2022-12-21,2022-12-21,"שפרינצק 10, באר שבע",שפרינצק 10,38082-27-4,דירה בבית קומות,1.5,ראשונה,24.0,421000,,,1960.0,,4.0,11070266220,1,3808227,False,,באר שבע,שפרינצק,,38082-27-4,38082/27,17541.666666666668,31.2709208024,34.7930662238,2022
2022-12-21,2022-12-21,"זאב טיומקין 2, באר שבע",זאב טיומקין 2,38145-28-26,דירה בבית קומות,3.0,שלישית,65.0,1060000,,,1995.0,,4.0,11012987610,1,3814528,False,,באר שבע,טיומקין זאב,,38145-28-26,38145/28,16307.692307692309,31.2388862974,34.7666281336,2022
2022-12-21,2022-12-21,"בזל 67, באר שבע",בזל 67,38263-12-10,דירה בבית קומות,3.0,ראשונה,61.9,880000,,,1970.0,,4.0,11013468750,1,3826312,False,21% ב 4.4 שנים,באר שבע,בזל,4.77,38263-12-10,38263/12,14216.478190630049,31.2510968314,34.790382831,2022
2022-12-21,2022-12-21,"התלמוד 109, באר שבע",התלמוד 109,38089-123-30,דירה בבית קומות,3.0,שלישית,61.1,525000,,,1970.0,,3.0,11070253620,1,38089123,False,,באר שבע,התלמוד,,38089-123-30,38089/123,8592.471358428806,31.2689268429,34.7843052849,2022
2022-12-21,2022-12-21,"רמב""ן 72, באר שבע","רמב""ן 72",38089-4-42,דירה בבית קומות,3.0,שלישית,61.1,510000,,,1970.0,,3.0,11070258750,1,380894,False,,באר שבע,"רמב""ן",,38089-4-42,38089/4,8346.972176759411,31.2713169453,34.7819327384,2022
2022-12-21,2022-12-21,"דרור 47, באר שבע",דרור 47,38267-13-8,דירה בבית קומות,5.0,"קומה ‎0‏, קומה ‎1‏",150.0,2690000,,,2009.0,,1.0,11013031980,1,3826713,False,,באר שבע,דרור,,38267-13-8,38267/13,17933.333333333332,31.2266384441,34.7686568403,2022
2022-12-21,2022-12-21,"שמשון 10, באר שבע",שמשון 10,38021-31-15,דירה בבית קומות,4.0,חמישית,80.5,900000,,,1970.0,,5.0,11072117250,1,3802131,False,35% ב 4 שנים,באר שבע,שמשון,8.75,38021-31-15,38021/31,11180.124223602485,31.2561331638,34.7806691804,2022
2022-12-21,2022-12-21,"נעמי שמר 1, ",נעמי שמר 1,38274-80-9,קוטג' דו משפחתי,6.0,ראשונה,188.0,3020000,,,2024.0,,1.0,11071013760,1,3827480,False,,באר שבע,נעמי שמר,,38274-80-9,38274/80,16063.829787234044,31.2657698423,34.7530940677,2022
2022-12-21,2022-12-21,"יצחק אבינו 22, באר שבע",יצחק אבינו 22,38078-50-28,דירה בבית קומות,3.0,שניה,49.6,890000,,,1960.0,,3.0,11013233310,1,3807850,False,41% ב 10.4 שנים,באר שבע,יצחק אבינו,3.94,38078-50-28,38078/50,17943.548387096773,31.2596113923,34.7943700794,2022
2022-12-21,2022-12-21,"שפרינצק 10, באר שבע",שפרינצק 10,38082-27-1,דירה בבית קומות,2.0,ראשונה,35.9,506000,,,1960.0,,4.0,11070263970,1,3808227,False,,באר שבע,שפרינצק,,38082-27-1,38082/27,14094.707520891365,31.2709208024,34.7930662238,2022
2022-12-21,2022-12-21,"סנהדרין 46, באר שבע",סנהדרין 46,38082-9-14,דירה בבית קומות,3.0,ראשונה,42.8,468000,,,1970.0,,3.0,11071090260,1,380829,False,,באר שבע,סנהדרין,,38082-9-14,38082/9,10934.579439252337,31.2721899027,34.7935820828,2022
2022-12-20,2022-12-20,"פרישמן דוד 2, באר שבע",פרישמן דוד 2,38191-18-27,דירה בבית קומות,4.0,שישית שביעית,98.0,1515000,,,2000.0,,7.0,11070128700,1,3819118,False,203% ב 15 שנים,באר שבע,פרישמן דוד,13.53,38191-18-27,38191/18,15459.183673469388,31.2390768993,34.7725958491,2022
2022-12-20,2022-12-20,"שמעון בר-גיורא 11, באר שבע",שמעון בר-גיורא 11,38078-25-3,דירה בבית קומות,3.0,שניה,66.3,765000,,,1960.0,,3.0,11012853780,1,3807825,False,17% ב 5.5 שנים,באר שבע,שמעון בר גיורא,3.09,38078-25-3,38078/25,11538.46153846154,31.2624537611,34.7927149539,2022
2022-12-20,2022-12-20,"סנהדרין 117, באר שבע",סנהדרין 117,38096-6-11,דירה בבית קומות,3.0,רביעית,60.0,605000,,,1970.0,,4.0,11012759730,1,380966,False,19% ב 4.3 שנים,באר שבע,סנהדרין,4.42,38096-6-11,38096/6,10083.333333333334,31.2686238389,34.787432678,2022
2022-12-20,2022-12-20,"ביאליק 43, באר שבע",ביאליק 43,38074-51-4,דירה בבית קומות,3.0,שניה,54.8,1000000,,,1970.0,,4.0,11013200730,1,3807451,False,70% ב 9.7 שנים,באר שבע,ביאליק,7.22,38074-51-4,38074/51,18248.17518248175,31.2534362722,34.7919482959,2022
2022-12-20,2022-12-20,"רמב""ן 84, באר שבע","רמב""ן 84",38089-2-11,דירה בבית קומות,3.0,שניה,61.9,600000,,,1970.0,,3.0,11012985270,1,380892,False,69% ב 9 שנים,באר שבע,"רמב""ן",7.67,38089-2-11,38089/2,9693.053311793215,31.2708928729,34.7825656473,2022
2022-12-20,2022-12-20,"אברהם אבינו 39, באר שבע",אברהם אבינו 39,38079-8-22,דירה בבית קומות,3.0,שניה,42.0,944000,,,1960.0,,3.0,11013000210,1,380798,False,3% ב 2 שנים,באר שבע,אברהם אבינו,1.5,38079-8-22,38079/8,22476.19047619048,31.2661093443,34.7932490756,2022
2022-12-20,2022-12-20,"ח""ן 8, באר שבע","ח""ן 8",38353-5-113,דירה בבית קומות,3.5,שביעית,71.0,1155000,,,1998.0,,9.0,11012884200,1,383535,False,51% ב 2.4 שנים,באר שבע,"ח""ן",21.25,38353-5-113,38353/5,16267.605633802816,31.2665807718,34.7770567264,2022
2022-12-20,2022-12-20,"חת""ם סופר 4, באר שבע","חת""ם סופר 4",38104-1-10,דירה בבית קומות,3.0,ראשונה,62.2,720000,,,1970.0,,4.0,11071935270,1,381041,False,15% ב 3.7 שנים,באר שבע,"חת""ם סופר",4.05,38104-1-10,38104/1,11575.56270096463,31.255472543,34.7690492194,2022
2022-12-20,2022-12-20,"מוריה 10, באר שבע",מוריה 10,38116-8-37,דירה בבית קומות,4.0,ראשונה,90.0,1200000,,,1970.0,,3.0,11012909490,1,381168,False,42% ב 2.1 שנים,באר שבע,מוריה,20.0,38116-8-37,38116/8,13333.333333333334,31.2474161779,34.7840447349,2022
2022-12-20,2022-12-20,"יד ושם 4, באר שבע",יד ושם 4,38030-15-32,דירה בבית קומות,1.0,חמש עשרה,25.0,420000,,,1960.0,,3.0,11012856750,1,3803015,False,,באר שבע,יד ושם,,38030-15-32,38030/15,16800.0,31.2521496443,34.8034240066,2022
2022-12-20,2022-12-20,"ישראל גלילי 27, באר שבע",ישראל גלילי 27,38368-4-10,דירה בבית קומות,4.0,שלישית,93.0,1300000,,,2003.0,,5.0,11013324570,1,383684,False,12% ב 5.8 שנים,באר שבע,גלילי ישראל,2.07,38368-4-10,38368/4,13978.494623655914,31.2848403168,34.8037603051,2022
2022-12-20,2022-12-20,"אברהם אבינו 49, באר שבע",אברהם אבינו 49,38079-3-5,דירה בבית קומות,3.0,שלישית,40.4,615000,,,1970.0,,3.0,11070942480,1,380793,False,7% ב 6.3 שנים,באר שבע,אברהם אבינו,1.11,38079-3-5,38079/3,15222.772277227725,31.2671509526,34.7925299035,2022
2022-12-20,2022-12-20,"בן-יהודה 20, באר שבע",בן-יהודה 20,38074-23-7,דירה בבית קומות,3.0,ראשונה,70.0,1100000,,,1970.0,,3.0,11070278730,1,3807423,False,69% ב 7.8 שנים,באר שבע,בן יהודה,8.85,38074-23-7,38074/23,15714.285714285714,31.2540569205,34.794643882,2022
2022-12-20,2022-12-20,"גמל 15, באר שבע",גמל 15,38058-1-59,דירה בבית קומות,3.0,ראשונה,54.5,730000,,,1970.0,,3.0,11013280920,1,380581,False,82% ב 8.8 שנים,באר שבע,גמל,9.32,38058-1-59,38058/1,13394.495412844037,31.2487189013,34.7792235087,2022
2022-12-19,2022-12-19,"אלכסנדר ינאי 26, באר שבע",אלכסנדר ינאי 26,38072-6-3,דירה בבית קומות,3.0,שניה,47.7,790000,,,1960.0,,3.0,11013370020,1,380726,False,25% ב 1.5 שנים,באר שבע,אלכסנדר ינאי,16.67,38072-6-3,38072/6,16561.844863731654,31.2640990433,34.7943127021,2022
2022-12-19,2022-12-19,"יד ושם 24, באר שבע",יד ושם 24,38030-4-74,דירה בבית קומות,2.0,שש עשרה,47.0,450000,,,1996.0,,17.0,11070138510,1,380304,False,,באר שבע,יד ושם,,38030-4-74,38030/4,9574.468085106382,31.2494969321,34.8017107307,2022
2022-12-19,2022-12-19,"מצדה 196, באר שבע",מצדה 196,38094-41-75,דירה בבית קומות,3.0,ראשונה,64.1,700000,,,1970.0,,3.0,11012680080,1,3809441,False,,באר שבע,מצדה,,38094-41-75,38094/41,10920.4368174727,31.2589892385,34.7760289553,2022
2022-12-19,2022-12-19,"פרופ' יהודה ליאו פיקרד 1, באר שבע",פרופ' יהודה ליאו פיקרד 1,38375-10-11,דירת גן,4.0,ראשונה,120.0,1600000,,,2003.0,,4.0,11012916330,1,3837510,False,,באר שבע,פיקרד,,38375-10-11,38375/10,13333.333333333334,31.2780424514,34.7993715267,2022
2022-12-19,2022-12-19,"בצלאל 29, באר שבע",בצלאל 29,38057-34-60,דירה בבית קומות,4.0,שמינית,90.0,1010000,,,1996.0,,8.0,11012692680,1,3805734,False,21% ב 7 שנים,באר שבע,בצלאל,3.0,38057-34-60,38057/34,11222.222222222224,31.2529575397,34.7880092633,2022
2022-12-19,2022-12-19,"קויפמן 36, באר שבע",קויפמן 36,38102-107-1,דירת גן,5.0,ראשונה,151.0,2335000,,,1990.0,,1.0,11013064020,1,38102107,False,,באר שבע,קויפמן,,38102-107-1,38102/107,15463.576158940396,31.2538914279,34.7741362485,2022
2022-12-19,2022-12-19,"טבנקין 1, באר שבע",טבנקין 1,38102-123-31,דירה בבית קומות,3.5,רביעית,66.3,620000,,,1970.0,,4.0,11071116990,1,38102123,False,129% ב 24.6 שנים,באר שבע,טבנקין,5.24,38102-123-31,38102/123,9351.432880844646,31.2557274925,34.7753213851,2022
2022-12-19,2022-12-19,"משה קהירי 13, באר שבע",משה קהירי 13,38367-11-57,דירה בבית קומות,4.0,שישית,89.4,1315000,,,2012.0,,6.0,11070990810,1,3836711,False,64% ב 11.5 שנים,באר שבע,קהירי,5.57,38367-11-57,38367/11,14709.17225950783,31.2842156031,34.8026391618,2022
2022-12-18,2022-12-18,"סנהדרין 101, באר שבע",סנהדרין 101,38080-61-6,דירה בבית קומות,3.0,שניה,47.9,590000,,,1970.0,,4.0,11070238590,1,3808061,False,,באר שבע,סנהדרין,,38080-61-6,38080/61,12317.327766179542,31.2695472636,34.7896329619,2022
2022-12-18,2022-12-18,"יצחק שתל 28, באר שבע",יצחק שתל 28,38197-17-40,דירה בבית קומות,4.0,רביעית,80.0,1280000,,,2003.0,,4.0,11012546610,1,3819717,False,,באר שבע,שתל יצחק,,38197-17-40,38197/17,16000.0,31.2781908025,34.8211988982,2022
2022-12-18,2022-12-18,"אברהם אבינו 33, באר שבע",אברהם אבינו 33,38079-16-14,דירה בבית קומות,4.0,שניה,64.7,970000,,,1970.0,,3.0,11070399060,1,3807916,False,16% ב 1.5 שנים,באר שבע,אברהם אבינו,10.67,38079-16-14,38079/16,14992.27202472952,31.2653042753,34.7930091641,2022
2022-12-18,2022-12-18,"שפרינצק 8, באר שבע",שפרינצק 8,38082-28-8,דירה בבית קומות,2.0,שניה,35.9,630000,,,1960.0,,4.0,11071006290,1,3808228,False,,באר שבע,שפרינצק,,38082-28-8,38082/28,17548.74651810585,31.2706702591,34.7932284758,2022
2022-12-18,2022-12-18,"יצחק רגר 117, באר שבע",יצחק רגר 117,38072-130-11,דירה בבית קומות,3.0,ראשונה,57.3,940000,,,1970.0,,3.0,11070240210,1,38072130,False,,באר שבע,רגר יצחק,,38072-130-11,38072/130,16404.886561954627,31.2637011187,34.7976467384,2022
2022-12-18,2022-12-18,"אריה דולצ'ין 5, באר שבע",אריה דולצ'ין 5,38130-52-3,דירה בבית קומות,3.0,קרקע,68.0,161000,,,1993.0,,5.0,11072293920,1,3813052,False,,באר שבע,דולצ'ין אריה,,38130-52-3,38130/52,2367.6470588235293,31.2631105176,34.767123458,2022
2022-12-18,2022-12-18,"פל-ים 52, באר שבע",פל-ים 52,38100-45-14,דירה בבית קומות,4.0,שלישית,80.6,820000,,,1970.0,,3.0,11013227280,1,3810045,False,57% ב 8.4 שנים,באר שבע,פל-ים,6.79,38100-45-14,38100/45,10173.697270471464,31.2643455469,34.7778973309,2022
2022-12-18,2022-12-18,"מצדה 196, באר שבע",מצדה 196,38094-41-55,דירה בבית קומות,3.0,שלישית,64.7,772000,,,1970.0,,3.0,11012795190,1,3809441,False,2% ב 2 שנים,באר שבע,מצדה,1.0,38094-41-55,38094/41,11931.993817619785,31.2589892385,34.7760289553,2022
2022-12-18,2022-12-18,,,38009-51-41,דירה בבית קומות,6.0,עשירית,146.0,2450000,,,2022.0,,,11070105660,2,3800951,False,,באר שבע,תאנה,,38009-51-41,38009/51,16780.821917808218,31.2319197072,34.7996253965,2022
2022-12-18,2022-12-18,"גדעון האוזנר 10, באר שבע",גדעון האוזנר 10,38365-11-19,דירה בבית קומות,4.0,שניה,89.0,1450000,,,2015.0,,5.0,11012576310,1,3836511,False,40% ב 7.8 שנים,באר שבע,האוזנר גדעון,5.13,38365-11-19,38365/11,16292.134831460677,31.2867584488,34.8054134537,2022
2022-12-16,2022-12-16,"שאול המלך 137, באר שבע",שאול המלך 137,38104-13-26,דירה בבית קומות,3.0,שביעית,65.1,850000,,,1980.0,,8.0,11070127980,1,3810413,False,41% ב 1.5 שנים,באר שבע,שאול המלך,27.33,38104-13-26,38104/13,13056.8356374808,31.2578322296,34.7689984481,2022
2022-12-16,2022-12-16,"יד ושם 24, באר שבע",יד ושם 24,38030-4-94,דירה בבית קומות,2.0,שש עשרה,55.0,555000,,,1996.0,,17.0,11012700960,1,380304,False,,באר שבע,יד ושם,,38030-4-94,38030/4,10090.90909090909,31.2494969321,34.8017107307,2022
2022-12-15,2022-12-15,"שאול המלך 131, באר שבע",שאול המלך 131,38103-4-7,דירה בבית קומות,3.0,שלישית,60.3,690000,,,1970.0,,4.0,11013287490,1,381034,False,62% ב 9.7 שנים,באר שבע,שאול המלך,6.39,38103-4-7,38103/4,11442.786069651742,31.2591813541,34.7708722022,2022
2022-12-15,2022-12-15,"מונטיפיורי 18, באר שבע",מונטיפיורי 18,38129-49-3,דירה בבית קומות,6.0,ראשונה,86.0,1240000,,,1950.0,,1.0,11071069560,1,3812949,False,,באר שבע,מונטיפיורי,,38129-49-3,38129/49,14418.60465116279,31.2497131303,34.7945723112,2022
2022-12-15,2022-12-15,"שמגר השופט 34, באר שבע",שמגר השופט 34,38100-76-20,דירה בבית קומות,3.0,ראשונה,59.8,670000,,,1980.0,,3.0,11070004590,1,3810076,False,11% ב 2.3 שנים,באר שבע,שמגר השופט,4.78,38100-76-20,38100/76,11204.013377926422,31.2630603435,34.7754549887,2022
2022-12-15,2022-12-15,"החיד""א 13, באר שבע","החיד""א 13",38118-8-12,דירה בבית קומות,3.0,שלישית,62.8,660000,,,1980.0,,3.0,11013465780,1,381188,False,20% ב 6.5 שנים,באר שבע,"החיד""א",3.08,38118-8-12,38118/8,10509.55414012739,31.2536203222,34.7699285666,2022
2022-12-15,2022-12-15,"הרב שלמה טנא 24, באר שבע",הרב שלמה טנא 24,38389-19-20,דירה בבית קומות,5.0,חמישית,127.4,1445000,,,2011.0,,15.0,11070126540,1,3838919,False,20% ב 1.5 שנים,באר שבע,הרב טנא שלמה,13.33,38389-19-20,38389/19,11342.229199372056,31.2342752101,34.7852178362,2022
2022-12-15,2022-12-15,"רונאל דב 13, באר שבע",רונאל דב 13,38189-30-10,דירה בבית קומות,4.0,ראשונה,96.0,1440000,,,2000.0,,3.0,11013218370,1,3818930,False,21% ב 7 שנים,באר שבע,רונאל דב,3.0,38189-30-10,38189/30,15000.0,31.2402325496,34.7727295749,2022
2022-12-15,2022-12-15,"יבנה 27, באר שבע",יבנה 27,38111-54-14,דירה בבית קומות,4.0,רביעית,73.3,765000,,,1970.0,,4.0,11012542110,1,3811154,False,15% ב 4.3 שנים,באר שבע,יבנה,3.49,38111-54-14,38111/54,10436.562073669853,31.2456203925,34.7721726433,2022
2022-12-15,2022-12-15,"שלומציון 14, באר שבע",שלומציון 14,38108-98-2,דירה בבית קומות,4.0,ראשונה,76.0,880000,,,1970.0,,4.0,11013007500,1,3810898,False,,באר שבע,שלומציון,,38108-98-2,38108/98,11578.947368421052,31.2647638987,34.7819103492,2022
2022-12-15,2022-12-15,"קלישר 50, באר שבע",קלישר 50,38076-35-32,דירה בבית קומות,4.0,רביעית,79.55,925000,,,1970.0,,4.0,11012959260,1,3807635,False,42% ב 2.1 שנים,באר שבע,קלישר,20.0,38076-35-32,38076/35,11627.906976744189,31.2541908781,34.8109957997,2022
2022-12-15,2022-12-15,"רמב""ם 60, באר שבע","רמב""ם 60",38035-39-64,דירה בבית קומות,4.0,שניה,106.3,800000,,,1970.0,,7.0,11012412060,1,3803539,False,89% ב 23.3 שנים,באר שבע,"רמב""ם",3.82,38035-39-64,38035/39,7525.870178739417,31.2447068789,34.7869271944,2022
2022-12-15,2022-12-15,"אברהם ברוידס 16, באר שבע",אברהם ברוידס 16,38382-37-2,דירה בבית קומות,5.0,ראשונה,143.0,2280000,,,1992.0,,1.0,11012441760,1,3838237,False,,באר שבע,ברוידס אברהם,,38382-37-2,38382/37,15944.055944055945,31.2660181193,34.755985066,2022
2022-12-15,2022-12-15,"אלפסי 22, באר שבע",אלפסי 22,38103-55-3,דירה בבית קומות,4.0,ראשונה,62.8,740000,,,1980.0,,4.0,11012432850,1,3810355,False,52% ב 8.7 שנים,באר שבע,אלפסי,5.98,38103-55-3,38103/55,11783.43949044586,31.2594033437,34.77161968,2022
2022-12-15,2022-12-15,"יצחק רגר 101, באר שבע",יצחק רגר 101,38072-132-27,דירה בבית קומות,4.0,ראשונה,80.6,1150000,,,1970.0,,3.0,11013086340,1,38072132,False,253% ב 15.1 שנים,באר שבע,רגר יצחק,16.75,38072-132-27,38072/132,14267.990074441688,31.2625081359,34.797896507,2022
2022-12-15,2022-12-15,"בן נון 6, באר שבע",בן נון 6,38100-60-13,דירה בבית קומות,3.0,שלישית,59.8,660000,,,1970.0,,4.0,11071151190,1,3810060,False,40% ב 9 שנים,באר שבע,בן נון,4.44,38100-60-13,38100/60,11036.789297658865,31.2628545387,34.7771696628,2022
2022-12-15,2022-12-15,"חת""ם סופר 2, באר שבע","חת""ם סופר 2",38104-2-7,דירה בבית קומות,3.0,שניה,65.1,785000,,,1980.0,,8.0,11072028150,1,381042,False,,באר שבע,"חת""ם סופר",,38104-2-7,38104/2,12058.371735791092,31.2550283376,34.7687034674,2022
2022-12-15,2022-12-15,"גדעון האוזנר 15, באר שבע",גדעון האוזנר 15,38365-5-7,דירה בבית קומות,4.0,שלישית,87.3,1350000,,,2007.0,,4.0,11070377460,1,383655,False,178% ב 15.6 שנים,באר שבע,האוזנר גדעון,11.41,38365-5-7,38365/5,15463.917525773197,31.2870233233,34.8047840607,2022
2022-12-14,2022-12-14,"התלמוד 60, באר שבע",התלמוד 60,38089-101-37,דירה בבית קומות,3.0,שלישית,61.9,520000,,,1960.0,,3.0,11012411340,1,38089101,False,62% ב 8 שנים,באר שבע,התלמוד,7.75,38089-101-37,38089/101,8400.646203554119,31.2695050388,34.785335994,2022
2022-12-14,2022-12-14,"הרב שלמה טנא 8, באר שבע",הרב שלמה טנא 8,38389-17-18,דירה בבית קומות,4.5,רביעית,98.0,1491000,,,2002.0,,9.0,11070592830,1,3838917,False,30% ב 2.9 שנים,באר שבע,הרב טנא שלמה,10.34,38389-17-18,38389/17,15214.285714285714,31.2340000052,34.7830283706,2022
2022-12-14,2022-12-14,"רמב""ם 52, באר שבע","רמב""ם 52",38035-35-44,דירה בבית קומות,4.0,חמישית,109.7,1050000,,,1980.0,,9.0,11012735880,1,3803535,False,,באר שבע,"רמב""ם",,38035-35-44,38035/35,9571.558796718322,31.2447398339,34.788295815,2022
2022-12-14,2022-12-14,"מגידו 14, באר שבע",מגידו 14,38115-71-3,דירה בבית קומות,3.0,שניה,59.5,755000,,,1970.0,,4.0,11012401710,1,3811571,False,,באר שבע,מגידו,,38115-71-3,38115/71,12689.0756302521,31.2437573445,34.7758988636,2022
2022-12-14,2022-12-14,"ציזלינג 10, באר שבע",ציזלינג 10,38131-6-5,דירה בבית קומות,4.0,ראשונה,87.0,900000,,,1992.0,,3.0,11012599890,1,381316,False,34% ב 8 שנים,באר שבע,ציזלינג,4.25,38131-6-5,38131/6,10344.827586206897,31.2591517053,34.7629583159,2022
2022-12-14,2022-12-14,"רחל אימנו 44, באר שבע",רחל אימנו 44,100621-14-56,דירה בבית קומות,2.0,קומה ‎3‏,60.21,980000,,,1997.0,,4.0,11070125820,1,10062114,False,11% ב 1.6 שנים,באר שבע,רחל אמנו,6.88,100621-14-56,100621/14,16276.366052150805,31.2711366709,34.7642418604,2022
2022-12-14,2022-12-14,"שמעוני 12, באר שבע",שמעוני 12,38074-34-1,דירה בבית קומות,3.0,ראשונה,65.0,950000,,,1970.0,,3.0,11072948130,1,3807434,False,,באר שבע,שמעוני,,38074-34-1,38074/34,14615.384615384615,31.2535389536,34.7952427342,2022
2022-12-14,2022-12-14,"אסירי ציון 25, באר שבע",אסירי ציון 25,38030-118-3,דירה בבית קומות,2.0,ראשונה,29.2,520000,,,1960.0,,1.0,11012446260,1,38030118,False,10% ב 2.5 שנים,באר שבע,אסירי ציון,4.0,38030-118-3,38030/118,17808.219178082192,31.2494364927,34.8049870221,2022
2022-12-13,2022-12-13,"דולצ'ין אריה 8, באר שבע",דולצ'ין אריה 8,38130-65-15,דירה בבית קומות,3.0,שלישית,66.0,700000,,,1990.0,,3.0,11012793750,1,3813065,False,42% ב 9 שנים,באר שבע,דולצ'ין אריה,4.67,38130-65-15,38130/65,10606.060606060606,31.2636807046,34.7669966382,2022
2022-12-13,2022-12-13,"קדש 22, באר שבע",קדש 22,38073-96-20,דירה בבית קומות,3.0,ראשונה,53.7,900000,,,1970.0,,3.0,11012147010,1,3807396,False,29% ב 2.8 שנים,באר שבע,קדש,10.36,38073-96-20,38073/96,16759.77653631285,31.267545218,34.7974848316,2022
2022-12-13,2022-12-13,"רפאל קלצ'קין 39, באר שבע",רפאל קלצ'קין 39,38379-1-29,דירה בבית קומות,3.0,קרקע,63.0,1220000,,,1995.0,,2.0,11070262530,1,383791,False,27% ב 0.4 שנים,באר שבע,קלצ'קין רפאל,67.5,38379-1-29,38379/1,19365.079365079364,31.2676112088,34.7684696639,2022
2022-12-13,2022-12-13,"שאול המלך 24, באר שבע",שאול המלך 24,38108-91-16,דירה בבית קומות,3.0,רביעית,64.4,625000,,,1970.0,,4.0,11071687410,1,3810891,False,7% ב 2.1 שנים,באר שבע,שאול המלך,3.33,38108-91-16,38108/91,9704.96894409938,31.2637372779,34.7818303715,2022
2022-12-13,2022-12-13,"מבצע נחשון 12, באר שבע",מבצע נחשון 12,38128-5-40,דירה בבית קומות,3.0,שלישית,67.0,670000,,,1970.0,,3.0,11013093810,1,381285,False,,באר שבע,מבצע נחשון,,38128-5-40,38128/5,10000.0,31.259247145,34.7821787112,2022
2022-12-13,2022-12-13,"בר-ניסן 13, באר שבע",בר-ניסן 13,38187-59-59,דירה בבית קומות,3.0,שניה,73.2,1150000,,,2002.0,,8.0,11012394420,1,3818759,False,11% ב 6 שנים,באר שבע,בר ניסן,1.83,38187-59-59,38187/59,15710.3825136612,31.2398695048,34.7630533786,2022
2022-12-13,2022-12-13,"דוד וולפסון 36, באר שבע",דוד וולפסון 36,38018-25-31,דירה בבית קומות,4.0,שמינית,93.9,800000,,,1970.0,,8.0,11012347530,1,3801825,False,,באר שבע,וולפסון דוד,,38018-25-31,38018/25,8519.701810436634,31.2446372469,34.8007563687,2022
2022-12-13,2022-12-13,"וינגייט 36, באר שבע",וינגייט 36,38026-39-2,קוטג' חד משפחתי,3.0,קרקע,62.2,4200000,,,1960.0,,,11070730080,1,3802639,False,27% ב 0.9 שנים,באר שבע,וינגייט,30.0,38026-39-2,38026/39,67524.115755627,31.2562073687,34.8063505851,2022
2022-12-13,2022-12-13,"סוקולוב 24, באר שבע",סוקולוב 24,38116-63-166,דירה בבית קומות,4.0,ארבע עשרה,117.0,1680000,,,2012.0,,27.0,11012213880,1,3811663,False,48% ב 9.5 שנים,באר שבע,סוקולוב,5.05,38116-63-166,38116/63,14358.97435897436,31.2464339126,34.7894633131,2022
2022-12-13,2022-12-13,"אברהם אבינו 79, באר שבע",אברהם אבינו 79,38080-20-5,דירה בבית קומות,2.0,ראשונה,32.6,655000,,,1960.0,,2.0,11012199030,1,3808020,False,7% ב 5.8 שנים,באר שבע,אברהם אבינו,1.21,38080-20-5,38080/20,20092.0245398773,31.2690304888,34.7935140073,2022
2022-12-13,2022-12-13,"רבנו תם 32, באר שבע",רבנו תם 32,38089-48-2,דירה בבית קומות,5.0,קרקע,118.1,1160000,,,1970.0,,,11070828090,1,3808948,False,23% ב 4.8 שנים,באר שבע,רבנו תם,4.79,38089-48-2,38089/48,9822.184589331076,31.2710596131,34.7845534938,2022
2022-12-13,2022-12-13,"עוזי נרקיס 9, באר שבע",עוזי נרקיס 9,38373-7-34,דירה בבית קומות,4.0,ראשונה,88.0,1630000,,,2002.0,,5.0,11012377320,1,383737,False,29% ב 1.5 שנים,באר שבע,נרקיס עוזי,19.33,38373-7-34,38373/7,18522.727272727272,31.2820707802,34.8032542219,2022
2022-12-13,2022-12-13,"מאיר גרוסמן 5, באר שבע",מאיר גרוסמן 5,38146-7-14,דירה בבית קומות,4.0,שניה,89.73,1300000,,,1997.0,,10.0,11012654970,1,381467,False,75% ב 10 שנים,באר שבע,גרוסמן מאיר,7.5,38146-7-14,38146/7,14487.908168951297,31.234647465,34.7668847486,2022
2022-12-12,2022-12-12,"וינגייט 82, באר שבע",וינגייט 82,38127-1-53,דירה בבית קומות,4.0,שישית,76.0,1050000,,,1970.0,,8.0,11013059610,1,381271,False,,באר שבע,וינגייט,,38127-1-53,38127/1,13815.78947368421,31.2560267958,34.8017487663,2022
2022-12-12,2022-12-12,"מיכאל חזני 5, באר שבע",מיכאל חזני 5,38106-13-22,דירה בבית קומות,4.0,שניה,80.96,1100000,,,1997.0,,8.0,11012300820,1,3810613,False,25% ב 7 שנים,באר שבע,חזני מיכאל,3.57,38106-13-22,38106/13,13586.956521739132,31.2610513358,34.7704673471,2022
2022-12-12,2022-12-12,"מגידו 14, באר שבע",מגידו 14,38115-71-6,דירה בבית קומות,3.0,שלישית,59.5,700000,,,1970.0,,4.0,11012080230,1,3811571,False,125% ב 23.3 שנים,באר שבע,מגידו,5.36,38115-71-6,38115/71,11764.70588235294,31.2437573445,34.7758988636,2022
2022-12-12,2022-12-12,"שטרוק 3, באר שבע",שטרוק 3,38071-73-6,דירה בבית קומות,3.0,קרקע,72.8,1150000,,,1960.0,,1.0,11012004450,1,3807173,False,91% ב 11.1 שנים,באר שבע,שטרוק,8.2,38071-73-6,38071/73,15796.703296703296,31.2531931349,34.7890851183,2022
2022-12-12,2022-12-12,"א""ד גורדון 6, באר שבע","א""ד גורדון 6",38023-53-4,דירה בבית קומות,2.0,ראשונה,42.0,688000,,,1970.0,,4.0,11012166990,1,3802353,False,,באר שבע,גורדון א ד,,38023-53-4,38023/53,16380.952380952382,31.2478650209,34.7958141197,2022
2022-12-12,2022-12-12,"יצחק רגר 138, באר שבע",יצחק רגר 138,38092-5-8,דירה בבית קומות,4.0,רביעית,81.0,1030000,,,1970.0,,4.0,11012098680,1,380925,False,,באר שבע,רגר יצחק,,38092-5-8,38092/5,12716.04938271605,31.2681005557,34.7983615833,2022
2022-12-12,2022-12-12,"מבצע יונתן 25, באר שבע",מבצע יונתן 25,38108-46-1,קוטג' דו משפחתי,5.0,קרקע+ראשונה,123.6,1660000,,,1983.0,,,11013162030,1,3810846,False,25% ב 3 שנים,באר שבע,מבצע יונתן,8.33,38108-46-1,38108/46,13430.420711974111,31.2654177423,34.7829976799,2022
2022-12-12,2022-12-12,"סוסיה 6, באר שבע",סוסיה 6,38111-201-65,דירה בבית קומות,4.0,קומה ‎4‏,93.0,1450000,,,2005.0,,10.0,11013378210,1,38111201,False,83% ב 12.7 שנים,באר שבע,סוסיה,6.54,38111-201-65,38111/201,15591.397849462366,31.2448368207,34.7732079901,2022
2022-12-12,2022-12-12,"קדש 16, באר שבע",קדש 16,38073-98-22,דירה בבית קומות,3.0,שניה,63.5,920000,,,1960.0,,3.0,11012286600,1,3807398,False,71% ב 10.1 שנים,באר שבע,קדש,7.03,38073-98-22,38073/98,14488.188976377953,31.2671618489,34.7973000874,2022
2022-12-10,2022-10-12,"מבצע נחשון 51, באר שבע",מבצע נחשון 51,38088-90-4,דירה בבית קומות,6.0,קרקע וראשונה,150.9,1850000,,,1970.0,,,11007319950,1,3808890,False,,באר שבע,מבצע נחשון,,38088-90-4,38088/90,12259.774685222,31.2609601962,34.7864131197,2022
2022-12-09,2022-09-12,"מודיעין 6, באר שבע",מודיעין 6,38085-20-33,דירה בבית קומות,4.0,שניה,69.0,842000,,,1970.0,,3.0,11005171200,1,3808520,False,75% ב 8.8 שנים,באר שבע,מודיעין,8.52,38085-20-33,38085/20,12202.898550724638,31.2593957522,34.7902989166,2022
2022-12-09,2022-09-12,"רבי עקיבא 70, באר שבע",רבי עקיבא 70,38078-7-4,דירה בבית קומות,2.0,שניה,36.5,710000,,,1960.0,,4.0,11005102260,1,380787,False,,באר שבע,רבי עקיבא,,38078-7-4,38078/7,19452.054794520547,31.2612914862,34.7908368116,2022
2022-12-09,2022-09-12,"טבנקין 1, באר שבע",טבנקין 1,38102-123-10,דירה בבית קומות,3.5,ראשונה,66.3,750000,,,1970.0,,4.0,11005768170,1,38102123,False,59% ב 11.1 שנים,באר שבע,טבנקין,5.32,38102-123-10,38102/123,11312.217194570136,31.2557274925,34.7753213851,2022
2022-12-09,2022-09-12,"ציזלינג 3, באר שבע",ציזלינג 3,38131-12-10,דירה בבית קומות,3.0,שניה,62.7,149000,,,1990.0,,3.0,11005271550,1,3813112,False,,באר שבע,ציזלינג,,38131-12-10,38131/12,2376.395534290271,31.2587297717,34.7636843914,2022
2022-12-09,2022-09-12,"הצבי 121, באר שבע",הצבי 121,38102-17-36,דירה בבית קומות,3.0,שניה,72.1,800000,,,1970.0,,4.0,11006394930,1,3810217,False,23% ב 1.8 שנים,באר שבע,הצבי,12.78,38102-17-36,38102/17,11095.700416088766,31.2515927876,34.7730349926,2022
2022-12-09,2022-09-12,"הכ""ג 9, באר שבע","הכ""ג 9",38030-59-2,דירה בבית קומות,4.0,ראשונה,77.4,780000,,,1970.0,,3.0,11005277400,1,3803059,False,12% ב 5.1 שנים,באר שבע,"הכ""ג",2.35,38030-59-2,38030/59,10077.51937984496,31.250417223,34.8043191945,2022
2022-12-09,2022-09-12,"שאול המלך 131, באר שבע",שאול המלך 131,38103-4-56,דירה בבית קומות,2.0,ראשונה,41.2,640000,,,1970.0,,4.0,11006305110,1,381034,False,124% ב 9.5 שנים,באר שבע,שאול המלך,13.05,38103-4-56,38103/4,15533.980582524273,31.2591813541,34.7708722022,2022
2022-12-09,2022-09-12,"חווה 12, באר שבע",חווה 12,38170-21-3,דירה בבית קומות,5.0,ראשונה,158.0,1950000,,,1988.0,,1.0,11006986050,1,3817021,False,,באר שבע,חוה,,38170-21-3,38170/21,12341.772151898736,31.2684794958,34.7629947819,2022
2022-12-09,2022-09-12,"מצדה 12, באר שבע",מצדה 12,38075-3-63,דירה בבית קומות,3.0,רביעית,39.7,850000,,,1960.0,,4.0,11005857990,1,380753,False,21% ב 3.5 שנים,באר שבע,מצדה,6.0,38075-3-63,38075/3,21410.57934508816,31.2586096757,34.7934335157,2022
2022-12-09,2022-09-12,"מאיר גרוסמן 12, באר שבע",מאיר גרוסמן 12,38146-11-50,דירה בבית קומות,3.0,שלישית,68.0,1025000,,,1997.0,,3.0,11006353440,1,3814611,False,16% ב 2.9 שנים,באר שבע,גרוסמן מאיר,5.52,38146-11-50,38146/11,15073.529411764706,31.2355427114,34.7675638793,2022
2022-12-09,2022-09-12,"בני אור 21, באר שבע",בני אור 21,38020-14-2,דירה בבית קומות,4.0,ראשונה,81.4,790000,,,1970.0,,4.0,11005911630,1,3802014,False,9% ב 1.7 שנים,באר שבע,בני אור,5.29,38020-14-2,38020/14,9705.159705159704,31.2583534628,34.7857131844,2022
2022-12-09,2022-09-12,"יצחק שיפר 1, באר שבע",יצחק שיפר 1,38091-16-3,דירה בבית קומות,3.0,שניה,46.8,695000,,,1960.0,,4.0,11006624430,1,3809116,False,54% ב 10 שנים,באר שבע,שיפר יצחק,5.4,38091-16-3,38091/16,14850.427350427351,31.2715238071,34.7988705046,2022
2022-12-09,2022-09-12,"סוסיה 8, באר שבע",סוסיה 8,38111-201-104,דירה בבית קומות,5.0,קומה ‎3‏,116.0,1510000,,,2005.0,,10.0,11005535880,1,38111201,True,-35% ב 2.1 שנים,באר שבע,סוסיה,-16.67,38111-201-104,38111/201,13017.241379310344,31.2448368207,34.7732079901,2022
2022-12-09,2022-09-12,,,38068-1-150,דירה בבית קומות,6.0,ראשונה,232.0,2600000,,,2022.0,,,11006322930,2,380681,False,,באר שבע,קפריסין,,38068-1-150,38068/1,11206.896551724138,31.2526849461,34.779672642,2022
2022-12-08,2022-08-12,"משה קהירי 8, באר שבע",משה קהירי 8,38367-7-26,דירה בבית קומות,3.0,רביעית,70.1,1070000,,,2005.0,,5.0,11003055030,1,383677,False,55% ב 10 שנים,באר שבע,קהירי,5.5,38367-7-26,38367/7,15263.908701854494,31.2853094342,34.8010535196,2022
2022-12-08,2022-08-12,"מיכאל חזני 40, באר שבע",מיכאל חזני 40,38106-9-27,דירה בבית קומות,4.0,ראשונה,104.0,1250000,,,1990.0,,3.0,11002495410,1,381069,False,,באר שבע,חזני מיכאל,,38106-9-27,38106/9,12019.23076923077,31.262707843,34.7703922173,2022
2022-12-08,2022-08-12,"האיילה 17, באר שבע",האיילה 17,38081-8-10,דירה בבית קומות,3.0,ראשונה,65.1,773000,,,1970.0,,4.0,11002517460,1,380818,False,4% ב 3.4 שנים,באר שבע,האיילה,1.18,38081-8-10,38081/8,11874.039938556069,31.2515382516,34.7775736071,2022
2022-12-08,2022-08-12,"בן-יהודה 18, באר שבע",בן-יהודה 18,38074-22-13,דירה בבית קומות,3.0,שלישית,70.0,1260000,,,1970.0,,3.0,11002652010,1,3807422,False,40% ב 1.1 שנים,באר שבע,בן יהודה,36.36,38074-22-13,38074/22,18000.0,31.2540603949,34.7940875471,2022
2022-12-08,2022-08-12,"יעקב כהן 4, באר שבע",יעקב כהן 4,38074-153-145,דירה בבית קומות,5.0,תשיעית,179.0,1900000,,,2013.0,,18.0,11003319360,1,38074153,False,,באר שבע,כהן יעקב,,38074-153-145,38074/153,10614.525139664804,31.2531406618,34.7976337153,2022
2022-12-08,2022-08-12,"שמעון בר-גיורא 21, באר שבע",שמעון בר-גיורא 21,38078-24-3,דירה בבית קומות,2.0,שניה,35.8,620000,,,1960.0,,3.0,11002516020,1,3807824,False,37% ב 6.5 שנים,באר שבע,שמעון בר גיורא,5.69,38078-24-3,38078/24,17318.435754189944,31.2620377357,34.7928215296,2022
2022-12-08,2022-08-12,"האנדרטה 5, באר שבע",האנדרטה 5,38198-110-46,דירה בבית קומות,4.0,שלישית,88.0,1370000,,,2000.0,,5.0,11002590180,1,38198110,False,39% ב 7.7 שנים,באר שבע,האנדרטה,5.06,38198-110-46,38198/110,15568.181818181818,31.2757081175,34.8212777253,2022
2022-12-07,2022-07-12,"אלכסנדר ינאי 17, באר שבע",אלכסנדר ינאי 17,38072-39-15,דירה בבית קומות,2.0,שניה,40.2,800000,,,2013.0,,13.0,10999465740,1,3807239,False,16% ב 7.1 שנים,באר שבע,אלכסנדר ינאי,2.25,38072-39-15,38072/39,19900.49751243781,31.2634927971,34.794797057,2022
2022-12-07,2022-07-12,"מיכאל חזני 36, באר שבע",מיכאל חזני 36,38106-8-16,דירה בבית קומות,3.0,שלישית,64.0,620000,,,1991.0,,,11000475630,1,381068,False,,באר שבע,חזני מיכאל,,38106-8-16,38106/8,9687.5,31.2622883102,34.7708091026,2022
2022-12-07,2022-07-12,"ילין-מור 21, באר שבע",ילין-מור 21,38247-75-60,דירה בבית קומות,3.5,רביעית,82.0,1100000,,,2001.0,,6.0,11000615130,1,3824775,False,120% ב 13 שנים,באר שבע,ילין-מור,9.23,38247-75-60,38247/75,13414.634146341465,31.2750332381,34.821940781,2022
2022-12-07,2022-07-12,"יוסף בורג 25, באר שבע",יוסף בורג 25,38195-10-29,דירה בבית קומות,4.0,קומה ‎3‏,105.0,1680000,,,2016.0,,6.0,10998978030,1,3819510,False,,באר שבע,בורג יוסף,,38195-10-29,38195/10,16000.0,31.2326355649,34.7702340839,2022
2022-12-07,2022-07-12,"אברהם אבינו 18, באר שבע",אברהם אבינו 18,38072-1-17,דירה בבית קומות,3.0,שלישית,65.5,805000,,,1960.0,,4.0,10999984050,1,380721,False,9% ב 2.2 שנים,באר שבע,אברהם אבינו,4.09,38072-1-17,38072/1,12290.076335877862,31.2644419116,34.7938541292,2022
2022-12-07,2022-07-12,"הגנים 13, באר שבע",הגנים 13,38010-183-1,קוטג' חד משפחתי,3.0,ראשונה,99.0,1975000,,,1970.0,,1.0,10998994320,1,38010183,False,,באר שבע,הגנים,,38010-183-1,38010/183,19949.49494949495,31.2304597543,34.7890215883,2022
2022-12-07,2022-07-12,"עוזייה המלך 24, באר שבע",עוזייה המלך 24,38078-37-18,דירה בבית קומות,3.0,שלישית,44.3,930000,,,1960.0,,3.0,10999631340,1,3807837,False,31% ב 5 שנים,באר שבע,עוזיה המלך,6.2,38078-37-18,38078/37,20993.227990970656,31.2604859632,34.7934475952,2022
2022-12-07,2022-07-12,"מבצע עובדה 11, באר שבע",מבצע עובדה 11,38094-45-43,דירה בבית קומות,3.0,שלישית,66.8,650000,,,1970.0,,4.0,11002497480,1,3809445,False,4% ב 5.6 שנים,באר שבע,מבצע עובדה,0.71,38094-45-43,38094/45,9730.538922155689,31.2593762206,34.7785997151,2022
2022-12-07,2022-07-12,"בני אור 24, באר שבע",בני אור 24,38128-20-4,דירה בבית קומות,4.0,שניה,89.2,850000,,,1970.0,,4.0,10999217790,1,3812820,False,18% ב 3.7 שנים,באר שבע,בני אור,4.86,38128-20-4,38128/20,9529.14798206278,31.2589085088,34.7856328971,2022
2022-12-07,2022-07-12,"קלישר 20, באר שבע",קלישר 20,38076-19-16,דירה בבית קומות,3.0,שלישית,54.0,600000,,,1970.0,,3.0,11000464380,1,3807619,False,15% ב 6 שנים,באר שבע,קלישר,2.5,38076-19-16,38076/19,11111.111111111111,31.255379326,34.8110347611,2022
2022-12-07,2022-07-12,"אחד העם 6, באר שבע",אחד העם 6,38025-6-13,דירה בבית קומות,4.0,שלישית,103.0,920000,,,1970.0,,3.0,10998948330,1,380256,False,,באר שבע,אחד העם,,38025-6-13,38025/6,8932.038834951456,31.247479665,34.7919961602,2022
2022-12-07,2022-07-12,"השלום 133, באר שבע",השלום 133,38027-21-25,דירה בבית קומות,2.0,שניה,37.0,720000,,,1960.0,,3.0,10999594260,1,3802721,False,20% ב 2.5 שנים,באר שבע,השלום,8.0,38027-21-25,38027/21,19459.45945945946,31.2578568883,34.8111306673,2022
2022-12-07,2022-07-12,"מאיר גרוסמן 5, באר שבע",מאיר גרוסמן 5,38146-7-22,דירה בבית קומות,4.0,רביעית,93.24,1305000,,,1997.0,,10.0,10999534680,1,381467,False,16% ב 3 שנים,באר שבע,גרוסמן מאיר,5.33,38146-7-22,38146/7,13996.138996138998,31.234647465,34.7668847486,2022
2022-12-07,2022-07-12,"נחום שריג 23, באר שבע",נחום שריג 23,38370-13-23,דירה בבית קומות,4.0,רביעית,94.0,1260000,,,2003.0,,5.0,11001331710,1,3837013,False,108% ב 12 שנים,באר שבע,שריג נחום,9.0,38370-13-23,38370/13,13404.255319148937,31.2822440394,34.8053747831,2022
2022-12-07,2022-07-12,"האנדרטה 5, באר שבע",האנדרטה 5,38198-110-26,דירה בבית קומות,4.0,שניה,88.0,1246000,,,2000.0,,5.0,10999110870,1,38198110,False,139% ב 22.5 שנים,באר שבע,האנדרטה,6.18,38198-110-26,38198/110,14159.09090909091,31.2757081175,34.8212777253,2022
2022-12-07,2022-07-12,"נחום גוטמן 11, באר שבע",נחום גוטמן 11,38137-2-11,דירה בבית קומות,3.0,שלישית,67.5,531000,,,1994.0,,8.0,10998994950,1,381372,False,,באר שבע,גוטמן נחום,,38137-2-11,38137/2,7866.666666666667,31.2390067916,34.7787589425,2022
2022-12-07,2022-07-12,,,38068-1-157,דירה בבית קומות,5.0,שמינית,127.0,1860000,,,2022.0,,,10999906830,2,380681,False,,באר שבע,קפריסין,,38068-1-157,38068/1,14645.669291338583,31.2526849461,34.779672642,2022
2022-12-07,2022-07-12,"אבישג 1, באר שבע",אבישג 1,38169-15-1,קוטג' דו משפחתי,3.0,ראשונה,60.0,482000,,,1994.0,,,10999076040,1,3816915,False,,באר שבע,אבישג,,38169-15-1,38169/15,8033.333333333333,31.269568993,34.7616087806,2022
2022-12-07,2022-07-12,"ארלוזורוב 25, באר שבע",ארלוזורוב 25,38029-24-4,דירה בבית קומות,4.0,ראשונה,83.2,1250000,,,1960.0,,1.0,10999568970,1,3802924,False,52% ב 4.2 שנים,באר שבע,ארלוזורוב,12.38,38029-24-4,38029/24,15024.03846153846,31.2544689076,34.8056786763,2022
2022-12-07,2022-07-12,"נעמי שמר 1, ",נעמי שמר 1,38274-80-6,קוטג' דו משפחתי,6.0,,178.0,2900000,1.0,,2024.0,,1.0,11181231147,1,3827480,False,,באר שבע,נעמי שמר,,38274-80-6,38274/80,16292.134831460677,31.2657698423,34.7530940677,2022
2022-12-07,2022-07-12,"הזוהר 6, באר שבע",הזוהר 6,38090-93-1,דירה בבית קומות,5.0,ראשונה,130.0,1415000,,,1991.0,,1.0,10999713690,1,3809093,False,,באר שבע,הזוהר,,38090-93-1,38090/93,10884.615384615385,31.2711706192,34.788794799,2022
2022-12-07,2022-07-12,"ביאליק 53, באר שבע",ביאליק 53,38074-48-44,דירה בבית קומות,3.0,שניה,64.0,1130000,,,1970.0,,4.0,10999542960,1,3807448,False,21% ב 1.6 שנים,באר שבע,ביאליק,13.12,38074-48-44,38074/48,17656.25,31.253518569,34.7925062942,2022
2022-12-06,2022-06-12,"ח""ן 24, באר שבע","ח""ן 24",38352-12-6,דירה בבית קומות,4.0,שניה,75.0,955000,,,1997.0,,3.0,10995550740,1,3835212,False,27% ב 8 שנים,באר שבע,"ח""ן",3.38,38352-12-6,38352/12,12733.333333333334,31.2651687314,34.7755555953,2022
2022-12-06,2022-06-12,"משה שרת 36, באר שבע",משה שרת 36,38124-62-13,דירה בבית קומות,4.0,רביעית,79.8,805000,,,1992.0,,8.0,10998634770,1,3812462,False,,באר שבע,שרת משה,,38124-62-13,38124/62,10087.719298245614,31.2582595054,34.768316755,2022
2022-12-06,2022-06-12,"מצדה 119, באר שבע",מצדה 119,38101-8-5,דירה בבית קומות,3.0,שניה,64.3,735000,,,1970.0,,4.0,10995503130,1,381018,False,65% ב 8.8 שנים,באר שבע,מצדה,7.39,38101-8-5,38101/8,11430.793157076208,31.2586337981,34.7778013758,2022
2022-12-06,2022-06-12,"שרעבי 11, באר שבע",שרעבי 11,38076-26-7,דירה בבית קומות,3.0,שלישית,64.0,720000,,,1960.0,,3.0,10999061100,1,3807626,False,0% ב 0.9 שנים,באר שבע,שרעבי,0.0,38076-26-7,38076/26,11250.0,31.2547892561,34.8120178491,2022
2022-12-06,2022-06-12,"מינץ 28, באר שבע",מינץ 28,38101-15-16,דירה בבית קומות,3.0,רביעית,57.5,670000,,,1970.0,,5.0,10995387300,1,3810115,False,,באר שבע,מינץ,,38101-15-16,38101/15,11652.173913043478,31.2573315616,34.7781033409,2022
2022-12-06,2022-06-12,"מצדה 91, באר שבע",מצדה 91,38021-10-30,דירה בבית קומות,4.0,שלישית,76.0,730000,,,1970.0,,5.0,10996256070,1,3802110,False,3% ב 1.6 שנים,באר שבע,מצדה,1.88,38021-10-30,38021/10,9605.263157894737,31.2580250269,34.781469105,2022
2022-12-06,2022-06-12,"גדעון האוזנר 47, באר שבע",גדעון האוזנר 47,38365-1-5,דירה בבית קומות,3.0,ראשונה,105.3,1230000,,,2015.0,,7.0,10997709930,1,383651,False,,באר שבע,האוזנר גדעון,,38365-1-5,38365/1,11680.91168091168,31.2886736371,34.8058117565,2022
2022-12-06,2022-06-12,"יצחק רגר 145, באר שבע",יצחק רגר 145,38073-164-5,דירה בבית קומות,4.0,ראשונה,76.1,1230000,,,1960.0,,3.0,10997634960,1,38073164,False,29% ב 4.4 שנים,באר שבע,רגר יצחק,6.59,38073-164-5,38073/164,16162.94349540079,31.26510102,34.7977480926,2022
2022-12-06,2022-06-12,"טבנקין 50, באר שבע",טבנקין 50,38102-7-34,דירה בבית קומות,3.0,שלישית,65.9,595000,,,1970.0,,3.0,10996088310,1,381027,False,35% ב 7.6 שנים,באר שבע,טבנקין,4.61,38102-7-34,38102/7,9028.831562974205,31.2546037341,34.7729745616,2022
2022-12-06,2022-06-12,"בזל 61, באר שבע",בזל 61,38263-7-11,דירה בבית קומות,3.0,שניה,61.9,770000,,,1970.0,,4.0,10996789230,1,382637,False,16% ב 6 שנים,באר שבע,בזל,2.67,38263-7-11,38263/7,12439.418416801293,31.2512290771,34.7896483623,2022
2022-12-06,2022-06-12,"יהושע ייבין 9, באר שבע",יהושע ייבין 9,38187-9-14,דירה בבית קומות,4.0,קרקע,84.4,1470000,,,2002.0,,6.0,10997660070,1,381879,False,9% ב 5.9 שנים,באר שבע,ייבין יהושע,1.53,38187-9-14,38187/9,17417.061611374407,31.2385714114,34.7656096151,2022
2022-12-06,2022-06-12,"ביאליק 1, באר שבע",ביאליק 1,38074-1-13,דירה בבית קומות,3.0,שניה,69.0,1150000,,,1960.0,,3.0,10995564150,1,380741,False,67% ב 11.8 שנים,באר שבע,ביאליק,5.68,38074-1-13,38074/1,16666.666666666668,31.2549643106,34.7967157187,2022
2022-12-06,2022-06-12,"שפירא 6, באר שבע",שפירא 6,38023-48-21,דירה בבית קומות,3.0,שלישית,62.0,625000,,,1970.0,,4.0,10998880740,1,3802348,False,35% ב 9.3 שנים,באר שבע,שפירא,3.76,38023-48-21,38023/48,10080.645161290322,31.2485506956,34.7945366011,2022
2022-12-06,2022-06-12,"יוהנה ז'בוטינסקי 19, באר שבע",יוהנה ז'בוטינסקי 19,38139-16-16,דירה בבית קומות,3.0,קרקע,64.0,1100000,,,1998.0,,8.0,10997096580,1,3813916,False,,באר שבע,יוהנה ז'בוטינסקי,,38139-16-16,38139/16,17187.5,31.2368393237,34.7721766552,2022
2022-12-06,2022-06-12,"שאול המלך 89, באר שבע",שאול המלך 89,38100-85-21,דירה בבית קומות,3.0,שלישית,59.5,585000,,,1980.0,,4.0,10997821890,1,3810085,False,,באר שבע,שאול המלך,,38100-85-21,38100/85,9831.932773109243,31.2620901752,34.7773809539,2022
2022-12-06,2022-06-12,"גוש עציון 5, באר שבע",גוש עציון 5,38028-32-3,דירה בבית קומות,2.0,ראשונה,35.6,739000,,,1960.0,,1.0,10995513480,1,3802832,False,146% ב 8.6 שנים,באר שבע,גוש עציון,16.98,38028-32-3,38028/32,20758.42696629213,31.2538451911,34.8091185931,2022
2022-12-06,2022-06-12,"אלה 5, באר שבע",אלה 5,38486-2-0,קוטג' דו משפחתי,6.0,ראשונה,1440.0,2450000,,,2005.0,,1.0,10998169380,1,384862,False,226% ב 16.7 שנים,באר שבע,אלה,13.53,38486-2-0,38486/2,1701.388888888889,31.231632127,34.7849798616,2022
2022-12-06,2022-06-12,"אלפסי 31, באר שבע",אלפסי 31,38103-12-36,דירה בבית קומות,3.0,שניה,59.9,690000,,,1970.0,,4.0,10996178130,1,3810312,False,62% ב 10.9 שנים,באר שבע,אלפסי,5.69,38103-12-36,38103/12,11519.198664440735,31.2584519804,34.7718955222,2022
2022-12-06,2022-06-12,"עולי הגרדום 11, באר שבע",עולי הגרדום 11,38030-39-2,קרקע למגורים,,קרקע,104.9,1265000,,,,,,10997749890,1,3803039,False,61% ב 1.4 שנים,באר שבע,עולי הגרדום,43.57,38030-39-2,38030/39,12059.10390848427,31.2514669427,34.805400311,2022
2022-12-06,2022-06-12,"גולומב 10, באר שבע",גולומב 10,38029-14-1,דירת גן,4.0,קרקע,92.4,1290000,,,2014.0,,1.0,10996297560,1,3802914,False,103% ב 8.5 שנים,באר שבע,גולומב,12.12,38029-14-1,38029/14,13961.03896103896,31.253951862,34.8019254068,2022
2022-12-06,2022-06-12,"גוש עציון 5, באר שבע",גוש עציון 5,38028-32-4,דירה בבית קומות,2.0,ראשונה,54.3,737000,,,1960.0,,1.0,10998859230,1,3802832,False,110% ב 8.6 שנים,באר שבע,גוש עציון,12.79,38028-32-4,38028/32,13572.744014732963,31.2538451911,34.8091185931,2022
2022-12-05,2022-05-12,"חי""ל 15, באר שבע","חי""ל 15",38094-10-14,דירה בבית קומות,2.0,רביעית,33.3,535000,,,1970.0,,4.0,10993551120,1,3809410,False,57% ב 7 שנים,באר שבע,"חי""ל",8.14,38094-10-14,38094/10,16066.066066066069,31.2607918544,34.7769041506,2022
2022-12-05,2022-05-12,"סנהדרין 101, באר שבע",סנהדרין 101,38080-61-8,דירה בבית קומות,3.0,שניה,47.9,500000,,,1970.0,,4.0,10993882950,1,3808061,False,,באר שבע,סנהדרין,,38080-61-8,38080/61,10438.413361169103,31.2695472636,34.7896329619,2022
2022-12-05,2022-05-12,"הראל 2, באר שבע",הראל 2,38100-1-27,דירה בבית קומות,3.0,ראשונה,59.4,660000,,,1980.0,,3.0,10992026700,1,381001,False,,באר שבע,הראל,,38100-1-27,38100/1,11111.111111111111,31.2638799361,34.7744989899,2022
2022-12-05,2022-05-12,"יוכבד בת-מרים 8, באר שבע",יוכבד בת-מרים 8,38380-4-3,דירה בבית קומות,5.0,ראשונה,251.0,1900000,,,1980.0,,1.0,10992167010,1,383804,False,,באר שבע,יוכבד בת מרים,,38380-4-3,38380/4,7569.721115537848,31.2693002781,34.770121986,2022
2022-12-05,2022-05-12,"יוסף שטרן 7, באר שבע",יוסף שטרן 7,38375-23-7,חנות,,קרקע,35.2,580000,,,2000.0,,5.0,11010024180,1,3837523,False,0% ב 0.5 שנים,באר שבע,שטרן יוסף,0.0,38375-23-7,38375/23,16477.272727272724,31.2799258915,34.8000449792,2022
2022-12-05,2022-05-12,"ביאליק 3, באר שבע",ביאליק 3,38074-2-5,דירה בבית קומות,4.0,שניה,69.0,999000,,,1960.0,,3.0,11005610850,1,380742,False,0% ב 3 שנים,באר שבע,ביאליק,0.0,38074-2-5,38074/2,14478.260869565218,31.2552694794,34.7961297293,2022
2022-12-05,2022-05-12,"שאול המלך 135, באר שבע",שאול המלך 135,38103-1-73,דירה בבית קומות,3.0,רביעית,61.5,610000,,,1970.0,,4.0,10994450310,1,381031,False,60% ב 9.7 שנים,באר שבע,שאול המלך,6.19,38103-1-73,38103/1,9918.69918699187,31.2582487719,34.7700252735,2022
2022-12-05,2022-05-12,"דב יוסף 27, באר שבע",דב יוסף 27,38105-4-9,דירה בבית קומות,3.0,ראשונה,63.0,156000,,,2015.0,,4.0,10992074220,1,381054,False,,באר שבע,דב יוסף,,38105-4-9,38105/4,2476.190476190476,31.2553560336,34.7633355417,2022
2022-12-05,2022-05-12,"יעקב טלמון 10, באר שבע",יעקב טלמון 10,38133-166-1,דירה בבית קומות,3.0,ראשונה,73.0,1400000,,,1980.0,,1.0,10995672510,1,38133166,False,,באר שבע,טלמון יעקב,,38133-166-1,38133/166,19178.08219178082,31.2662356986,34.7705428998,2022
2022-12-05,2022-05-12,"מבצע עובדה 2, באר שבע",מבצע עובדה 2,38094-31-24,דירה בבית קומות,4.0,שישית,77.4,775000,,,1970.0,,7.0,10992392820,1,3809431,False,165% ב 22 שנים,באר שבע,מבצע עובדה,7.5,38094-31-24,38094/31,10012.919896640826,31.2598345615,34.7800445861,2022
2022-12-05,2022-05-12,"שיטרית 15, באר שבע",שיטרית 15,38105-24-31,דירה בבית קומות,4.0,רביעית,79.3,680000,,,1990.0,,,10992279150,1,3810524,False,0% ב 4.9 שנים,באר שבע,שיטרית,0.0,38105-24-31,38105/24,8575.031525851198,31.253764974,34.7656383153,2022
2022-12-04,2022-04-12,"המשחררים 22, באר שבע",המשחררים 22,38074-133-26,דירה בבית קומות,5.0,שביעית,101.0,1150000,,,1995.0,,8.0,10989805860,1,38074133,False,8% ב 3.5 שנים,באר שבע,המשחררים,2.29,38074-133-26,38074/133,11386.138613861383,31.2520886768,34.7940747135,2022
2022-12-04,2022-04-12,"רחל אימנו 18, באר שבע",רחל אימנו 18,38377-19-33,דירה בבית קומות,3.0,רביעית,61.0,980000,,,1998.0,,4.0,10989826560,1,3837719,False,,באר שבע,רחל אמנו,,38377-19-33,38377/19,16065.573770491805,31.2698078807,34.7658983704,2022
2022-12-04,2022-04-12,"נחום שריג 19, באר שבע",נחום שריג 19,38370-10-49,דירה בבית קומות,4.0,שישית,95.0,1180000,,,2002.0,,6.0,10990370790,1,3837010,False,18% ב 2.1 שנים,באר שבע,שריג נחום,8.57,38370-10-49,38370/10,12421.052631578948,31.281759142,34.80503424,2022
2022-12-04,2022-04-12,"עין גדי 1, באר שבע",עין גדי 1,38122-11-20,דירה בבית קומות,4.0,קרקע,94.0,1350000,,,1990.0,,2.0,10990412460,1,3812211,False,,באר שבע,עין גדי,,38122-11-20,38122/11,14361.702127659575,31.2471921449,34.7702129144,2022
2022-12-04,2022-04-12,"גוש עציון 16, באר שבע",גוש עציון 16,38028-61-7,דירה בבית קומות,3.0,חמישית,102.0,1030000,,,2014.0,,8.0,10989898020,1,3802861,False,,באר שבע,גוש עציון,,38028-61-7,38028/61,10098.039215686274,31.2545005023,34.8079541756,2022
2022-12-04,2022-04-12,"הנדיב 4, באר שבע",הנדיב 4,38076-43-12,דירה בבית קומות,2.0,רביעית,38.3,520000,,,1960.0,,4.0,10990059120,1,3807643,False,,באר שבע,הנדיב,,38076-43-12,38076/43,13577.023498694518,31.2535772924,34.8102609793,2022
2022-12-04,2022-04-12,"סוכות 10, באר שבע",סוכות 10,38073-83-1,דירה בבית קומות,4.0,קרקע,74.0,1200000,,,1957.0,,1.0,10990763730,1,3807383,False,,באר שבע,סוכות,,38073-83-1,38073/83,16216.216216216217,31.2687980085,34.7967940367,2022
2022-12-04,2022-04-12,"שקמה 29, באר שבע",שקמה 29,38363-13-5,דירה בבית קומות,5.0,"קומה ‎0‏, קומה ‎1‏",166.71,2770000,,,2013.0,,1.0,10990056870,1,3836313,False,,באר שבע,שקמה,,38363-13-5,38363/13,16615.679923219963,31.2863943583,34.800057963,2022
2022-12-04,2022-04-12,"משה קהירי 26, באר שבע",משה קהירי 26,38367-21-8,דירה בבית קומות,4.0,שניה,101.9,1420000,,,2013.0,,8.0,10990250730,1,3836721,False,18% ב 3.7 שנים,באר שבע,קהירי,4.86,38367-21-8,38367/21,13935.230618253188,31.2843736178,34.8011744697,2022
2022-12-04,2022-04-12,"אלעזר בן-יאיר 11, באר שבע",אלעזר בן-יאיר 11,38079-43-17,דירה בבית קומות,3.0,שניה,49.0,635000,,,1960.0,,4.0,10991737080,1,3807943,False,,באר שבע,אלעזר בן יאיר,,38079-43-17,38079/43,12959.183673469388,31.2627888734,34.791434589,2022
2022-12-04,2022-04-12,"אלפסי 18, באר שבע",אלפסי 18,38103-49-13,דירה בבית קומות,3.0,רביעית,64.0,630000,,,1970.0,,5.0,10990303290,1,3810349,False,14% ב 7 שנים,באר שבע,אלפסי,2.0,38103-49-13,38103/49,9843.75,31.2591483886,34.7723040766,2022
2022-12-04,2022-04-12,"מבצע יואב 16, באר שבע",מבצע יואב 16,38128-4-33,דירה בבית קומות,4.0,שמינית,83.0,830000,,,1980.0,,8.0,10989816210,1,381284,False,18% ב 6.7 שנים,באר שבע,מבצע יואב,2.69,38128-4-33,38128/4,10000.0,31.258700587,34.7813409242,2022
2022-12-04,2022-04-12,"יד ושם 24, באר שבע",יד ושם 24,38030-4-69,דירת גן,2.0,שמינית,60.0,525000,,,1996.0,,17.0,10990350810,1,380304,False,,באר שבע,יד ושם,,38030-4-69,38030/4,8750.0,31.2494969321,34.8017107307,2022
2022-12-04,2022-04-12,"יאשיהו 23, באר שבע",יאשיהו 23,38107-19-2,בית בודד,5.0,ראשונה,194.0,2240000,,,1980.0,,1.0,10990387890,1,3810719,False,,באר שבע,יאשיהו,,38107-19-2,38107/19,11546.39175257732,31.262649053,34.7804442065,2022
2022-12-04,2022-04-12,"יוהנה ז'בוטינסקי 3, באר שבע",יוהנה ז'בוטינסקי 3,38138-64-78,דירה בבית קומות,3.0,שניה,69.55,1050000,,,2000.0,,18.0,10989855630,1,3813864,False,250% ב 13.9 שנים,באר שבע,יוהנה ז'בוטינסקי,17.99,38138-64-78,38138/64,15097.052480230052,31.2406463216,34.7773019976,2022
2022-12-01,2022-01-12,"יד ושם 24, באר שבע",יד ושם 24,38030-4-99,דירה בבית קומות,2.0,ראשונה,57.0,420000,,,1996.0,,17.0,10982139570,1,380304,False,,באר שבע,יד ושם,,38030-4-99,38030/4,7368.421052631579,31.2494969321,34.8017107307,2022
2022-12-01,2022-01-12,"נחום גולדמן 5, באר שבע",נחום גולדמן 5,38373-1-5,דירה בבית קומות,3.0,רביעית,64.5,1032000,,,2003.0,,5.0,10981507590,1,383731,False,32% ב 8 שנים,באר שבע,גולדמן נחום,4.0,38373-1-5,38373/1,16000.0,31.2780660273,34.8029167976,2022
2022-12-01,2022-01-12,"בר ניסן 26, באר שבע",בר ניסן 26,38187-36-22,דירה בבית קומות,4.0,שלישית,88.1,1140000,,,2002.0,,6.0,10981683720,1,3818736,False,163% ב 17.8 שנים,באר שבע,בר ניסן,9.16,38187-36-22,38187/36,12939.84108967083,31.2398456191,34.7638297194,2022
2022-12-01,2022-01-12,"ראובן רובין 3, באר שבע",ראובן רובין 3,38075-96-57,דירה בבית קומות,2.0,קומה ‎2‏,64.0,1260000,,,2018.0,,8.0,10982168460,1,3807596,False,,באר שבע,רובין ראובן,,38075-96-57,38075/96,19687.5,31.2590184285,34.7966774266,2022
2022-12-01,2022-01-12,"דוד טוביהו 59, באר שבע",דוד טוביהו 59,38035-43-25,דירה בבית קומות,5.0,רביעית,174.0,1305000,,,1995.0,,8.0,10981189080,1,3803543,False,,באר שבע,טוביהו דוד,,38035-43-25,38035/43,7500.0,31.2451000871,34.7865082576,2022
2022-12-01,2022-01-12,"הקנאים 26, באר שבע",הקנאים 26,38080-14-1,דירה בבית קומות,2.0,ראשונה,32.6,725000,,,1960.0,,2.0,10981524060,1,3808014,False,55% ב 1.6 שנים,באר שבע,הקנאים,34.38,38080-14-1,38080/14,22239.26380368098,31.2693388435,34.7927617154,2022
2022-12-01,2022-01-12,"יעקב פיכמן 4, באר שבע",יעקב פיכמן 4,38138-99-30,דירה בבית קומות,4.0,שביעית,77.8,326000,,,1994.0,,8.0,10983334230,1,3813899,False,,באר שבע,פיכמן יעקב,,38138-99-30,38138/99,4190.231362467866,31.2370199272,34.7766244616,2022
2022-12-01,2022-01-12,"חביבה רייק 1, באר שבע",חביבה רייק 1,38026-97-45,דירה בבית קומות,2.0,שלישית,38.25,605000,,,1960.0,,3.0,10981218150,1,3802697,True,-2% ב 2.5 שנים,באר שבע,רייק חביבה,-0.8,38026-97-45,38026/97,15816.993464052288,31.2568541575,34.8078334598,2022
2022-12-01,2022-01-12,"דב סרן 11, באר שבע",דב סרן 11,38137-22-56,דירה בבית קומות,4.0,אחת עשרה,90.0,1045000,,,2000.0,,14.0,10981936800,1,3813722,False,41% ב 9.5 שנים,באר שבע,סרן דב,4.32,38137-22-56,38137/22,11611.111111111111,31.2357929993,34.7789092383,2022
2022-12-01,2022-01-12,"פרופ' יהודה ליאו פיקרד 1, באר שבע",פרופ' יהודה ליאו פיקרד 1,38375-10-10,דירה בבית קומות,3.0,שלישית,98.0,1050000,,,2003.0,,4.0,10981206900,1,3837510,False,,באר שבע,פיקרד,,38375-10-10,38375/10,10714.285714285714,31.2780424514,34.7993715267,2022
2022-12-01,2022-01-12,"החיד""א 91, באר שבע","החיד""א 91",38118-26-77,דירה בבית קומות,4.0,שלישית,78.9,670000,,,1980.0,,4.0,10982918520,1,3811826,False,,באר שבע,"החיד""א",,38118-26-77,38118/26,8491.761723700887,31.2536931644,34.7667771754,2022
2022-12-01,2022-01-12,"עין גדי 2, באר שבע",עין גדי 2,38122-12-11,דירה בבית קומות,4.0,שביעית,92.0,922000,,,1990.0,,6.0,10981475730,1,3812212,False,,באר שבע,עין גדי,,38122-12-11,38122/12,10021.739130434782,31.2470367296,34.7709790179,2022
2022-12-01,2022-01-12,"יציאת אירופה 2, באר שבע",יציאת אירופה 2,38098-2-13,דירה בבית קומות,3.0,קרקע,67.5,905000,,,1960.0,,2.0,10981238220,1,380982,False,27% ב 4 שנים,באר שבע,יציאת אירופה,6.75,38098-2-13,38098/2,13407.407407407409,31.2524143196,34.782962405,2022
2022-12-01,2022-01-12,"יהודה בורלא 45, באר שבע",יהודה בורלא 45,38081-3-44,דירה בבית קומות,3.0,שלישית,63.2,610000,,,1970.0,,3.0,10981555920,1,380813,False,5% ב 3.7 שנים,באר שבע,בורלא יהודה,1.35,38081-3-44,38081/3,9651.898734177215,31.2519843683,34.774909429,2022
2022-12-01,2022-01-12,"רד""ק 30, באר שבע","רד""ק 30",38103-26-8,דירה בבית קומות,3.0,שניה,62.0,740000,,,1980.0,,8.0,10981662840,1,3810326,False,41% ב 8 שנים,באר שבע,"רד""ק",5.12,38103-26-8,38103/26,11935.483870967742,31.2559246145,34.7719408033,2022
2022-12-01,2022-01-12,"ג'יימס פרנק 6, באר שבע",ג'יימס פרנק 6,38157-17-2,בית בודד,6.0,ראשונה,245.0,1970000,,,2008.0,,1.0,10981187640,1,3815717,False,,באר שבע,פרנק ג'ימס,,38157-17-2,38157/17,8040.816326530612,31.2738145556,34.8004295726,2022
2022-12-01,2022-01-12,"פיכמן יעקב 2, באר שבע",פיכמן יעקב 2,38138-54-23,דירה בבית קומות,3.0,שישית,61.5,211000,,,1994.0,,8.0,10981376100,1,3813854,False,,באר שבע,פיכמן יעקב,,38138-54-23,38138/54,3430.894308943089,31.2369245075,34.7770237176,2022
2022-12-01,2022-01-12,"סיני 20, באר שבע",סיני 20,38058-24-8,דירה בבית קומות,4.0,שלישית,84.5,785000,,,1970.0,,3.0,10982717100,1,3805824,False,12% ב 5.1 שנים,באר שבע,סיני,2.35,38058-24-8,38058/24,9289.940828402368,31.2473233525,34.7810331968,2022
2022-12-01,2022-01-12,"דב יוסף 1, באר שבע",דב יוסף 1,38105-9-3,דירה בבית קומות,3.0,שניה,63.0,640000,,,1970.0,,4.0,10982501100,1,381059,False,,באר שבע,דב יוסף,,38105-9-3,38105/9,10158.73015873016,31.2560752201,34.7655859934,2022
2022-11-30,2022-11-30,"נחום שריג 51, באר שבע",נחום שריג 51,38365-10-18,דירה בבית קומות,4.0,חמישית,90.0,1515000,,,2019.0,,7.0,11011198140,1,3836510,False,18% ב 1.8 שנים,באר שבע,שריג נחום,10.0,38365-10-18,38365/10,16833.333333333332,31.2866508751,34.8058293162,2022
2022-11-30,2022-11-30,"צפת 46, באר שבע",צפת 46,38112-6-67,דירה בבית קומות,3.0,ראשונה,65.5,910000,,,1980.0,,8.0,11012530230,1,381126,False,22% ב 4.5 שנים,באר שבע,צפת,4.89,38112-6-67,38112/6,13893.129770992366,31.2475282049,34.7768469422,2022
2022-11-30,2022-11-30,"חיים גבריהו 3, באר שבע",חיים גבריהו 3,38355-12-6,דירה בבית קומות,4.0,שניה,81.0,1125000,,,1990.0,,3.0,11011539600,1,3835512,False,,באר שבע,גבריהו חיים,,38355-12-6,38355/12,13888.888888888889,31.2756366858,34.8045699347,2022
2022-11-30,2022-11-30,"הרא""ש 15, באר שבע","הרא""ש 15",38103-43-54,דירה בבית קומות,2.0,רביעית,43.7,580000,,,1970.0,,4.0,11011180320,1,3810343,False,61% ב 8 שנים,באר שבע,"הרא""ש",7.62,38103-43-54,38103/43,13272.311212814644,31.2584271755,34.7746309904,2022
2022-11-30,2022-11-30,"מודיעין 10, באר שבע",מודיעין 10,38085-20-148,דירה בבית קומות,3.0,ראשונה,69.0,790000,,,1970.0,,3.0,11011175820,1,3808520,False,,באר שבע,מודיעין,,38085-20-148,38085/20,11449.27536231884,31.2593957522,34.7902989166,2022
2022-11-30,2022-11-30,"בר-ניסן 31, באר שבע",בר-ניסן 31,38187-41-10,דירה בבית קומות,4.0,ראשונה,94.5,1426000,,,2003.0,,8.0,11011544910,1,3818741,False,83% ב 10.5 שנים,באר שבע,בר ניסן,7.9,38187-41-10,38187/41,15089.94708994709,31.240596853,34.7654371341,2022
2022-11-30,2022-11-30,"שמעון בר-גיורא 4, באר שבע",שמעון בר-גיורא 4,38079-39-5,דירה בבית קומות,2.0,שניה,34.0,495000,,,1960.0,,3.0,11012382450,1,3807939,False,,באר שבע,שמעון בר גיורא,,38079-39-5,38079/39,14558.823529411764,31.2635092505,34.7922321555,2022
2022-11-30,2022-11-30,"אלפרד ויתקון 38, באר שבע",אלפרד ויתקון 38,38132-69-1,קוטג' חד משפחתי,5.0,ראשונה,161.0,1850000,,,1993.0,,1.0,11012924520,1,3813269,False,,באר שבע,ויתקון אלפרד,,38132-69-1,38132/69,11490.683229813663,31.2705047056,34.7767996514,2022
2022-11-30,2022-11-30,"רש""י 3, באר שבע","רש""י 3",38096-5-5,דירה בבית קומות,3.0,שניה,60.0,650000,,,1970.0,,4.0,11011382190,1,380965,False,71% ב 6.8 שנים,באר שבע,"רש""י",10.44,38096-5-5,38096/5,10833.333333333334,31.2684158753,34.7877148502,2022
2022-11-30,2022-11-30,"אלכסנדר ינאי 17, באר שבע",אלכסנדר ינאי 17,38072-39-68,דירה בבית קומות,2.0,שביעית,39.7,800000,,,2013.0,,13.0,11012437350,1,3807239,False,,באר שבע,אלכסנדר ינאי,,38072-39-68,38072/39,20151.133501259443,31.2634927971,34.794797057,2022
2022-11-30,2022-11-30,"דוד המלך 39, באר שבע",דוד המלך 39,38079-21-3,דירה בבית קומות,3.0,שניה,38.8,665000,,,1970.0,,4.0,11013306030,1,3807921,False,47% ב 6.9 שנים,באר שבע,דוד המלך,6.81,38079-21-3,38079/21,17139.17525773196,31.2639440287,34.7899714333,2022
2022-11-30,2022-11-30,"השלום 92, באר שבע",השלום 92,38076-8-10,דירה בבית קומות,3.0,שלישית,59.6,800000,,,1987.0,,3.0,11012175900,1,380768,False,41% ב 0.8 שנים,באר שבע,השלום,51.25,38076-8-10,38076/8,13422.818791946307,31.2561084825,34.8109696554,2022
2022-11-30,2022-11-30,"העלייה 2, באר שבע",העלייה 2,38098-23-29,דירה בבית קומות,4.0,שניה,81.0,840000,,,1970.0,,2.0,11011345830,1,3809823,False,,באר שבע,העליה,,38098-23-29,38098/23,10370.37037037037,31.249682894,34.7814073635,2022
2022-11-30,2022-11-30,"המשחררים 135, באר שבע",המשחררים 135,38116-11-9,דירה בבית קומות,3.5,שלישית,85.0,1045000,,,1970.0,,9.0,11011320540,1,3811611,False,24% ב 4.5 שנים,באר שבע,המשחררים,5.33,38116-11-9,38116/11,12294.117647058823,31.2467341355,34.7834270627,2022
2022-11-30,2022-11-30,"ברק 24, באר שבע",ברק 24,38006-143-1,קוטג' דו משפחתי,4.0,ראשונה,100.0,1900000,,,1960.0,,1.0,11070877950,1,38006143,False,,באר שבע,ברק,,38006-143-1,38006/143,19000.0,31.2419956344,34.7809592831,2022
2022-11-29,2022-11-29,"לאה 7, באר שבע",לאה 7,38385-3-4,דירה בבית קומות,4.0,ראשונה,90.0,1190000,,,1996.0,,2.0,11070941040,1,383853,False,0% ב 0.3 שנים,באר שבע,לאה,0.0,38385-3-4,38385/3,13222.222222222224,31.2679930167,34.7609862995,2022
2022-11-29,2022-11-29,"שפרינצק 4, באר שבע",שפרינצק 4,38082-41-5,דירה בבית קומות,2.0,שניה,35.9,690000,,,1970.0,,4.0,11070202320,1,3808241,False,38% ב 2.6 שנים,באר שבע,שפרינצק,14.62,38082-41-5,38082/41,19220.05571030641,31.2701496886,34.7938518164,2022
2022-11-29,2022-11-29,"יהודה הלוי 12, באר שבע",יהודה הלוי 12,38057-38-191,דירה בבית קומות,5.0,שבע עשרה,167.0,1920000,,,2015.0,,22.0,11011050900,1,3805738,False,,באר שבע,יהודה הלוי,,38057-38-191,38057/38,11497.005988023951,31.254184461,34.7879859476,2022
2022-11-29,2022-11-29,"גוש עציון 69, באר שבע",גוש עציון 69,38027-11-8,דירה בבית קומות,2.0,שלישית,38.9,600000,,,1960.0,,3.0,11012696460,1,3802711,False,,באר שבע,גוש עציון,,38027-11-8,38027/11,15424.164524421594,31.2587203353,34.8088237027,2022
2022-11-29,2022-11-29,"בני אור 68, באר שבע",בני אור 68,38021-11-16,דירה בבית קומות,4.0,רביעית,68.4,740000,,,1970.0,,4.0,11011952430,1,3802111,False,23% ב 7.8 שנים,באר שבע,בני אור,2.95,38021-11-16,38021/11,10818.713450292396,31.2577669059,34.7816342255,2022
2022-11-29,2022-11-29,,,38068-1-131,דירה בבית קומות,3.0,רביעית,80.0,1340000,,,2022.0,,,11012374260,2,380681,False,,באר שבע,קפריסין,,38068-1-131,38068/1,16750.0,31.2526849461,34.779672642,2022
2022-11-29,2022-11-29,"סנהדרין 20, באר שבע",סנהדרין 20,38082-73-25,דירה בבית קומות,2.0,ראשונה,28.6,600000,,,1960.0,,3.0,11011500180,1,3808273,False,53% ב 7.9 שנים,באר שבע,סנהדרין,6.71,38082-73-25,38082/73,20979.020979020977,31.2727618086,34.7955424186,2022
2022-11-29,2022-11-29,"ראובן 21, באר שבע",ראובן 21,38278-78-4,דירה בבית קומות,4.0,ראשונה,78.0,765000,,,1970.0,,1.0,11012034240,1,3827878,False,,באר שבע,ראובן,,38278-78-4,38278/78,9807.692307692309,31.2389658349,34.7821008575,2022
2022-11-29,2022-11-29,"כהן יעקב 15, באר שבע",כהן יעקב 15,38074-146-43,דירה בבית קומות,5.0,שביעית,113.0,2340000,,,2004.0,,9.0,11076411150,1,38074146,False,173% ב 19.1 שנים,באר שבע,כהן יעקב,9.06,38074-146-43,38074/146,20707.964601769912,31.2549398576,34.7970017803,2022
2022-11-29,2022-11-29,"החיד""א 99, באר שבע","החיד""א 99",38118-28-16,דירה בבית קומות,3.0,שלישית,62.6,645000,,,1980.0,,4.0,11011249260,1,3811828,False,,באר שבע,"החיד""א",,38118-28-16,38118/28,10303.514376996804,31.2545053008,34.7670936619,2022
2022-11-29,2022-11-29,"אריה דולצ'ין 9, באר שבע",אריה דולצ'ין 9,38130-63-6,דירה בבית קומות,4.0,שניה,78.0,309000,,,1980.0,,3.0,11011282020,1,3813063,False,,באר שבע,דולצ'ין אריה,,38130-63-6,38130/63,3961.538461538461,31.2632378009,34.7668143587,2022
2022-11-29,2022-11-29,"שמעון בר-גיורא 1, באר שבע",שמעון בר-גיורא 1,38079-52-47,דירה בבית קומות,2.0,רביעית,40.0,600000,,,1960.0,,6.0,11011062150,1,3807952,False,5% ב 1.5 שנים,באר שבע,שמעון בר גיורא,3.33,38079-52-47,38079/52,15000.0,31.263864748,34.7928582618,2022
2022-11-29,2022-11-29,"מצדה 138, באר שבע",מצדה 138,38128-11-22,דירה בבית קומות,2.0,חמישית,49.0,88000,,,1970.0,,6.0,11011151970,1,3812811,False,,באר שבע,מצדה,,38128-11-22,38128/11,1795.9183673469388,31.2593851949,34.7849503372,2022
2022-11-29,2022-11-29,"רמב""ן 80, באר שבע","רמב""ן 80",38089-3-26,דירה בבית קומות,3.0,שניה,61.9,600000,,,1960.0,,3.0,11011284180,1,380893,False,27% ב 8.4 שנים,באר שבע,"רמב""ן",3.21,38089-3-26,38089/3,9693.053311793215,31.270855527,34.7821426762,2022
2022-11-28,2022-11-28,,,38068-1-133,דירה בבית קומות,3.0,תשיעית,80.0,1370000,,,2022.0,,,11011639860,2,380681,False,,באר שבע,קפריסין,,38068-1-133,38068/1,17125.0,31.2526849461,34.779672642,2022
2022-11-28,2022-11-28,"יהושע ייבין 9, באר שבע",יהושע ייבין 9,38187-9-32,דירה בבית קומות,4.0,שלישית,90.6,1340000,,,2002.0,,6.0,11011058370,1,381879,False,14% ב 6.4 שנים,באר שבע,ייבין יהושע,2.19,38187-9-32,38187/9,14790.28697571744,31.2385714114,34.7656096151,2022
2022-11-28,2022-11-28,"רוזנבלום הרצל 13, באר שבע",רוזנבלום הרצל 13,38145-30-33,דירה בבית קומות,4.0,שביעית,85.3,1070000,,,1998.0,,9.0,11070199260,1,3814530,False,,באר שבע,רוזנבלום הרצל,,38145-30-33,38145/30,12543.96248534584,31.2378666286,34.7664201959,2022
2022-11-28,2022-11-28,"ישראל שוחט 29, באר שבע",ישראל שוחט 29,38194-5-17,דירה בבית קומות,5.0,קומה ‎5‏,103.0,2050000,,,2013.0,,7.0,11013401790,1,381945,False,54% ב 1.8 שנים,באר שבע,שוחט ישראל,30.0,38194-5-17,38194/5,19902.912621359224,31.2331367563,34.7657985832,2022
2022-11-28,2022-11-28,"יוסף תקוע 57, באר שבע",יוסף תקוע 57,38197-19-12,דירה בבית קומות,5.0,שניה,231.0,1680000,,,2013.0,,2.0,11013392880,1,3819719,False,,באר שבע,תקוע יוסף,,38197-19-12,38197/19,7272.727272727273,31.2769410707,34.8180586782,2022
2022-11-28,2022-11-28,"העלייה 65, באר שבע",העלייה 65,38101-29-52,דירה בבית קומות,2.0,ראשונה,46.9,610000,,,1970.0,,5.0,11011112730,1,3810129,False,11% ב 4 שנים,באר שבע,העליה,2.75,38101-29-52,38101/29,13006.39658848614,31.2567009307,34.7767511673,2022
2022-11-28,2022-11-28,"יהודה בורלא 1, באר שבע",יהודה בורלא 1,38081-5-77,דירה בבית קומות,3.0,ראשונה,62.1,650000,,,1970.0,,3.0,11012990400,1,380815,False,,באר שבע,בורלא יהודה,,38081-5-77,38081/5,10466.988727858294,31.2510979371,34.7760680793,2022
2022-11-28,2022-11-28,"יוחנן הורקנוס 29, באר שבע",יוחנן הורקנוס 29,38073-146-9,דירה בבית קומות,3.0,ראשונה,44.0,710000,,,1960.0,,2.0,11011114170,1,38073146,False,26% ב 7.2 שנים,באר שבע,יוחנן הורקנוס,3.61,38073-146-9,38073/146,16136.363636363636,31.2655594119,34.7950766836,2022
2022-11-28,2022-11-28,"רבי עקיבא 48, באר שבע",רבי עקיבא 48,38078-14-13,דירה בבית קומות,4.0,ראשונה,65.0,155000,,,1960.0,,3.0,11011386690,1,3807814,False,,באר שבע,רבי עקיבא,,38078-14-13,38078/14,2384.6153846153848,31.2599147842,34.7912750989,2022
2022-11-28,2022-11-28,"מאיר יערי 5, באר שבע",מאיר יערי 5,38131-15-28,דירה בבית קומות,3.0,שלישית,65.1,690000,,,1970.0,,4.0,11011558950,1,3813115,False,,באר שבע,יערי מאיר,,38131-15-28,38131/15,10599.078341013828,31.2579988899,34.7626265457,2022
2022-11-28,2022-11-28,"מבצע עובדה 110, באר שבע",מבצע עובדה 110,38106-24-16,דירה בבית קומות,4.0,רביעית,79.7,920000,,,1980.0,,8.0,11013311970,1,3810624,False,,באר שבע,מבצע עובדה,,38106-24-16,38106/24,11543.287327478043,31.2630170698,34.7741298967,2022
2022-11-28,2022-11-28,"אביה השופט 1, באר שבע",אביה השופט 1,38073-260-97,דירה בבית קומות,2.0,קומה ‎11‏,36.5,520000,,,2009.0,,13.0,11012153580,1,38073260,False,5% ב 9 שנים,באר שבע,אביה השופט,0.56,38073-260-97,38073/260,14246.575342465754,31.2678228089,34.7950277269,2022
2022-11-28,2022-11-28,"שרגא אברמסון 16, באר שבע",שרגא אברמסון 16,38374-9-35,דירה בבית קומות,3.0,שלישית,65.47,1238000,,,2002.0,,5.0,11011066560,1,383749,False,45% ב 7.5 שנים,באר שבע,אברמסון שרגא,6.0,38374-9-35,38374/9,18909.42416373912,31.277002281,34.7988229018,2022
2022-11-27,2022-11-27,"בן נון 14, באר שבע",בן נון 14,38100-61-17,דירה בבית קומות,4.0,ראשונה,79.8,890000,,,1980.0,,3.0,11012668290,1,3810061,False,,באר שבע,בן נון,,38100-61-17,38100/61,11152.882205513784,31.2633544723,34.7767934564,2022
2022-11-27,2022-11-27,"משה שרת 36, באר שבע",משה שרת 36,38124-62-2,דירה בבית קומות,3.0,ראשונה,65.9,850000,,,1992.0,,8.0,11010913020,1,3812462,False,33% ב 6.6 שנים,באר שבע,שרת משה,5.0,38124-62-2,38124/62,12898.33080424886,31.2582595054,34.768316755,2022
2022-11-27,2022-11-27,"המעפילים 24, באר שבע",המעפילים 24,38031-12-40,דירה בבית קומות,3.0,שניה,62.3,800000,,,1993.0,,8.0,11011660740,1,3803112,False,116% ב 12.5 שנים,באר שבע,המעפילים,9.28,38031-12-40,38031/12,12841.091492776886,31.2505187436,34.807992973,2022
2022-11-27,2022-11-27,"מצדה 244, באר שבע",מצדה 244,38103-28-44,דירה בבית קומות,4.0,שניה,77.0,820000,,,1970.0,,4.0,11010855870,1,3810328,False,70% ב 8.9 שנים,באר שבע,מצדה,7.87,38103-28-44,38103/28,10649.35064935065,31.2556521655,34.7725916782,2022
2022-11-27,2022-11-27,"יצחק רגר 57, באר שבע",יצחק רגר 57,38412-1-145,דירה בבית קומות,5.0,עשרים ואחת,196.0,3100000,,,2012.0,,21.0,11011538880,1,384121,False,,באר שבע,רגר יצחק,,38412-1-145,38412/1,15816.326530612245,31.2548569228,34.7981263888,2022
2022-11-27,2022-11-27,"יצחק רגר 130, באר שבע",יצחק רגר 130,38092-8-22,דירה בבית קומות,4.0,שניה,86.3,1130000,,,1960.0,,3.0,11011810590,1,380928,False,61% ב 10.2 שנים,באר שבע,רגר יצחק,5.98,38092-8-22,38092/8,13093.858632676707,31.2671507574,34.7987261209,2022
2022-11-27,2022-11-27,"יוסף תקוע 57, באר שבע",יוסף תקוע 57,38197-19-11,,5.0,שניה,153.0,1680000,1.0,רמות על הפארק,2013.0,,2.0,11181230768,1,3819719,False,,באר שבע,תקוע יוסף,,38197-19-11,38197/19,10980.392156862745,31.2769410707,34.8180586782,2022
2022-11-27,2022-11-27,"מינץ 32, באר שבע",מינץ 32,38101-15-57,דירה בבית קומות,3.0,חמישית,59.2,725000,,,1970.0,,5.0,11011397130,1,3810115,False,38% ב 6.1 שנים,באר שבע,מינץ,6.23,38101-15-57,38101/15,12246.621621621622,31.2573315616,34.7781033409,2022
2022-11-27,2022-11-27,"זאב ז'בוטינסקי 26, באר שבע",זאב ז'בוטינסקי 26,38031-43-3,דירה בבית קומות,2.0,שניה,42.85,1025000,,,1960.0,,2.0,11011874400,1,3803143,False,,באר שבע,ז'בוטינסקי זאב,,38031-43-3,38031/43,23920.65344224037,31.249048233,34.8094111569,2022
2022-11-27,2022-11-27,"יצחק דנציגר 2, באר שבע",יצחק דנציגר 2,38398-38-2,קוטג' דו משפחתי,5.0,קרקע וראשונה,149.0,2000000,,,1999.0,,,11010876480,1,3839838,False,157% ב 19.5 שנים,באר שבע,דנציגר יצחק,8.05,38398-38-2,38398/38,13422.818791946307,31.2452013359,34.7623599863,2022
2022-11-27,2022-11-27,"דוד וולפסון 34, באר שבע",דוד וולפסון 34,38018-26-11,דירה בבית קומות,4.0,שלישית,84.78,835000,,,1991.0,,8.0,11011147470,1,3801826,False,60% ב 12.5 שנים,באר שבע,וולפסון דוד,4.8,38018-26-11,38018/26,9849.02099551781,31.2445843628,34.8012795718,2022
2022-11-27,2022-11-27,"נחום גוטמן 1, באר שבע",נחום גוטמן 1,38137-7-9,דירה בבית קומות,3.0,ראשונה,67.7,815000,,,1994.0,,2.0,11011232160,1,381377,False,56% ב 10.8 שנים,באר שבע,גוטמן נחום,5.19,38137-7-9,38137/7,12038.404726735598,31.2381057287,34.779162969,2022
2022-11-26,2022-11-26,"יוסף בורג 90, באר שבע",יוסף בורג 90,38194-16-111,דירה בבית קומות,5.0,קומה ‎29‏,169.0,2150000,,,2016.0,,31.0,11013185070,1,3819416,False,,באר שבע,בורג יוסף,,38194-16-111,38194/16,12721.89349112426,31.2326559867,34.767265146,2022
2022-11-26,2022-11-26,"יצחק רגר 57, באר שבע",יצחק רגר 57,38412-1-140,,5.0,עשרים ואחת,196.0,3100000,1.0,מגדלי אביסרור 2 - שד' רגר,2012.0,,21.0,11181232630,1,384121,False,,באר שבע,רגר יצחק,,38412-1-140,38412/1,15816.326530612245,31.2548569228,34.7981263888,2022
2022-11-25,2022-11-25,"המשחררים 96, באר שבע",המשחררים 96,38098-19-13,דירה בבית קומות,3.0,שלישית,70.2,750000,,,1970.0,,3.0,11010943530,1,3809819,False,202% ב 21.7 שנים,באר שבע,המשחררים,9.31,38098-19-13,38098/19,10683.760683760684,31.2496152522,34.7838098864,2022
2022-11-25,2022-11-25,"ברש אשר 1, באר שבע",ברש אשר 1,38138-68-6,דירה בבית קומות,4.0,ראשונה,77.8,950000,,,1990.0,,8.0,11013021810,1,3813868,False,9% ב 5.1 שנים,באר שבע,ברש אשר,1.76,38138-68-6,38138/68,12210.796915167097,31.2395113744,34.7780210938,2022
2022-11-25,2022-11-25,"נחום שריג 5, באר שבע",נחום שריג 5,38373-13-6,דירה בבית קומות,4.0,שלישית,86.0,1200000,,,2003.0,,6.0,11012922180,1,3837313,False,,באר שבע,שריג נחום,,38373-13-6,38373/13,13953.488372093025,31.2812590362,34.8045741517,2022
2022-11-25,2022-11-25,"משה קהירי 17, באר שבע",משה קהירי 17,38367-11-3,דירה בבית קומות,4.0,קרקע,88.3,1713000,,,2012.0,,6.0,11013248880,1,3836711,False,86% ב 4.9 שנים,באר שבע,קהירי,17.55,38367-11-3,38367/11,19399.773499433748,31.2842156031,34.8026391618,2022
2022-11-25,2022-11-25,"מינץ 2, באר שבע",מינץ 2,38101-10-53,דירה בבית קומות,4.0,תשיעית,81.4,850000,,,1970.0,,9.0,11010837330,1,3810110,False,,באר שבע,מינץ,,38101-10-53,38101/10,10442.260442260442,31.2583612569,34.776573651,2022
2022-11-25,2022-11-25,"מבצע משה 10, באר שבע",מבצע משה 10,38137-16-12,דירה בבית קומות,3.0,שניה,67.7,850000,,,1993.0,,2.0,11011024440,1,3813716,False,129% ב 20.5 שנים,באר שבע,מבצע משה,6.29,38137-16-12,38137/16,12555.391432791728,31.2370949296,34.778734318,2022
2022-11-25,2022-11-25,"יהודה שטיינברג 12, באר שבע",יהודה שטיינברג 12,38133-10-6,דירה בבית קומות,3.0,שניה,82.81,960000,,,1995.0,,2.0,11011122360,1,3813310,False,,באר שבע,שטיינברג יהודה,,38133-10-6,38133/10,11592.80280159401,31.2688367464,34.7729663462,2022
2022-11-25,2022-11-25,"יעקב פיכמן 8, באר שבע",יעקב פיכמן 8,38139-4-58,דירה בבית קומות,4.0,ראשונה,80.0,1350000,,,2000.0,,3.0,11011619790,1,381394,False,38% ב 4.5 שנים,באר שבע,פיכמן יעקב,8.44,38139-4-58,38139/4,16875.0,31.2375400579,34.7754716136,2022
2022-11-24,2022-11-24,"טבנקין 54, באר שבע",טבנקין 54,38102-7-1,דירה בבית קומות,3.0,קרקע,63.1,690000,,,1970.0,,3.0,11070276390,1,381027,False,,באר שבע,טבנקין,,38102-7-1,38102/7,10935.023771790808,31.2546037341,34.7729745616,2022
2022-11-24,2022-11-24,"ח""ן 10, באר שבע","ח""ן 10",38353-8-27,דירה בבית קומות,4.0,שלישית,85.0,1180000,,,1999.0,,11.0,11013052140,1,383538,False,60% ב 9.3 שנים,באר שבע,"ח""ן",6.45,38353-8-27,38353/8,13882.35294117647,31.2662477877,34.7775873359,2022
2022-11-24,2022-11-24,"יעלים 58, באר שבע",יעלים 58,38069-133-26,דירה בבית קומות,3.0,ראשונה,56.8,780000,,,1970.0,,4.0,11011258170,1,38069133,False,,באר שבע,יעלים,,38069-133-26,38069/133,13732.394366197184,31.2536755429,34.7775678051,2022
2022-11-24,2022-11-24,"שרת משה 12, באר שבע",שרת משה 12,38105-16-30,דירה בבית קומות,3.0,רביעית,63.1,675000,,,1970.0,,4.0,11010766050,1,3810516,False,52% ב 12.6 שנים,באר שבע,שרת משה,4.13,38105-16-30,38105/16,10697.3058637084,31.2559837725,34.7667178147,2022
2022-11-24,2022-11-24,"חביבה רייק 1, באר שבע",חביבה רייק 1,38026-97-43,דירה בבית קומות,2.0,שניה,38.25,550000,,,1960.0,,3.0,11011720770,1,3802697,False,,באר שבע,רייק חביבה,,38026-97-43,38026/97,14379.08496732026,31.2568541575,34.8078334598,2022
2022-11-24,2022-11-24,"יהודה הלוי 12, באר שבע",יהודה הלוי 12,38057-38-209,דירה בבית קומות,4.0,ראשונה,109.0,1680000,,,2015.0,,22.0,11010978270,1,3805738,False,,באר שבע,יהודה הלוי,,38057-38-209,38057/38,15412.844036697248,31.254184461,34.7879859476,2022
2022-11-24,2022-11-24,"לואי פיקרד 18, באר שבע",לואי פיקרד 18,38375-4-26,דירה בבית קומות,4.0,שניה,98.0,1330000,,,2000.0,,5.0,11011199490,1,383754,False,14% ב 3.9 שנים,באר שבע,פיקרד,3.59,38375-4-26,38375/4,13571.42857142857,31.2775609027,34.8001602841,2022
2022-11-24,2022-11-24,"דוד אלעזר 33, באר שבע",דוד אלעזר 33,38353-2-62,דירה בבית קומות,4.0,שביעית,79.53,1170000,,,2000.0,,9.0,11010679920,1,383532,False,21% ב 4.5 שנים,באר שבע,דוד אלעזר,4.67,38353-2-62,38353/2,14711.429649188984,31.2672234792,34.7738932193,2022
2022-11-24,2022-11-24,"מבצע עובדה 39, באר שבע",מבצע עובדה 39,38094-37-63,דירה בבית קומות,3.0,רביעית,66.8,615000,,,1970.0,,4.0,11011158720,1,3809437,False,21% ב 6 שנים,באר שבע,מבצע עובדה,3.5,38094-37-63,38094/37,9206.586826347306,31.2597010048,34.7761577941,2022
2022-11-24,2022-11-24,"ישראל גלילי 24, באר שבע",ישראל גלילי 24,38368-12-3,דירה בבית קומות,4.0,שניה,84.0,1350000,,,2003.0,,6.0,11010773520,1,3836812,False,54% ב 9.3 שנים,באר שבע,גלילי ישראל,5.81,38368-12-3,38368/12,16071.42857142857,31.2848617092,34.8043475577,2022
2022-11-24,2022-11-24,"המשחררים 22, באר שבע",המשחררים 22,38074-133-5,דירה בבית קומות,4.0,שניה,89.0,1125000,,,1995.0,,8.0,11010820230,1,38074133,False,127% ב 19 שנים,באר שבע,המשחררים,6.68,38074-133-5,38074/133,12640.449438202248,31.2520886768,34.7940747135,2022
2022-11-24,2022-11-24,"התקווה 12, באר שבע",התקווה 12,38016-51-35,דירה בבית קומות,3.0,קומה ‎4‏,72.4,1280000,,,2002.0,,19.0,11011314690,1,3801651,False,162% ב 20.7 שנים,באר שבע,התקוה,7.83,38016-51-35,38016/51,17679.55801104972,31.2482984417,34.7996532754,2022
2022-11-24,2022-11-24,"שמעון בר-גיורא 1, באר שבע",שמעון בר-גיורא 1,38079-52-20,דירה בבית קומות,2.0,שלישית,40.0,620000,,,1960.0,,6.0,11011607100,1,3807952,True,-6% ב 4.6 שנים,באר שבע,שמעון בר גיורא,-1.3,38079-52-20,38079/52,15500.0,31.263864748,34.7928582618,2022
2022-11-24,2022-11-24,"נחום שריג 12, באר שבע",נחום שריג 12,38370-9-8,דירה בבית קומות,5.0,שלישית,104.0,1650000,,,2015.0,,5.0,11010874410,1,383709,False,37% ב 6.7 שנים,באר שבע,שריג נחום,5.52,38370-9-8,38370/9,15865.384615384615,31.2817239674,34.8057063232,2022
2022-11-23,2022-11-23,"רחל אימנו 46, באר שבע",רחל אימנו 46,100621-14-17,דירה בבית קומות,5.0,קומה ‎0‏,107.95,1630000,,,1999.0,,4.0,11010667320,1,10062114,False,,באר שבע,רחל אמנו,,100621-14-17,100621/14,15099.583140342753,31.2711366709,34.7642418604,2022
2022-11-23,2022-11-23,"סנהדרין 41, באר שבע",סנהדרין 41,38082-15-18,דירה בבית קומות,2.0,שלישית,47.2,525000,,,1960.0,,3.0,11011279680,1,3808215,False,56% ב 9 שנים,באר שבע,סנהדרין,6.22,38082-15-18,38082/15,11122.881355932202,31.2719545471,34.7942438939,2022
2022-11-23,2022-11-23,"רמח""ל 7, באר שבע","רמח""ל 7",38070-9-7,דירה בבית קומות,4.0,קרקע,105.0,1290000,,,1960.0,,1.0,11011017690,1,380709,False,65% ב 9.3 שנים,באר שבע,"רמח""ל",6.99,38070-9-7,38070/9,12285.714285714286,31.2566692879,34.7919467562,2022
2022-11-23,2022-11-23,"רזיאל 1, באר שבע",רזיאל 1,38027-20-24,דירה בבית קומות,3.0,קרקע,61.4,800000,,,1960.0,,3.0,11010725910,1,3802720,False,63% ב 9.2 שנים,באר שבע,רזיאל,6.85,38027-20-24,38027/20,13029.315960912052,31.2581228405,34.8104818638,2022
2022-11-23,2022-11-23,"טבנקין 42, באר שבע",טבנקין 42,38102-6-22,דירה בבית קומות,3.0,שלישית,65.9,750000,,,1970.0,,3.0,11010685140,1,381026,False,36% ב 2 שנים,באר שבע,טבנקין,18.0,38102-6-22,38102/6,11380.880121396054,31.2550288491,34.7733686302,2022
2022-11-23,2022-11-23,"טבנקין 52, באר שבע",טבנקין 52,38102-7-16,דירה בבית קומות,3.0,ראשונה,62.1,850000,,,1970.0,,3.0,11010825360,1,381027,False,26% ב 5.4 שנים,באר שבע,טבנקין,4.81,38102-7-16,38102/7,13687.600644122384,31.2546037341,34.7729745616,2022
2022-11-23,2022-11-23,"עין גדי 22, באר שבע",עין גדי 22,38122-27-15,דירה בבית קומות,4.0,ראשונה,90.0,1095000,,,1992.0,,2.0,11011342140,1,3812227,False,,באר שבע,עין גדי,,38122-27-15,38122/27,12166.666666666666,31.2492385349,34.77123281,2022
2022-11-23,2022-11-23,"בצלאל 36, באר שבע",בצלאל 36,38071-69-15,דירה בבית קומות,3.0,שלישית,56.8,760000,,,1960.0,,3.0,11010704310,1,3807169,False,2% ב 4.5 שנים,באר שבע,בצלאל,0.44,38071-69-15,38071/69,13380.281690140846,31.2549145902,34.7908188073,2022
2022-11-23,2022-11-23,"מגידו 12, באר שבע",מגידו 12,38115-70-29,דירה בבית קומות,3.0,שלישית,59.5,680000,,,1980.0,,4.0,11011310190,1,3811570,False,,באר שבע,מגידו,,38115-70-29,38115/70,11428.57142857143,31.2441556492,34.7760405335,2022
2022-11-23,2022-11-23,"הרב יוסף סוסו הכהן 1, באר שבע",הרב יוסף סוסו הכהן 1,38073-162-14,דירה בבית קומות,4.0,שלישית,80.0,1165000,,,1960.0,,4.0,11011466880,1,38073162,False,133% ב 13.4 שנים,באר שבע,הרב סוסו יוסף,9.93,38073-162-14,38073/162,14562.5,31.2656612285,34.797834881,2022
2022-11-23,2022-11-23,"יוסף בן-מתתיהו 17, באר שבע",יוסף בן-מתתיהו 17,38093-9-3,דירה בבית קומות,4.0,ראשונה,92.2,1100000,,,1967.0,,1.0,11010968640,1,380939,False,194% ב 22 שנים,באר שבע,יוסף בן מתתיהו,8.82,38093-9-3,38093/9,11930.58568329718,31.265630182,34.7995976105,2022
2022-11-23,2022-11-23,"השלום 32, באר שבע",השלום 32,38030-256-5,דירה בבית קומות,3.0,קרקע,72.3,1000000,,,1970.0,,1.0,11012337000,1,38030256,False,61% ב 2.9 שנים,באר שבע,השלום,21.03,38030-256-5,38030/256,13831.258644536654,31.2519253822,34.8051113483,2022
2022-11-23,2022-11-23,"יעקב כהן 4, באר שבע",יעקב כהן 4,38074-153-157,חנות,,ראשונה,110.0,2000000,,,2013.0,,18.0,11010686490,1,38074153,False,,באר שבע,כהן יעקב,,38074-153-157,38074/153,18181.81818181818,31.2531406618,34.7976337153,2022
2022-11-23,2022-11-23,"חיים הזז 8, באר שבע",חיים הזז 8,38074-138-22,דירה בבית קומות,4.0,שישית,86.1,1450000,,,1994.0,,9.0,11010580290,1,38074138,False,190% ב 10.6 שנים,באר שבע,הזז חיים,17.92,38074-138-22,38074/138,16840.882694541233,31.2543686498,34.796523758,2022
2022-11-22,2022-11-22,"אחזיה 5, באר שבע",אחזיה 5,38108-64-3,דירה בבית קומות,3.0,שניה,61.0,720000,,,1980.0,,4.0,11010728070,1,3810864,False,10% ב 2.5 שנים,באר שבע,אחזיה,4.0,38108-64-3,38108/64,11803.27868852459,31.2647267459,34.7851010781,2022
2022-11-22,2022-11-22,,,38068-1-134,דירה בבית קומות,4.0,שלישית,117.0,1680000,,,2022.0,,,11010719160,2,380681,False,,באר שבע,קפריסין,,38068-1-134,38068/1,14358.97435897436,31.2526849461,34.779672642,2022
