DEALDATE,DEALDATETIME,FULLADRESS,DISPLAYADRESS,GUSH,DEALNATUREDESCRIPTION,ASSETROOMNUM,FLOORNO,DEALNATURE,DEALAMOUNT,NEWPROJECTTEXT,PROJECTNAME,BUILDINGYEAR,YEARBUILT,BUILDINGFLOORS,KEYVALUE,TYPE,POLYGON_ID,TREND_IS_NEGATIVE,TREND_FORMAT,city_name,street,presentage per year,GUSH - Copy,Gush_Helka,Price per sqm,lat,lon,Year
2024-12-05,2024-05-12,"עמק החולה 4, מודיעין-מכבים-רעות",עמק החולה 4,5692-90-1,דירה בבית קומות,5.0,קרקע וראשונה,148.85,4370000,,,1996.0,,2.0,10429023780,1,569290,False,47% ב 3 שנים,מודיעין-מכבים-רעות,עמק החולה,15.67,5692-90-1,5692/90,29358.41451125294,31.8948458123,35.0238046817,2024
2024-12-04,2024-04-12,"נחל שורק 26, מודיעין-מכבים-רעות",נחל שורק 26,5682-76-10,דירה בבית קומות,4.5,ראשונה,112.7,3260000,,,1998.0,,5.0,10427544204,1,568276,False,,מודיעין-מכבים-רעות,נחל שורק,,5682-76-10,5682/76,28926.353149955637,31.8961822447,35.0071354948,2024
2024-12-04,2024-04-12,"נופך 36, מודיעין-מכבים-רעות",נופך 36,5869-39-5,דירה בבית קומות,4.0,שלישית,88.0,2820000,,,2003.0,,3.0,10427761092,1,586939,False,112% ב 13.5 שנים,מודיעין-מכבים-רעות,נופך,8.3,5869-39-5,5869/39,32045.454545454544,31.906245612,34.9953894102,2024
2024-12-03,2024-03-12,"שמואל הנביא 16, מודיעין-מכבים-רעות",שמואל הנביא 16,5569-9-67,דירה בבית קומות,4.0,שניה,101.4,2700000,,,2000.0,,4.0,10422783420,1,55699,False,,מודיעין-מכבים-רעות,שמואל הנביא,,5569-9-67,5569/9,26627.21893491124,31.9128560793,35.0045716731,2024
2024-12-02,2024-02-12,"חטיבת אלכסנדרוני 6, מודיעין-מכבים-רעות",חטיבת אלכסנדרוני 6,5569-36-21,דירה בבית קומות,4.0,ראשונה,109.85,2915000,,,1997.0,,2.0,10420046616,1,556936,False,56% ב 3.3 שנים,מודיעין-מכבים-רעות,חטיבת אלכסנדרוני,16.97,5569-36-21,5569/36,26536.18570778334,31.9099511463,35.0019851478,2024
2024-12-02,2024-02-12,"חטיבת גבעתי 4, מודיעין-מכבים-רעות",חטיבת גבעתי 4,5569-29-49,דירה בבית קומות,3.0,קרקע,74.7,2760000,,,2000.0,,2.0,10419796464,1,556929,False,90% ב 9.8 שנים,מודיעין-מכבים-רעות,חטיבת גבעתי,9.18,5569-29-49,5569/29,36947.79116465864,31.9101266313,35.0033023407,2024
2024-11-09,2024-09-11,"מגדל דוד 25, מודיעין-מכבים-רעות",מגדל דוד 25,5685-17-46,דירה בבית קומות,5.0,שבע עשרה + שמונה עשרה,150.0,4760000,,,1998.0,,13.0,10440105648,1,568517,False,96% ב 9.1 שנים,מודיעין-מכבים-רעות,מגדל דוד,10.55,5685-17-46,5685/17,31733.33333333333,31.9006951502,35.011482743,2024
2024-11-06,2024-06-11,"מנחם בגין 26, מודיעין-מכבים-רעות",מנחם בגין 26,5818-75-5,דירה בבית קומות,5.0,ראשונה ושניה,117.75,3865000,,,2013.0,,1.0,10431285900,1,581875,False,127% ב 12.3 שנים,מודיעין-מכבים-רעות,מנחם בגין,10.33,5818-75-5,5818/75,32823.77919320595,31.8815083136,35.0121856057,2024
2024-11-04,2024-04-11,"תרשיש 65, מודיעין-מכבים-רעות",תרשיש 65,5868-42-6,דירה בבית קומות,5.0,שלישית ורביעית,136.65,4720000,,,2006.0,,6.0,10427351592,1,586842,False,,מודיעין-מכבים-רעות,תרשיש,,5868-42-6,5868/42,34540.797658251,31.9056007318,34.993535444,2024
2024-11-04,2024-04-11,"נחל קטלב 5, מודיעין-מכבים-רעות",נחל קטלב 5,5682-149-1,קוטג' דו משפחתי,6.0,קרקע וראשונה,152.0,5300000,,,1990.0,,,10427906832,1,5682149,False,271% ב 17.9 שנים,מודיעין-מכבים-רעות,נחל קטלב,15.14,5682-149-1,5682/149,34868.42105263158,31.8940254089,35.0065937357,2024
2024-11-02,2024-02-11,,,5642-71-26,דירה בבית קומות,5.0,ראשונה,149.0,4001000,,,2025.0,,,10421683524,2,564271,False,,מודיעין-מכבים-רעות,תלתן,,5642-71-26,5642/71,26852.34899328859,,,2024
2024-11-02,2024-02-11,"לאה אימנו 4, מודיעין-מכבים-רעות",לאה אימנו 4,5816-79-23,דירה בבית קומות,3.0,קומה ‎3‏,67.7,3000000,,,2015.0,,7.0,10420126332,1,581679,False,,מודיעין-מכבים-רעות,לאה אמנו,,5816-79-23,5816/79,44313.14623338257,31.8846005695,35.0047979168,2024
2024-11-02,2024-02-11,"שמואל הנביא 16, מודיעין-מכבים-רעות",שמואל הנביא 16,5569-9-69,דירה בבית קומות,4.0,שלישית,96.65,2800000,,,2000.0,,4.0,10419960600,1,55699,False,259% ב 17.4 שנים,מודיעין-מכבים-רעות,שמואל הנביא,14.89,5569-9-69,5569/9,28970.51215726849,31.9128560793,35.0045716731,2024
2024-11-01,2024-01-11,"תרשיש 57, מודיעין-מכבים-רעות",תרשיש 57,5868-44-2,דירה בבית קומות,5.0,"ראשונה, שניה",133.39,4640000,,,2006.0,,6.0,10416964236,1,586844,False,,מודיעין-מכבים-רעות,תרשיש,,5868-44-2,5868/44,34785.216283079695,31.9060872155,34.9933905012,2024
2024-11-01,2024-01-11,"עמוס הנביא 14, מודיעין-מכבים-רעות",עמוס הנביא 14,5567-83-10,דירה בבית קומות,4.0,שישית,98.5,3090000,,,2007.0,,27.0,10417001028,1,556783,False,155% ב 14.7 שנים,מודיעין-מכבים-רעות,עמוס הנביא,10.54,5567-83-10,5567/83,31370.55837563452,31.9155099204,35.0019056369,2024
2024-11-01,2024-01-11,"פיקוס 13, מודיעין-מכבים-רעות",פיקוס 13,5685-51-2,דירה בבית קומות,3.0,ראשונה,80.0,2550000,,,1997.0,,3.0,10417106952,1,568551,False,100% ב 9.2 שנים,מודיעין-מכבים-רעות,פיקוס,10.87,5685-51-2,5685/51,31875.0,31.9007875811,35.0091147973,2024
2024-11-01,2024-01-11,"לוע הארי 18, מודיעין-מכבים-רעות",לוע הארי 18,5655-19-5,דירה בבית קומות,3.0,ראשונה,64.5,1900000,,,1996.0,,3.0,10417773576,1,565519,False,11% ב 4 שנים,מודיעין-מכבים-רעות,לוע הארי,2.75,5655-19-5,5655/19,29457.36434108527,31.9052241158,35.0086078427,2024
2024-11-01,2024-01-11,"מנחם בגין 74, מודיעין-מכבים-רעות",מנחם בגין 74,5819-19-15,דירה בבית קומות,4.0,קומה ‎1‏,97.3,3300000,,,2010.0,,3.0,10417618344,1,581919,False,78% ב 11 שנים,מודיעין-מכבים-רעות,רחל אמנו,7.09,5819-19-15,5819/19,33915.724563206575,31.878085258,35.0075821402,2024
2024-11-01,2024-01-11,"מגדל דוד 23, מודיעין-מכבים-רעות",מגדל דוד 23,5685-17-68,דירה בבית קומות,4.0,שמינית,110.1,2750000,,,1999.0,,16.0,10416902580,1,568517,False,,מודיעין-מכבים-רעות,מגדל דוד,,5685-17-68,5685/17,24977.293369663945,31.9006951502,35.011482743,2024
2024-11-01,2024-01-11,"מגדל דוד 25, מודיעין-מכבים-רעות",מגדל דוד 25,5685-17-37,דירה בבית קומות,4.0,שלוש עשרה,99.8,2870000,,,1998.0,,13.0,10416935004,1,568517,False,129% ב 13.8 שנים,מודיעין-מכבים-רעות,מגדל דוד,9.35,5685-17-37,5685/17,28757.51503006012,31.9006951502,35.011482743,2024
2024-10-09,2024-09-10,"עמק איילון 52, מודיעין-מכבים-רעות",עמק איילון 52,5656-23-15,דירה בבית קומות,6.0,שלישית ורביעית,124.0,2820000,,,1996.0,,4.0,10439997540,1,565623,False,88% ב 13.6 שנים,מודיעין-מכבים-רעות,עמק איילון,6.47,5656-23-15,5656/23,22741.93548387097,31.9032746569,35.0125054784,2024
2024-10-07,2024-07-10,"דבורנית 6, מודיעין-מכבים-רעות",דבורנית 6,5652-33-3,דירה בבית קומות,5.0,ראשונה,139.13,3400000,,,1996.0,,4.0,10434454128,1,565233,False,,מודיעין-מכבים-רעות,דבורנית,,5652-33-3,5652/33,24437.57636742615,31.9067564233,35.0093944722,2024
2024-10-07,2024-07-10,"עמק החולה 73, מודיעין-מכבים-רעות",עמק החולה 73,5683-88-25,דירה בבית קומות,4.0,שניה,96.3,2850000,,,1999.0,,4.0,10436196372,1,568388,False,50% ב 4 שנים,מודיעין-מכבים-רעות,עמק החולה,12.5,5683-88-25,5683/88,29595.01557632399,31.8951154583,35.0121567506,2024
2024-10-06,2024-06-10,"לבונה 15, מודיעין-מכבים-רעות",לבונה 15,5685-27-49,דירת גן,5.0,קרקע + ראשונה,142.25,4000000,,,1997.0,,2.0,10431901956,1,568527,False,,מודיעין-מכבים-רעות,לבונה,,5685-27-49,5685/27,28119.5079086116,31.9000260262,35.0117762232,2024
2024-10-06,2024-06-10,"קול התור 3, מודיעין-מכבים-רעות",קול התור 3,5654-15-2,קוטג' דו משפחתי,6.0,קרקע + ראשונה,180.5,5600000,,,1996.0,,2.0,10431689184,1,565415,False,,מודיעין-מכבים-רעות,קול התור,,5654-15-2,5654/15,31024.93074792244,31.908370285,35.0157605077,2024
2024-10-06,2024-06-10,"לשם 59, מודיעין-מכבים-רעות",לשם 59,5871-30-18,דירה בבית קומות,3.0,שלישית,82.0,2600000,,,2003.0,,4.0,10431131256,1,587130,False,62% ב 5.1 שנים,מודיעין-מכבים-רעות,לשם,12.16,5871-30-18,5871/30,31707.31707317073,31.9025618088,34.9953465624,2024
2024-10-05,2024-05-10,"חיננית 5, מודיעין-מכבים-רעות",חיננית 5,5652-53-33,דירת גן,5.0,קרקע וראשונה,143.1,4900000,,,1997.0,,2.0,10428811092,1,565253,False,133% ב 14.1 שנים,מודיעין-מכבים-רעות,חיננית,9.43,5652-53-33,5652/53,34241.78895877009,31.9080757648,35.0092491373,2024
2024-10-04,2024-04-10,"רא""ל יגאל ידין 39, מודיעין-מכבים-רעות","רא""ל יגאל ידין 39",5571-32-32,דירה בבית קומות,5.0,שביעית,135.2,3575000,,,2007.0,,17.0,10426318476,1,557132,False,,מודיעין-מכבים-רעות,"רא""ל יגאל ידין",,5571-32-32,5571/32,26442.30769230769,31.9044538939,35.0042638394,2024
2024-10-04,2024-04-10,"עמק החולה 101, מודיעין-מכבים-רעות",עמק החולה 101,5683-74-14,דירה בבית קומות,4.0,שלישית,89.5,3070000,,,1997.0,,4.0,10426439520,1,568374,False,83% ב 8.9 שנים,מודיעין-מכבים-רעות,עמק החולה,9.33,5683-74-14,5683/74,34301.675977653635,31.8976848737,35.0092673003,2024
2024-10-04,2024-04-10,"עפרוני 9, מודיעין-מכבים-רעות",עפרוני 9,5877-47-49,דירה בבית קומות,5.0,ראשונה,114.0,4580000,,,2015.0,,6.0,10427468016,1,587747,False,102% ב 9 שנים,מודיעין-מכבים-רעות,עפרוני,11.33,5877-47-49,5877/47,40175.43859649123,31.8970717325,34.9989713874,2024
2024-10-04,2024-04-10,"שבטי ישראל 4, מודיעין-מכבים-רעות",שבטי ישראל 4,5813-14-43,דירה בבית קומות,4.0,שניה,99.6,4150000,,,2001.0,,2.0,10427262804,1,581314,False,,מודיעין-מכבים-רעות,שבטי ישראל,,5813-14-43,5813/14,41666.66666666667,31.8860741485,35.0090745813,2024
2024-10-04,2024-04-10,"אייר 15, מודיעין-מכבים-רעות",אייר 15,5733-64-11,דירת גן,4.0,רביעית,99.49,3100000,,,2014.0,,5.0,10426141656,1,573364,False,96% ב 9.3 שנים,מודיעין-מכבים-רעות,אייר,10.32,5733-64-11,5733/64,31158.91044326063,31.9165287247,35.0111176003,2024
2024-10-04,2024-04-10,"נחל יגור 17, מודיעין-מכבים-רעות",נחל יגור 17,5684-22-2,דירה בבית קומות,5.0,קרקע + ראשונה,119.7,4030000,,,1995.0,,1.0,10425560208,1,568422,False,,מודיעין-מכבים-רעות,נחל יגור,,5684-22-2,5684/22,33667.50208855472,31.8924706258,35.0059828357,2024
2024-10-04,2024-04-10,"סביון 8, מודיעין-מכבים-רעות",סביון 8,5653-27-11,דירת גן,4.0,קרקע,100.11,3500000,,,1997.0,,1.0,10425702840,1,565327,False,,מודיעין-מכבים-רעות,סביון,,5653-27-11,5653/27,34961.54230346619,31.9068015335,35.0140702292,2024
2024-10-03,2024-03-10,"עמק דותן 76, מודיעין-מכבים-רעות",עמק דותן 76,5685-33-9,דירה בבית קומות,4.0,שניה,84.45,2700000,,,1999.0,,3.0,10422819372,1,568533,False,,מודיעין-מכבים-רעות,עמק דותן,,5685-33-9,5685/33,31971.58081705151,31.8999175573,35.0121300086,2024
2024-10-01,2024-01-10,"פיקוס 8, מודיעין-מכבים-רעות",פיקוס 8,5642-63-6,דירה בבית קומות,4.0,שלישית,113.0,3160000,,,2020.0,,3.0,10417093680,1,564263,False,,מודיעין-מכבים-רעות,פיקוס,,5642-63-6,5642/63,27964.601769911504,31.9015013945,35.0087593128,2024
2024-10-01,2024-01-10,"מנחם בגין 122, מודיעין-מכבים-רעות",מנחם בגין 122,5817-17-35,דירה בבית קומות,4.0,ראשונה,96.0,2740000,,,2007.0,,2.0,10418447172,1,581717,False,242% ב 16.5 שנים,מודיעין-מכבים-רעות,מנחם בגין,14.67,5817-17-35,5817/17,28541.666666666668,31.8806323444,35.0029617917,2024
2024-10-01,2024-01-10,"עמק האלה 64, מודיעין-מכבים-רעות",עמק האלה 64,5734-57-16,,4.0,רביעית,90.3,2300000,,,2002.0,,5.0,10419168648,1,573457,False,248% ב 21.6 שנים,מודיעין-מכבים-רעות,עמק האלה,11.48,5734-57-16,5734/57,25470.65337763012,31.914014674,35.007315604,2024
2024-10-01,2024-01-10,"רא""ל חיים ברלב 21, מודיעין-מכבים-רעות","רא""ל חיים ברלב 21",5695-33-7,דירת גן,4.0,קרקע + ראשונה,128.2,4325000,,,1999.0,,1.0,10416998844,1,569533,False,103% ב 10.8 שנים,מודיעין-מכבים-רעות,"רא""ל חיים ברלב",9.54,5695-33-7,5695/33,33736.34945397816,31.9071619018,35.0011668091,2024
2024-10-01,2024-01-10,,,5642-71-29,דירה בבית קומות,5.0,חמישית,156.0,4006000,,,2025.0,,,10419360588,2,564271,False,,מודיעין-מכבים-רעות,תלתן,,5642-71-29,5642/71,25679.48717948718,,,2024
2024-09-08,2024-08-09,"רא""ל יגאל ידין 13, מודיעין-מכבים-רעות","רא""ל יגאל ידין 13",5571-40-28,דירה בבית קומות,3.0,קומה ‎4‏,74.7,2650000,,,2022.0,,13.0,10436875596,1,557140,False,,מודיעין-מכבים-רעות,"רא""ל יגאל ידין",,5571-40-28,5571/40,35475.23427041499,31.9072117166,35.0042093587,2024
2024-09-06,2024-06-09,,,5642-71-14,דירה בבית קומות,3.0,חמישית,93.0,2976000,,,2025.0,,,10432548420,2,564271,False,,מודיעין-מכבים-רעות,תלתן,,5642-71-14,5642/71,32000.0,,,2024
2024-09-06,2024-06-09,"אליהו הנביא 20, מודיעין-מכבים-רעות",אליהו הנביא 20,5570-24-52,דירה בבית קומות,3.0,קרקע,76.1,2470000,,,1998.0,,2.0,10430766108,1,557024,False,41% ב 5.8 שנים,מודיעין-מכבים-רעות,אליהו הנביא,7.07,5570-24-52,5570/24,32457.293035479637,31.9115569975,35.0085326657,2024
2024-09-05,2024-05-09,"דוכיפת 55, מודיעין-מכבים-רעות",דוכיפת 55,5876-19-12,דירת גן,4.0,קומה ‎0‏,98.25,3975000,,,2017.0,,5.0,10427915736,1,587619,False,,מודיעין-מכבים-רעות,דוכיפת,,5876-19-12,5876/19,40458.01526717557,31.8955977429,34.9913760693,2024
2024-09-05,2024-05-09,"חשוון 11, מודיעין-מכבים-רעות",חשוון 11,5736-34-11,דירה בבית קומות,4.0,קרקע,93.65,3300000,,,2007.0,,3.0,10428774300,1,573634,False,288% ב 17 שנים,מודיעין-מכבים-רעות,חשון,16.94,5736-34-11,5736/34,35237.58675920982,31.9122037668,35.0142838577,2024
2024-09-04,2024-04-09,"תשרי 25, מודיעין-מכבים-רעות",תשרי 25,5733-25-8,דירה בבית קומות,4.0,שלישית,91.15,3310000,,,2010.0,,4.0,10425752064,1,573325,False,33% ב 2.9 שנים,מודיעין-מכבים-רעות,תשרי,11.38,5733-25-8,5733/25,36313.76851343938,31.9162136357,35.0091364894,2024
2024-09-04,2024-04-09,"עמק דותן 23, מודיעין-מכבים-רעות",עמק דותן 23,5691-50-11,דירה בבית קומות,3.0,ראשונה,66.2,2170000,,,1996.0,,2.0,10425598932,1,569150,False,10% ב 1.8 שנים,מודיעין-מכבים-רעות,עמק דותן,5.56,5691-50-11,5691/50,32779.45619335347,31.8983592664,35.0207396659,2024
2024-09-01,2024-01-09,"תלתן 23, מודיעין-מכבים-רעות",תלתן 23,5655-37-8,דירה בבית קומות,6.0,שלישית,163.62,4450000,,,1998.0,,4.0,10416647556,1,565537,False,,מודיעין-מכבים-רעות,תלתן,,5655-37-8,5655/37,27197.16416086053,31.9038850275,35.0087152702,2024
2024-09-01,2024-01-09,"נהר הירדן 3, מודיעין-מכבים-רעות",נהר הירדן 3,5688-38-3,דירה בבית קומות,4.0,שניה,90.0,2375000,,,1996.0,,3.0,10417325940,1,568838,False,33% ב 3.3 שנים,מודיעין-מכבים-רעות,נהר הירדן,10.0,5688-38-3,5688/38,26388.88888888889,31.8949364544,35.0129188241,2024
2024-08-28,2024-08-28,"נחל הירקון 4, מודיעין-מכבים-רעות",נחל הירקון 4,5691-50-26,דירה בבית קומות,3.0,שניה + מרתף,80.9,2120000,,,1996.0,,3.0,10438619100,1,569150,False,37% ב 4.7 שנים,מודיעין-מכבים-רעות,נחל הירקון,7.87,5691-50-26,5691/50,26205.191594561184,31.8983592664,35.0207396659,2024
2024-08-23,2024-08-23,"תשרי 50, מודיעין-מכבים-רעות",תשרי 50,5733-52-15,דירה בבית קומות,3.0,קומה ‎3‏,62.6,2150000,,,2013.0,,2.0,10438086288,1,573352,False,40% ב 4.1 שנים,מודיעין-מכבים-רעות,תשרי,9.76,5733-52-15,5733/52,34345.04792332268,31.9178419016,35.0078456414,2024
2024-08-21,2024-08-21,"רא""ל יגאל ידין 41, מודיעין-מכבים-רעות","רא""ל יגאל ידין 41",5571-32-78,דירה בבית קומות,5.0,שישית,129.9,3713000,,,2007.0,,17.0,10438521324,1,557132,False,58% ב 4.1 שנים,מודיעין-מכבים-רעות,"רא""ל יגאל ידין",14.15,5571-32-78,5571/32,28583.525789068517,31.9044538939,35.0042638394,2024
2024-08-20,2024-08-20,"חטיבת הנגב 18, מודיעין-מכבים-רעות",חטיבת הנגב 18,5571-13-7,דירה בבית קומות,4.0,ראשונה,105.4,2960000,,,2000.0,,3.0,10437692580,1,557113,False,71% ב 9.4 שנים,מודיעין-מכבים-רעות,חטיבת הנגב,7.55,5571-13-7,5571/13,28083.49146110057,31.907837532,35.003304442,2024
2024-08-19,2024-08-19,"דם המכבים 51, מודיעין-מכבים-רעות",דם המכבים 51,5640-87-10,דירה בבית קומות,3.0,ראשונה,72.0,3230000,,,2018.0,,4.0,10437685524,1,564087,False,,מודיעין-מכבים-רעות,דם המכבים,,5640-87-10,5640/87,44861.11111111111,31.9041811544,35.0072392615,2024
2024-08-19,2024-08-19,"אלישע הנביא 10, מודיעין-מכבים-רעות",אלישע הנביא 10,5570-61-48,דירה בבית קומות,4.0,קומה ‎3‏,113.59,3200000,,,2017.0,,12.0,10437619836,1,557061,False,125% ב 6.9 שנים,מודיעין-מכבים-רעות,אלישע הנביא,18.12,5570-61-48,5570/61,28171.49396953957,31.9096000997,35.0063201337,2024
2024-08-18,2024-08-18,"יהודה 103, מודיעין-מכבים-רעות",יהודה 103,5812-118-7,דירה בבית קומות,5.0,שלישית ורביעית,152.4,4620000,,,2004.0,,1.0,10437656628,1,5812118,False,,מודיעין-מכבים-רעות,יהודה,,5812-118-7,5812/118,30314.960629921257,31.8910839175,35.004071281,2024
2024-08-18,2024-08-18,"עמק איילון 52, מודיעין-מכבים-רעות",עמק איילון 52,5656-23-10,דירה בבית קומות,3.0,ראשונה,73.7,2320000,,,1996.0,,4.0,10437510888,1,565623,False,209% ב 15 שנים,מודיעין-מכבים-רעות,עמק איילון,13.93,5656-23-10,5656/23,31478.968792401625,31.9032746569,35.0125054784,2024
2024-08-16,2024-08-16,"תרשיש 12, מודיעין-מכבים-רעות",תרשיש 12,5868-38-34,דירה בבית קומות,4.5,"קומה ‎0‏, קומה ‎1‏",109.0,3775000,,,2007.0,,6.0,10438326696,1,586838,False,,מודיעין-מכבים-רעות,יהלום,,5868-38-34,5868/38,34633.02752293578,31.9076915266,34.9942581816,2024
2024-08-09,2024-09-08,"עמק בית שאן 36, מודיעין-מכבים-רעות",עמק בית שאן 36,5567-67-19,דירה בבית קומות,3.0,קרקע,74.4,2720000,,,1997.0,,2.0,10439688420,1,556767,False,,מודיעין-מכבים-רעות,עמק בית שאן,,5567-67-19,5567/67,36559.13978494624,31.9127609431,35.0019073683,2024
2024-08-09,2024-09-08,"יונה הנביא 11, מודיעין-מכבים-רעות",יונה הנביא 11,5570-58-40,דירה בבית קומות,5.0,קומה ‎5‏,120.0,3860000,,,2018.0,,8.0,10439554692,1,557058,False,,מודיעין-מכבים-רעות,יונה הנביא,,5570-58-40,5570/58,32166.666666666668,31.9101843766,35.0104988824,2024
2024-08-09,2024-09-08,"תשרי 45, מודיעין-מכבים-רעות",תשרי 45,5732-48-5,דירה בבית קומות,4.0,שניה,94.4,2970000,,,2011.0,,3.0,10439771076,1,573248,False,135% ב 13.5 שנים,מודיעין-מכבים-רעות,תשרי,10.0,5732-48-5,5732/48,31461.86440677966,31.9184478423,35.0063042599,2024
2024-08-08,2024-08-08,"עפרוני 24, מודיעין-מכבים-רעות",עפרוני 24,5877-94-25,דירה בבית קומות,5.0,חמישית,123.0,3550000,,,2018.0,,14.0,10437853356,1,587794,False,,מודיעין-מכבים-רעות,עפרוני,,5877-94-25,5877/94,28861.788617886177,31.8959637804,35.0009130514,2024
2024-08-04,2024-04-08,"דבורנית 6, מודיעין-מכבים-רעות",דבורנית 6,5652-33-4,דירה בבית קומות,5.0,ראשונה,139.13,3600000,,,1996.0,,4.0,10425414636,1,565233,False,,מודיעין-מכבים-רעות,דבורנית,,5652-33-4,5652/33,25875.080859627687,31.9067564233,35.0093944722,2024
2024-08-04,2024-04-08,"זכריה הנביא 4, מודיעין-מכבים-רעות",זכריה הנביא 4,5736-39-63,דירה בבית קומות,5.0,"שניה, שלישית",130.55,3245000,,,2007.0,,7.0,10426327464,1,573639,False,,מודיעין-מכבים-רעות,שבט,,5736-39-63,5736/39,24856.376867100724,31.912036065,35.0133046456,2024
2024-08-04,2024-04-08,"תרשיש 61, מודיעין-מכבים-רעות",תרשיש 61,5868-43-10,קוטג' דו משפחתי,6.0,רביעית חמישית ושישית,158.05,5500000,,,2004.0,,5.0,10427716152,1,586843,False,36% ב 3.2 שנים,מודיעין-מכבים-רעות,תרשיש,11.25,5868-43-10,5868/43,34799.1142043657,31.9058142476,34.993305382,2024
2024-08-02,2024-02-08,"חרצית 7, מודיעין-מכבים-רעות",חרצית 7,5656-8-13,דירה בבית קומות,4.0,שניה ושלישית,100.2,2970000,,,1998.0,,1.0,10420495764,1,56568,False,,מודיעין-מכבים-רעות,חרצית,,5656-8-13,5656/8,29640.71856287425,31.9036429344,35.0116798722,2024
2024-08-02,2024-02-08,"שבט 11, מודיעין-מכבים-רעות",שבט 11,5736-39-134,דירה בבית קומות,4.0,ראשונה,83.05,2430000,,,2007.0,,7.0,10419750180,1,573639,False,,מודיעין-מכבים-רעות,שבט,,5736-39-134,5736/39,29259.48223961469,31.912036065,35.0133046456,2024
2024-08-02,2024-02-08,"שבטי ישראל 14, מודיעין-מכבים-רעות",שבטי ישראל 14,5814-5-6,דירה בבית קומות,5.0,קרקע,133.6,4750000,,,2006.0,,1.0,10420181184,1,58145,False,39% ב 7.1 שנים,מודיעין-מכבים-רעות,שבטי ישראל,5.49,5814-5-6,5814/5,35553.89221556886,31.8860141917,35.0045435827,2024
2024-08-01,2024-01-08,"כסלו 5, מודיעין-מכבים-רעות",כסלו 5,5734-60-15,דירה בבית קומות,3.0,שניה,67.0,2300000,,,2002.0,,3.0,10418689680,1,573460,False,71% ב 8.8 שנים,מודיעין-מכבים-רעות,כסלו,8.07,5734-60-15,5734/60,34328.35820895522,31.9137509389,35.0094611521,2024
2024-08-01,2024-01-08,"נהר הירדן 5, מודיעין-מכבים-רעות",נהר הירדן 5,5683-110-1,קוטג' דו משפחתי,6.0,ראשונה ושניה,162.9,10200000,,,1998.0,,3.0,10416655872,1,5683110,False,,מודיעין-מכבים-רעות,נהר הירדן,,5683-110-1,5683/110,62615.10128913444,31.89459519,35.0121760133,2024
2024-07-29,2024-07-29,"חרצית 28, מודיעין-מכבים-רעות",חרצית 28,5653-8-3,דירה בבית קומות,4.0,ראשונה,99.4,3390000,,,2005.0,,5.0,10435898424,1,56538,False,69% ב 8.4 שנים,מודיעין-מכבים-רעות,חרצית,8.21,5653-8-3,5653/8,34104.627766599595,31.9060917197,35.0115269249,2024
2024-07-28,2024-07-28,"תרשיש 42, מודיעין-מכבים-רעות",תרשיש 42,5871-50-32,דירה בבית קומות,5.0,ראשונה,103.9,3441000,,,2005.0,,5.0,10437489636,1,587150,False,48% ב 4.6 שנים,מודיעין-מכבים-רעות,תרשיש,10.43,5871-50-32,5871/50,33118.38306063523,31.9040764398,34.9929645563,2024
2024-07-28,2024-07-28,"כסלו 12, מודיעין-מכבים-רעות",כסלו 12,5734-76-38,דירה בבית קומות,4.0,קומה ‎1‏,87.0,2740000,,,2010.0,,5.0,10435578132,1,573476,False,,מודיעין-מכבים-רעות,טבת,,5734-76-38,5734/76,31494.25287356322,31.9146168327,35.0088369572,2024
2024-07-28,2024-07-28,"ציפורנית 10, מודיעין-מכבים-רעות",ציפורנית 10,5653-33-52,דירה בבית קומות,3.0,שלישית,66.7,2480000,,,1997.0,,4.0,10435503288,1,565333,False,,מודיעין-מכבים-רעות,ציפורנית,,5653-33-52,5653/33,37181.40929535232,31.9062735535,35.0144732955,2024
2024-07-24,2024-07-24,"מנשה 4, מודיעין-מכבים-רעות",מנשה 4,5816-65-6,דירה בבית קומות,4.0,שניה,113.8,4050000,,,2008.0,,3.0,10435551840,1,581665,False,71% ב 7.6 שנים,מודיעין-מכבים-רעות,מנשה,9.34,5816-65-6,5816/65,35588.752196836555,31.8852499733,35.0070168874,2024
2024-07-22,2024-07-22,"שבט 37, מודיעין-מכבים-רעות",שבט 37,5735-23-30,דירה בבית קומות,5.0,שניה,120.1,3320000,,,2008.0,,4.0,10435046076,1,573523,False,234% ב 15.8 שנים,מודיעין-מכבים-רעות,שבט,14.81,5735-23-30,5735/23,27643.630308076605,31.9141121312,35.0111161619,2024
2024-07-18,2024-07-18,"מנחם בגין 70, מודיעין-מכבים-רעות",מנחם בגין 70,5819-19-52,דירה בבית קומות,5.0,קומה ‎1‏,114.2,4650000,,,2007.0,,3.0,10435550580,1,581919,False,,מודיעין-מכבים-רעות,מנחם בגין,,5819-19-52,5819/19,40718.03852889667,31.878085258,35.0075821402,2024
2024-07-17,2024-07-17,"כחלית ההרים 16, מודיעין-מכבים-רעות",כחלית ההרים 16,5653-10-10,דירה בבית קומות,3.0,ראשונה,59.04,2050000,,,1997.0,,9.0,10434702936,1,565310,False,127% ב 14.1 שנים,מודיעין-מכבים-רעות,כחלית ההרים,9.01,5653-10-10,5653/10,34722.222222222226,31.905504785,35.011425534,2024
2024-07-17,2024-07-17,"אלול 14, מודיעין-מכבים-רעות",אלול 14,5732-51-1,דירה בבית קומות,5.0,קרקע,106.2,3200000,,,2011.0,,3.0,10436683488,1,573251,False,,מודיעין-מכבים-רעות,אלול,,5732-51-1,5732/51,30131.826741996232,31.9182208555,35.0057931042,2024
2024-07-17,2024-07-17,"לימון 5, מודיעין-מכבים-רעות",לימון 5,5685-66-1,דירה בבית קומות,5.0,ראשונה ושניה,119.0,3860000,,,1997.0,,4.0,10436594112,1,568566,False,221% ב 16.1 שנים,מודיעין-מכבים-רעות,לימון,13.73,5685-66-1,5685/66,32436.974789915967,31.9017436839,35.011160919,2024
2024-07-16,2024-07-16,"עמק בית שאן 35, מודיעין-מכבים-רעות",עמק בית שאן 35,5568-16-18,דירה בבית קומות,4.0,שניה,99.6,2600000,,,1999.0,,2.0,10434759720,1,556816,False,55% ב 8 שנים,מודיעין-מכבים-רעות,עמק בית שאן,6.88,5568-16-18,5568/16,26104.41767068273,31.9118323087,35.0010069952,2024
2024-07-16,2024-07-16,"תרשיש 9, מודיעין-מכבים-רעות",תרשיש 9,5869-41-5,דירה בבית קומות,4.0,ראשונה,87.0,2740000,,,2004.0,,2.0,10434411876,1,586941,False,,מודיעין-מכבים-רעות,תרשיש,,5869-41-5,5869/41,31494.25287356322,31.9062035168,34.9965888778,2024
2024-07-16,2024-07-16,"לאה אימנו 8, מודיעין-מכבים-רעות",לאה אימנו 8,5816-77-8,קוטג' דו משפחתי,6.0,"קומה ‎3‏, קומה ‎4‏",144.2,4600000,,,2012.0,,5.0,10434542160,1,581677,False,47% ב 5 שנים,מודיעין-מכבים-רעות,לאה אמנו,9.4,5816-77-8,5816/77,31900.1386962552,31.8839339725,35.004016694,2024
2024-07-15,2024-07-15,"חטיבת הצנחנים 31, מודיעין-מכבים-רעות",חטיבת הצנחנים 31,5869-68-7,דירה בבית קומות,5.0,ראשונה,101.0,4170000,,,2005.0,,3.0,10434973164,1,586968,False,,מודיעין-מכבים-רעות,חטיבת הצנחנים,,5869-68-7,5869/68,41287.12871287129,31.9088670908,34.9974325536,2024
2024-07-15,2024-07-15,"עמק האלה 94, מודיעין-מכבים-רעות",עמק האלה 94,5734-4-5,דירה בבית קומות,3.0,שניה,69.3,2430000,,,2002.0,,2.0,10434331404,1,57344,False,47% ב 3.5 שנים,מודיעין-מכבים-רעות,עמק האלה,13.43,5734-4-5,5734/4,35064.93506493507,31.9147929619,35.0051809357,2024
2024-07-15,2024-07-15,"עמוס הנביא 14, מודיעין-מכבים-רעות",עמוס הנביא 14,5567-83-6,דירה בבית קומות,5.0,רביעית,117.1,3400000,,,2007.0,,27.0,10435055064,1,556783,False,126% ב 15 שנים,מודיעין-מכבים-רעות,עמוס הנביא,8.4,5567-83-6,5567/83,29035.01280956448,31.9155099204,35.0019056369,2024
2024-07-08,2024-08-07,"עפרוני 24, מודיעין-מכבים-רעות",עפרוני 24,5877-94-24,,5.0,חמישית,124.0,3550000,1.0,,2018.0,,14.0,11181257945,1,587794,False,,מודיעין-מכבים-רעות,עפרוני,,5877-94-24,5877/94,28629.032258064515,31.8959637804,35.0009130514,2024
2024-07-07,2024-07-07,"נמר 14, מודיעין-מכבים-רעות",נמר 14,5682-57-6,דירה בבית קומות,4.5,שניה ושלישית,127.0,3100000,,,1997.0,,2.0,10434866484,1,568257,False,,מודיעין-מכבים-רעות,נמר,,5682-57-6,5682/57,24409.44881889764,31.8949686779,35.0045204324,2024
2024-07-06,2024-06-07,"נחל הירמוך 19, מודיעין-מכבים-רעות",נחל הירמוך 19,5688-6-7,דירה בבית קומות,3.5,קרקע,77.1,2735000,,,1996.0,,5.0,10430667744,1,56886,False,54% ב 8.2 שנים,מודיעין-מכבים-רעות,נחל הירמוך,6.59,5688-6-7,5688/6,35473.41115434501,31.89621976,35.0131937187,2024
2024-07-05,2024-05-07,"אלמוגן 4, מודיעין-מכבים-רעות",אלמוגן 4,5685-110-2,דירה בבית קומות,3.0,ראשונה,77.3,2365000,,,1998.0,,2.0,10427718840,1,5685110,False,55% ב 9 שנים,מודיעין-מכבים-רעות,אלמוגן,6.11,5685-110-2,5685/110,30595.084087968957,31.9025997692,35.0137540955,2024
2024-07-03,2024-03-07,"חטיבת גבעתי 2, מודיעין-מכבים-רעות",חטיבת גבעתי 2,5569-29-44,דירה בבית קומות,4.0,קרקע,99.1,3250000,,,1999.0,,2.0,10422276900,1,556929,False,,מודיעין-מכבים-רעות,חטיבת גבעתי,,5569-29-44,5569/29,32795.15640766903,31.9101266313,35.0033023407,2024
2024-07-03,2024-03-07,"מגדל ים 6, מודיעין-מכבים-רעות",מגדל ים 6,5868-15-94,דירה בבית קומות,4.0,תשיעית,111.6,3100000,,,2008.0,,19.0,10423282380,1,586815,False,178% ב 15.5 שנים,מודיעין-מכבים-רעות,מגדל ים,11.48,5868-15-94,5868/15,27777.77777777778,31.9062219865,34.9943737907,2024
2024-07-03,2024-03-07,"נהר הירדן 8, מודיעין-מכבים-רעות",נהר הירדן 8,5683-156-1,דירה בבית קומות,5.0,קרקע וראשונה,128.7,4342000,,,2000.0,,3.0,10422863136,1,5683156,False,,מודיעין-מכבים-רעות,נהר הירדן,,5683-156-1,5683/156,33737.37373737374,31.8951058206,35.011362305,2024
2024-07-03,2024-03-07,"רא""ל חיים בר-לב 30, מודיעין-מכבים-רעות","רא""ל חיים בר-לב 30",5696-13-8,דירה בבית קומות,4.0,ראשונה,106.7,2995000,,,1999.0,,1.0,10422969900,1,569613,False,160% ב 15.7 שנים,מודיעין-מכבים-רעות,"רא""ל חיים ברלב",10.19,5696-13-8,5696/13,28069.35332708529,31.9082465815,35.0004795462,2024
2024-07-03,2024-03-07,"עמק האלה 46, מודיעין-מכבים-רעות",עמק האלה 46,5734-61-10,דירה בבית קומות,5.0,ראשונה,96.7,3115000,,,2002.0,,2.0,10422497820,1,573461,False,35% ב 2.5 שנים,מודיעין-מכבים-רעות,עמק האלה,14.0,5734-61-10,5734/61,32213.02998965874,31.9135187145,35.0092730715,2024
2024-07-02,2024-02-07,"לוי 15, מודיעין-מכבים-רעות",לוי 15,5813-8-1,דירה בבית קומות,5.0,קרקע וראשונה,123.2,3900000,,,2002.0,,1.0,10420328772,1,58138,False,,מודיעין-מכבים-רעות,לוי,,5813-8-1,5813/8,31655.844155844155,31.887524049,35.009501389,2024
2024-07-02,2024-02-07,"חרצית 32, מודיעין-מכבים-רעות",חרצית 32,5653-6-41,דירה בבית קומות,4.0,ארבע עשרה,99.4,2980000,,,2002.0,,21.0,10420488120,1,56536,False,,מודיעין-מכבים-רעות,חרצית,,5653-6-41,5653/6,29979.87927565392,31.9067455537,35.0114550657,2024
2024-07-02,2024-02-07,"שני 22, מודיעין-מכבים-רעות",שני 22,5874-29-1,דירה בבית קומות,5.0,קרקע,95.0,4830000,,,2005.0,,,10420525668,1,587429,False,185% ב 9 שנים,מודיעין-מכבים-רעות,שני,20.56,5874-29-1,5874/29,50842.10526315789,31.8999733711,34.9979224827,2024
2024-07-01,2024-01-07,"סתוונית 3, מודיעין-מכבים-רעות",סתוונית 3,5656-48-2,דירה בבית קומות,5.0,קרקע,125.3,3495000,,,1998.0,,3.0,10416636384,1,565648,False,,מודיעין-מכבים-רעות,סתוונית,,5656-48-2,5656/48,27893.056664006384,31.9049919224,35.0138886226,2024
2024-07-01,2024-01-07,"ציפורנית 10, מודיעין-מכבים-רעות",ציפורנית 10,5653-33-79,דירה בבית קומות,4.0,ראשונה,99.81,3120000,,,1997.0,,4.0,10416571200,1,565333,False,46% ב 6 שנים,מודיעין-מכבים-רעות,ציפורנית,7.67,5653-33-79,5653/33,31259.392846408176,31.9062735535,35.0144732955,2024
2024-07-01,2024-01-07,"דוכיפת 49, מודיעין-מכבים-רעות",דוכיפת 49,5876-21-7,דירה בבית קומות,3.0,קומה ‎2‏,78.7,2450000,,,2018.0,,5.0,10417081332,1,587621,False,,מודיעין-מכבים-רעות,דוכיפת,,5876-21-7,5876/21,31130.87674714104,31.8959713214,34.9926104088,2024
2024-07-01,2024-01-07,"עמק בית שאן 21, מודיעין-מכבים-רעות",עמק בית שאן 21,5569-27-9,דירה בבית קומות,4.0,ראשונה,100.8,2710000,,,2000.0,,2.0,10416394632,1,556927,False,40% ב 3.5 שנים,מודיעין-מכבים-רעות,עמק בית שאן,11.43,5569-27-9,5569/27,26884.92063492064,31.9108931844,35.0020733173,2024
2024-06-28,2024-06-28,"נהר הירדן 10, מודיעין-מכבים-רעות",נהר הירדן 10,5683-89-7,דירה בבית קומות,3.0,רביעית,65.6,2040000,,,2000.0,,3.0,10433368176,1,568389,False,31% ב 5.2 שנים,מודיעין-מכבים-רעות,נהר הירדן,5.96,5683-89-7,5683/89,31097.56097560976,31.8953082744,35.0111541879,2024
2024-06-28,2024-06-28,"ענבר 8, מודיעין-מכבים-רעות",ענבר 8,5869-45-19,דירה בבית קומות,4.0,שניה,90.0,2950000,,,2006.0,,2.0,10433034276,1,586945,False,50% ב 7.9 שנים,מודיעין-מכבים-רעות,ענבר,6.33,5869-45-19,5869/45,32777.77777777778,31.9053226456,34.9975064118,2024
2024-06-26,2024-06-26,"רא""ל יגאל ידין 39, מודיעין-מכבים-רעות","רא""ל יגאל ידין 39",5571-32-42,דירה בבית קומות,5.0,עשירית,155.3,3850000,,,2007.0,,17.0,10432799412,1,557132,False,291% ב 17 שנים,מודיעין-מכבים-רעות,"רא""ל יגאל ידין",17.12,5571-32-42,5571/32,24790.72762395364,31.9044538939,35.0042638394,2024
2024-06-26,2024-06-26,"הלוח העברי 31, מודיעין-מכבים-רעות",הלוח העברי 31,5732-58-14,דירה בבית קומות,4.0,רביעית,119.0,3530000,,,2017.0,,4.0,10432814364,1,573258,False,,מודיעין-מכבים-רעות,הלוח העברי,,5732-58-14,5732/58,29663.865546218487,31.9187170358,35.0081662122,2024
2024-06-26,2024-06-26,"ערוגות הבושם 4, מודיעין-מכבים-רעות",ערוגות הבושם 4,5654-32-5,דירה בבית קומות,6.0,קרקע וראשונה,140.46,4500000,,,1996.0,,,10432766148,1,565432,False,,מודיעין-מכבים-רעות,ערוגות הבושם,,5654-32-5,5654/32,32037.59077317385,31.9089426479,35.0167765798,2024
2024-06-26,2024-06-26,"טבת 14, מודיעין-מכבים-רעות",טבת 14,5734-29-18,דירה בבית קומות,4.0,שניה,98.3,2965000,,,2010.0,,5.0,10432621248,1,573429,False,172% ב 13.9 שנים,מודיעין-מכבים-רעות,טבת,12.37,5734-29-18,5734/29,30162.767039674465,31.9151676546,35.0083005751,2024
2024-06-26,2024-06-26,"ישעיהו הנביא 6, מודיעין-מכבים-רעות",ישעיהו הנביא 6,5567-74-31,דירה בבית קומות,4.0,ראשונה,97.15,2850000,,,1999.0,,3.0,10432763964,1,556774,False,39% ב 4 שנים,מודיעין-מכבים-רעות,ישעיהו הנביא,9.75,5567-74-31,5567/74,29336.078229541945,31.91344459,35.0026399014,2024
2024-06-25,2024-06-25,"ניסן 67, מודיעין-מכבים-רעות",ניסן 67,5733-63-10,דירה בבית קומות,3.0,שניה,86.31,2530000,,,2013.0,,4.0,10432352364,1,573363,False,99% ב 10.2 שנים,מודיעין-מכבים-רעות,ניסן,9.71,5733-63-10,5733/63,29312.941721700845,31.9166543461,35.0119682685,2024
2024-06-24,2024-06-24,"כרכום 15, מודיעין-מכבים-רעות",כרכום 15,5653-23-24,דירה בבית קומות,3.0,שניה,76.3,2140000,,,1997.0,,4.0,10432869972,1,565323,False,41% ב 7.5 שנים,מודיעין-מכבים-רעות,כרכום,5.47,5653-23-24,5653/23,28047.182175622544,31.9055860919,35.0129283245,2024
2024-06-23,2024-06-23,"ירמיהו הנביא 18, מודיעין-מכבים-רעות",ירמיהו הנביא 18,5569-12-43,דירה בבית קומות,5.0,קרקע ראשונה,106.6,3460000,,,1998.0,,1.0,10432152108,1,556912,False,,מודיעין-מכבים-רעות,ירמיהו הנביא,,5569-12-43,5569/12,32457.786116322703,31.9124569095,35.0038466204,2024
2024-06-21,2024-06-21,"ירח-אב 13, מודיעין-מכבים-רעות",ירח-אב 13,5735-10-69,דירה בבית קומות,4.0,שמונה עשרה,87.64,2900000,,,2010.0,,21.0,10433913588,1,573510,False,148% ב 15 שנים,מודיעין-מכבים-רעות,ירח-אב,9.87,5735-10-69,5735/10,33089.91328160657,31.9136512293,35.0120722111,2024
2024-06-20,2024-06-20,"דם המכבים 51, מודיעין-מכבים-רעות",דם המכבים 51,5640-87-9,דירה בבית קומות,3.0,שלישית,72.0,3000000,,,2018.0,,4.0,10431765372,1,564087,False,,מודיעין-מכבים-רעות,דם המכבים,,5640-87-9,5640/87,41666.66666666666,31.9041811544,35.0072392615,2024
2024-06-20,2024-06-20,"לבונה 3, מודיעין-מכבים-רעות",לבונה 3,5685-27-3,דירה בבית קומות,5.0,שניה + שלישית,131.9,3470000,,,1996.0,,2.0,10432232496,1,568527,False,70% ב 8.5 שנים,מודיעין-מכבים-רעות,לבונה,8.24,5685-27-3,5685/27,26307.808946171343,31.9000260262,35.0117762232,2024
2024-06-20,2024-06-20,"יונה הנביא 13, מודיעין-מכבים-רעות",יונה הנביא 13,5570-58-67,דירה בבית קומות,5.0,קומה ‎6‏,120.0,3426000,,,2018.0,,8.0,10433168676,1,557058,False,118% ב 5.7 שנים,מודיעין-מכבים-רעות,יונה הנביא,20.7,5570-58-67,5570/58,28550.0,31.9101843766,35.0104988824,2024
2024-06-20,2024-06-20,"תפוח 9, מודיעין-מכבים-רעות",תפוח 9,5687-21-10,דירה בבית קומות,5.0,קרקע ראשונה ושניה,155.5,4500000,,,1997.0,,,10432240140,1,568721,False,54% ב 9.9 שנים,מודיעין-מכבים-רעות,תפוח,5.45,5687-21-10,5687/21,28938.90675241157,31.9010604353,35.0145911186,2024
2024-06-20,2024-06-20,"רבקה אימנו 18, מודיעין-מכבים-רעות",רבקה אימנו 18,5817-49-5,קוטג' דו משפחתי,6.0,מרתף קרקע וראשונה,154.82,4900000,,,2008.0,,,10432774464,1,581749,False,,מודיעין-מכבים-רעות,רבקה אמנו,,5817-49-5,5817/49,31649.65766696809,31.8815052309,35.0037006283,2024
2024-06-18,2024-06-18,"בדולח 8, מודיעין-מכבים-רעות",בדולח 8,5871-28-28,דירה בבית קומות,3.0,שלישית,102.0,3130000,,,2003.0,,4.0,10431873480,1,587128,False,,מודיעין-מכבים-רעות,בדולח,,5871-28-28,5871/28,30686.274509803923,31.9026613754,34.9947157419,2024
2024-06-18,2024-06-18,"עמק חרוד 28, מודיעין-מכבים-רעות",עמק חרוד 28,5732-42-14,דירה בבית קומות,4.0,שניה,102.25,3170000,,,2010.0,,2.0,10431558816,1,573242,False,46% ב 3.4 שנים,מודיעין-מכבים-רעות,סיון,13.53,5732-42-14,5732/42,31002.44498777506,31.9188150661,35.0051608372,2024
2024-06-18,2024-06-18,,,5569-63-4,דירה בבית קומות,3.0,קומה ‎0‏,82.98,2585000,,,2020.0,,,10431524964,2,556963,False,,מודיעין-מכבים-רעות,"רא""ל יגאל ידין",,5569-63-4,5569/63,31152.084839720414,31.9083866272,35.0048272527,2024
2024-06-17,2024-06-17,"דפנה 18, מודיעין-מכבים-רעות",דפנה 18,5652-31-6,דירה בבית קומות,4.0,ראשונה,83.62,2580000,,,1996.0,,2.0,10431720348,1,565231,False,,מודיעין-מכבים-רעות,דפנה,,5652-31-6,5652/31,30853.86271226979,31.906777318,35.0082575884,2024
2024-06-17,2024-06-17,,,5569-63-11,דירה בבית קומות,3.0,קומה ‎1‏,100.02,2730000,,,2021.0,,,10431538908,2,556963,False,,מודיעין-מכבים-רעות,"רא""ל יגאל ידין",,5569-63-11,5569/63,27294.541091781644,31.9083866272,35.0048272527,2024
2024-06-17,2024-06-17,"נחליאלי 25, מודיעין-מכבים-רעות",נחליאלי 25,5876-45-57,דירת גן,5.0,"מרתף ‎-1‏, קומה ‎0‏, קומה ‎1‏",145.5,3795000,,,2018.0,,1.0,10433220504,1,587645,False,48% ב 3.4 שנים,מודיעין-מכבים-רעות,נחליאלי,14.12,5876-45-57,5876/45,26082.474226804123,31.8950625691,34.9919906119,2024
2024-06-16,2024-06-16,"שבטי ישראל 32, מודיעין-מכבים-רעות",שבטי ישראל 32,5814-4-17,דירת גן,5.0,חמישית,156.15,4831000,,,2004.0,,12.0,10432688448,1,58144,False,82% ב 9.4 שנים,מודיעין-מכבים-רעות,שבטי ישראל,8.72,5814-4-17,5814/4,30938.2004482869,31.8850947672,35.0030506823,2024
2024-06-16,2024-06-16,"דם המכבים 17, מודיעין-מכבים-רעות",דם המכבים 17,5652-54-19,דירה בבית קומות,4.0,רביעית,119.3,2900000,,,1998.0,,5.0,10431479856,1,565254,False,,מודיעין-מכבים-רעות,דם המכבים,,5652-54-19,5652/54,24308.466051969823,31.9082371788,35.0101689405,2024
2024-06-16,2024-06-16,"כרכום 9, מודיעין-מכבים-רעות",כרכום 9,5653-26-11,קוטג' דו משפחתי,5.5,קרקע + ראשונה,154.04,4180000,,,1996.0,,1.0,10431912288,1,565326,False,,מודיעין-מכבים-רעות,כרכום,,5653-26-11,5653/26,27135.808880810186,31.9068751292,35.0137937073,2024
2024-06-16,2024-06-16,,,5642-71-13,דירה בבית קומות,5.0,רביעית,151.0,4496000,,,2025.0,,,10432420992,2,564271,False,,מודיעין-מכבים-רעות,תלתן,,5642-71-13,5642/71,29774.83443708609,,,2024
2024-06-13,2024-06-13,"עמק האלה 7, מודיעין-מכבים-רעות",עמק האלה 7,5570-10-56,דירה בבית קומות,4.0,רביעית,82.85,2700000,,,1998.0,,6.0,10432536744,1,557010,False,57% ב 4.1 שנים,מודיעין-מכבים-רעות,עמק האלה,13.9,5570-10-56,5570/10,32589.01629450815,31.9106684461,35.012355268,2024
2024-06-13,2024-06-13,"עמק איילון 12, מודיעין-מכבים-רעות",עמק איילון 12,5653-41-12,דירה בבית קומות,3.0,שלישית,70.4,2530000,,,1996.0,,5.0,10431104292,1,565341,False,58% ב 5 שנים,מודיעין-מכבים-רעות,עמק איילון,11.6,5653-41-12,5653/41,35937.5,31.9061018624,35.0153596141,2024
2024-06-08,2024-08-06,"שבטי ישראל 33, מודיעין-מכבים-רעות",שבטי ישראל 33,5815-138-3,דירת גן,5.0,ראשונה,124.85,4460000,,,2014.0,,6.0,10436626704,1,5815138,False,,מודיעין-מכבים-רעות,שבטי ישראל,,5815-138-3,5815/138,35722.86744092912,31.8831706216,35.0006507142,2024
2024-06-06,2024-06-06,"פיקוס 7, מודיעין-מכבים-רעות",פיקוס 7,5685-54-10,דירה בבית קומות,3.0,קרקע,69.8,2900000,,,1996.0,,3.0,10430589372,1,568554,False,62% ב 5.9 שנים,מודיעין-מכבים-רעות,פיקוס,10.51,5685-54-10,5685/54,41547.27793696275,31.9012550268,35.009289654,2024
2024-06-03,2024-03-06,"חסידה 18, מודיעין-מכבים-רעות",חסידה 18,5877-60-4,דירה בבית קומות,4.0,ראשונה,92.0,3200000,,,2016.0,,2.0,10425886632,1,587760,False,69% ב 7.6 שנים,מודיעין-מכבים-רעות,חסידה,9.08,5877-60-4,5877/60,34782.608695652176,31.8956601175,34.9996682871,2024
2024-06-02,2024-02-06,"עמק האלה 89, מודיעין-מכבים-רעות",עמק האלה 89,5567-8-78,דירה בבית קומות,3.0,שניה,85.7,2500000,,,2000.0,,2.0,10419366720,1,55678,False,58% ב 4.4 שנים,מודיעין-מכבים-רעות,עמק האלה,13.18,5567-8-78,5567/8,29171.528588098012,31.9161231047,35.0032048946,2024
2024-06-02,2024-02-06,"שני 15, מודיעין-מכבים-רעות",שני 15,5874-24-7,דירה בבית קומות,5.0,שניה + שלישית,125.7,4650000,,,2005.0,,4.0,10420481904,1,587424,False,123% ב 13.3 שנים,מודיעין-מכבים-רעות,שני,9.25,5874-24-7,5874/24,36992.84009546539,31.8995031637,34.9988740421,2024
2024-06-02,2024-02-06,,,5642-71-27,דירה בבית קומות,3.0,שלישית,105.0,3006000,,,2025.0,,,10421575416,2,564271,False,,מודיעין-מכבים-רעות,תלתן,,5642-71-27,5642/71,28628.571428571428,,,2024
2024-06-02,2024-02-06,"שושן צחור 12, מודיעין-מכבים-רעות",שושן צחור 12,5655-10-3,דירה בבית קומות,4.0,ראשונה,107.97,3900000,,,1997.0,,3.0,10420124988,1,565510,False,,מודיעין-מכבים-רעות,שושן צחור,,5655-10-3,5655/10,36121.14476243401,31.9055423744,35.0092929151,2024
2024-05-30,2024-05-30,"אליהו הנביא 19, מודיעין-מכבים-רעות",אליהו הנביא 19,5570-4-136,דירה בבית קומות,6.0,שלישית,108.8,4890000,,,1999.0,,4.0,10429785408,1,55704,False,,מודיעין-מכבים-רעות,אליהו הנביא,,5570-4-136,5570/4,44944.85294117647,31.9126718667,35.007027808,2024
2024-05-30,2024-05-30,"רא""ל יגאל ידין 37, מודיעין-מכבים-רעות","רא""ל יגאל ידין 37",5571-31-85,דירה בבית קומות,5.0,תשיעית,133.5,3450000,,,2007.0,,17.0,10429915020,1,557131,False,146% ב 14 שנים,מודיעין-מכבים-רעות,"רא""ל יגאל ידין",10.43,5571-31-85,5571/31,25842.69662921348,31.9053519575,35.0041445904,2024
2024-05-30,2024-05-30,"עמק דותן 113, מודיעין-מכבים-רעות",עמק דותן 113,5682-189-2,דירה בבית קומות,4.5,ראשונה,105.1,3500000,,,2014.0,,5.0,10429876800,1,5682189,False,80% ב 8.7 שנים,מודיעין-מכבים-רעות,עמק דותן,9.2,5682-189-2,5682/189,33301.61750713606,31.897339053,35.0074558516,2024
2024-05-30,2024-05-30,"מגדל המנורה 43, מודיעין-מכבים-רעות",מגדל המנורה 43,5871-58-26,דירה בבית קומות,5.0,שניה,98.4,3050000,,,2004.0,,3.0,10432047360,1,587158,False,,מודיעין-מכבים-רעות,מגדל המנורה,,5871-58-26,5871/58,30995.93495934959,31.9021585434,34.9966191194,2024
2024-05-30,2024-05-30,"ישעיהו הנביא 43, מודיעין-מכבים-רעות",ישעיהו הנביא 43,5567-10-83,דירה בבית קומות,5.0,קרקע וראשונה,115.2,4000000,,,1998.0,,3.0,10430583912,1,556710,False,,מודיעין-מכבים-רעות,ישעיהו הנביא,,5567-10-83,5567/10,34722.22222222222,31.9146111495,35.0041034967,2024
2024-05-30,2024-05-30,"נחליאלי 8, מודיעין-מכבים-רעות",נחליאלי 8,5876-26-18,דירה בבית קומות,3.0,קומה ‎4‏,88.7,2700000,,,2018.0,,6.0,10432074408,1,587626,False,,מודיעין-מכבים-רעות,חסידה,,5876-26-18,5876/26,30439.684329199543,31.8960836634,34.9939296029,2024
2024-05-29,2024-05-29,"עמק איילון 46, מודיעין-מכבים-רעות",עמק איילון 46,5656-23-30,דירה בבית קומות,3.0,שניה,72.5,2300000,,,1996.0,,4.0,10430377944,1,565623,False,10% ב 2.3 שנים,מודיעין-מכבים-רעות,עמק איילון,4.35,5656-23-30,5656/23,31724.13793103448,31.9032746569,35.0125054784,2024
2024-05-29,2024-05-29,"הלוח העברי 39, מודיעין-מכבים-רעות",הלוח העברי 39,5732-69-27,דירה בבית קומות,4.0,שניה,77.0,2760000,,,2011.0,,3.0,10430312088,1,573269,False,49% ב 5.4 שנים,מודיעין-מכבים-רעות,הלוח העברי,9.07,5732-69-27,5732/69,35844.155844155845,31.9182725419,35.0086868259,2024
2024-05-28,2024-05-28,"שמואל הנביא 5, מודיעין-מכבים-רעות",שמואל הנביא 5,5569-13-17,דירה בבית קומות,4.0,קרקע,94.5,3050000,,,1998.0,,2.0,10429800024,1,556913,False,60% ב 4.8 שנים,מודיעין-מכבים-רעות,שמואל הנביא,12.5,5569-13-17,5569/13,32275.13227513228,31.9115277263,35.0050659673,2024
2024-05-28,2024-05-28,"ירמיהו הנביא 17, מודיעין-מכבים-רעות",ירמיהו הנביא 17,5569-49-11,דירה בבית קומות,3.0,שניה,79.3,2450000,,,1998.0,,2.0,10429848576,1,556949,False,13% ב 2 שנים,מודיעין-מכבים-רעות,ירמיהו הנביא,6.5,5569-49-11,5569/49,30895.3341740227,31.9118525204,35.0032334491,2024
2024-05-27,2024-05-27,"רא""ל יגאל ידין 49, מודיעין-מכבים-רעות","רא""ל יגאל ידין 49",5571-33-1,דירה בבית קומות,5.0,שמינית,157.0,3710000,,,2007.0,,16.0,10431064728,1,557133,False,,מודיעין-מכבים-רעות,"רא""ל יגאל ידין",,5571-33-1,5571/33,23630.573248407643,31.9035037386,35.0043450634,2024
2024-05-27,2024-05-27,"כסלו 65, מודיעין-מכבים-רעות",כסלו 65,5733-29-45,דירה בבית קומות,4.0,שלישית,87.8,3150000,,,2010.0,,4.0,10431892800,1,573329,False,173% ב 14.2 שנים,מודיעין-מכבים-רעות,כסלו,12.18,5733-29-45,5733/29,35876.993166287015,31.915940511,35.0089713692,2024
2024-05-26,2024-05-26,"עמק האלה 2, מודיעין-מכבים-רעות",עמק האלה 2,5736-39-40,דירה בבית קומות,4.0,ראשונה,88.45,2890000,,,2007.0,,7.0,10429399512,1,573639,False,,מודיעין-מכבים-רעות,שבט,,5736-39-40,5736/39,32673.82702091577,31.912036065,35.0133046456,2024
2024-05-24,2024-05-24,"עפרוני 29, מודיעין-מכבים-רעות",עפרוני 29,5877-54-3,דירה בבית קומות,4.0,קומה ‎1‏,98.75,3140000,,,2017.0,,3.0,10429273260,1,587754,False,,מודיעין-מכבים-רעות,עפרוני,,5877-54-3,5877/54,31797.46835443038,31.8960652418,35.0017036326,2024
2024-05-24,2024-05-24,"תשרי 46, מודיעין-מכבים-רעות",תשרי 46,5733-54-15,דירה בבית קומות,3.0,קומה ‎2‏,65.25,2200000,,,2013.0,,3.0,10429649664,1,573354,False,37% ב 3 שנים,מודיעין-מכבים-רעות,תשרי,12.33,5733-54-15,5733/54,33716.47509578544,31.917556934,35.0081845514,2024
2024-05-24,2024-05-24,"דוכיפת 49, מודיעין-מכבים-רעות",דוכיפת 49,5876-21-6,דירה בבית קומות,5.0,קומה ‎1‏,145.0,4050000,,,2018.0,,5.0,10429368852,1,587621,False,,מודיעין-מכבים-רעות,דוכיפת,,5876-21-6,5876/21,27931.03448275862,31.8959713214,34.9926104088,2024
2024-05-24,2024-05-24,"עובדיה הנביא 1, מודיעין-מכבים-רעות",עובדיה הנביא 1,5569-12-19,דירה בבית קומות,3.0,ראשונה,65.0,2000000,,,1998.0,,3.0,10430905968,1,556912,False,,מודיעין-מכבים-רעות,עובדיה הנביא,,5569-12-19,5569/12,30769.23076923077,31.9124569095,35.0038466204,2024
2024-05-23,2024-05-23,"נפתלי 11, מודיעין-מכבים-רעות",נפתלי 11,5813-15-7,דירה בבית קומות,5.0,ראשונה+שניה,125.0,4900000,,,2004.0,,5.0,10429392540,1,581315,False,,מודיעין-מכבים-רעות,נפתלי,,5813-15-7,5813/15,39200.0,31.8860715339,35.0073801604,2024
2024-05-23,2024-05-23,"נחליאלי 18, מודיעין-מכבים-רעות",נחליאלי 18,5876-23-2,דירת גן,5.0,קומה ‎0‏,116.3,4300000,,,2015.0,,5.0,10429344744,1,587623,False,,מודיעין-מכבים-רעות,נחליאלי,,5876-23-2,5876/23,36973.34479793637,31.8954831755,34.9919752697,2024
2024-05-21,2024-05-21,"עמק החולה 3, מודיעין-מכבים-רעות",עמק החולה 3,5692-126-17,דירה בבית קומות,4.0,שלישית,89.35,2540000,,,2001.0,,3.0,10429010004,1,5692126,False,39% ב 5.3 שנים,מודיעין-מכבים-רעות,עמק החולה,7.36,5692-126-17,5692/126,28427.532176832683,31.8933269089,35.0236590885,2024
2024-05-21,2024-05-21,"סלעית 11, מודיעין-מכבים-רעות",סלעית 11,5877-31-27,דירה בבית קומות,5.0,קומה ‎3‏,126.85,4450000,,,2018.0,,4.0,10428973296,1,587731,False,,מודיעין-מכבים-רעות,חסידה,,5877-31-27,5877/31,35080.80409932992,31.8956884965,34.9979204517,2024
2024-05-21,2024-05-21,"עמק חרוד 14, מודיעין-מכבים-רעות",עמק חרוד 14,5732-10-3,דירה בבית קומות,4.0,ראשונה,88.25,2540000,,,2000.0,,2.0,10429034196,1,573210,False,7% ב 2.3 שנים,מודיעין-מכבים-רעות,עמק חרוד,3.04,5732-10-3,5732/10,28781.869688385268,31.91850235,35.003484221,2024
2024-05-20,2024-05-20,"יונה הנביא 5, מודיעין-מכבים-רעות",יונה הנביא 5,5570-74-38,דירה בבית קומות,3.5,קומה ‎4‏,90.5,2950000,,,2017.0,,7.0,10428908868,1,557074,False,,מודיעין-מכבים-רעות,יונה הנביא,,5570-74-38,5570/74,32596.68508287293,31.9100443567,35.0123869273,2024
2024-05-20,2024-05-20,"שני 7, מודיעין-מכבים-רעות",שני 7,5874-26-4,דירת גן,5.0,חמישית + שישית,128.4,4600000,,,2002.0,,4.0,10429341300,1,587426,False,,מודיעין-מכבים-רעות,שני,,5874-26-4,5874/26,35825.54517133956,31.9002152491,35.0005349267,2024
2024-05-17,2024-05-17,"דפנה 6, מודיעין-מכבים-רעות",דפנה 6,5652-37-8,דירה בבית קומות,5.0,שניה,112.0,2925000,,,1997.0,,2.0,10429217820,1,565237,False,,מודיעין-מכבים-רעות,דפנה,,5652-37-8,5652/37,26116.071428571428,31.9059730414,35.0099955427,2024
2024-05-17,2024-05-17,"תשרי 19, מודיעין-מכבים-רעות",תשרי 19,5733-28-9,דירה בבית קומות,5.0,ראשונה,130.0,3300000,,,2010.0,,3.0,10428767496,1,573328,False,179% ב 14.7 שנים,מודיעין-מכבים-רעות,תשרי,12.18,5733-28-9,5733/28,25384.615384615383,31.915403193,35.0100414545,2024
2024-05-16,2024-05-16,,,5642-71-15,דירה בבית קומות,5.0,ראשונה,144.0,3996000,,,2025.0,,,10431111264,2,564271,False,,מודיעין-מכבים-רעות,תלתן,,5642-71-15,5642/71,27750.0,,,2024
2024-05-16,2024-05-16,"ניסן 85, מודיעין-מכבים-רעות",ניסן 85,5733-40-9,דירה בבית קומות,4.0,קרקע,87.1,2970000,,,2014.0,,3.0,10429062672,1,573340,False,81% ב 9.3 שנים,מודיעין-מכבים-רעות,ניסן,8.71,5733-40-9,5733/40,34098.73708381171,31.9179759651,35.0102457847,2024
2024-05-15,2024-05-15,"תשרי 46, מודיעין-מכבים-רעות",תשרי 46,5733-54-14,דירה בבית קומות,3.0,קומה ‎2‏,65.25,2200000,,,2013.0,,3.0,10428488868,1,573354,False,152% ב 11.2 שנים,מודיעין-מכבים-רעות,תשרי,13.57,5733-54-14,5733/54,33716.47509578544,31.917556934,35.0081845514,2024
2024-05-15,2024-05-15,"פיקוס 2, מודיעין-מכבים-רעות",פיקוס 2,5642-63-8,מחסנים,,,28.0,138000,,,2020.0,,3.0,10431706488,1,564263,False,,מודיעין-מכבים-רעות,פיקוס,,5642-63-8,5642/63,4928.571428571428,31.9015013945,35.0087593128,2024
2024-05-15,2024-05-15,"סיוון 29, מודיעין-מכבים-רעות",סיוון 29,5732-14-30,דירה בבית קומות,3.0,שניה,73.6,2250000,,,2004.0,,2.0,10428385632,1,573214,False,56% ב 8.5 שנים,מודיעין-מכבים-רעות,סיון,6.59,5732-14-30,5732/14,30570.652173913048,31.9183877433,35.0037668141,2024
2024-05-15,2024-05-15,"שומרי החומות 41, מודיעין-מכבים-רעות",שומרי החומות 41,5654-43-26,דירה בבית קומות,3.0,שלישית,66.6,2530000,,,1997.0,,6.0,10429874784,1,565443,False,22% ב 2.2 שנים,מודיעין-מכבים-רעות,שומרי החומות,10.0,5654-43-26,5654/43,37987.98798798799,31.9068572177,35.0181848555,2024
2024-05-06,2024-06-05,"דפנה 14, מודיעין-מכבים-רעות",דפנה 14,5652-32-6,דירה בבית קומות,4.0,ראשונה,83.62,2600000,,,1998.0,,2.0,10430441196,1,565232,False,,מודיעין-מכבים-רעות,דפנה,,5652-32-6,5652/32,31093.039942597465,31.906524393,35.0088593617,2024
2024-05-06,2024-06-05,"לוע הארי 20, מודיעין-מכבים-רעות",לוע הארי 20,5655-17-18,דירה בבית קומות,4.0,רביעית,92.0,2660000,,,1997.0,,6.0,10430367528,1,565517,False,38% ב 6.5 שנים,מודיעין-מכבים-רעות,לוע הארי,5.85,5655-17-18,5655/17,28913.043478260868,31.9055142153,35.0081832145,2024
2024-05-04,2024-04-05,"עמק בית שאן 47, מודיעין-מכבים-רעות",עמק בית שאן 47,5567-71-14,דירה בבית קומות,3.0,שלישית,90.9,2350000,,,1998.0,,3.0,10425259320,1,556771,False,30% ב 2.4 שנים,מודיעין-מכבים-רעות,עמק בית שאן,12.5,5567-71-14,5567/71,25852.58525852585,31.9132146048,35.0004219279,2024
2024-05-03,2024-03-05,"נחל נעמן 26, מודיעין-מכבים-רעות",נחל נעמן 26,5682-103-18,דירה בבית קומות,3.0,קרקע,63.2,2300000,,,1996.0,,2.0,10421873532,1,5682103,False,34% ב 3.7 שנים,מודיעין-מכבים-רעות,נחל נעמן,9.19,5682-103-18,5682/103,36392.40506329114,31.8935062776,35.0035128484,2024
2024-05-03,2024-03-05,"תכלת 37, מודיעין-מכבים-רעות",תכלת 37,5874-30-2,דירה בבית קומות,3.0,קרקע,74.4,2995000,,,2005.0,,3.0,10423639380,1,587430,False,48% ב 3 שנים,מודיעין-מכבים-רעות,תכלת,16.0,5874-30-2,5874/30,40255.37634408602,31.9000619888,34.998567605,2024
2024-05-03,2024-03-05,"עפרוני 43, מודיעין-מכבים-רעות",עפרוני 43,5877-58-5,דירה בבית קומות,5.0,שניה,105.0,3600000,,,2017.0,,2.0,10424656368,1,587758,False,50% ב 6.4 שנים,מודיעין-מכבים-רעות,עפרוני,7.81,5877-58-5,5877/58,34285.71428571428,31.8959846907,34.9993942312,2024
2024-05-03,2024-03-05,"לשם 71, מודיעין-מכבים-רעות",לשם 71,5870-23-39,דירה בבית קומות,5.0,ראשונה,112.3,3600000,,,2004.0,,4.0,10422061944,1,587023,False,59% ב 5 שנים,מודיעין-מכבים-רעות,לשם,11.8,5870-23-39,5870/23,32056.99020480855,31.9035374114,34.9955833082,2024
2024-05-03,2024-03-05,"נחליאלי 3, מודיעין-מכבים-רעות",נחליאלי 3,5876-34-5,דירה בבית קומות,3.0,קומה ‎1‏,76.75,2550000,,,2015.0,,4.0,10424283156,1,587634,False,,מודיעין-מכבים-רעות,נחליאלי,,5876-34-5,5876/34,33224.75570032573,31.8968372231,34.9949580483,2024
2024-05-02,2024-02-05,"נחל ארנון 31, מודיעין-מכבים-רעות",נחל ארנון 31,5682-37-4,דירה בבית קומות,4.0,שניה,98.0,3050000,,,1997.0,,3.0,10419528252,1,568237,False,90% ב 9 שנים,מודיעין-מכבים-רעות,נחל ארנון,10.0,5682-37-4,5682/37,31122.44897959184,31.8946227564,35.0044580078,2024
2024-04-30,2024-04-30,"חסידה 24, מודיעין-מכבים-רעות",חסידה 24,5877-29-3,דירה בבית קומות,4.0,ראשונה,87.0,3360000,,,2016.0,,3.0,10427091696,1,587729,False,139% ב 8.3 שנים,מודיעין-מכבים-רעות,חסידה,16.75,5877-29-3,5877/29,38620.68965517241,31.8961299906,34.9982827266,2024
2024-04-22,2024-04-22,"שבט 13, מודיעין-מכבים-רעות",שבט 13,5736-39-163,דירה בבית קומות,5.0,"קרקע, ראשונה",119.7,4180000,,,2008.0,,2.0,10426952424,1,573639,False,84% ב 8.9 שנים,מודיעין-מכבים-רעות,שבט,9.44,5736-39-163,5736/39,34920.63492063492,31.912036065,35.0133046456,2024
2024-04-21,2024-04-21,"קיפודן 30, מודיעין-מכבים-רעות",קיפודן 30,5655-47-7,דירה בבית קומות,6.0,שניה,123.1,2920000,,,1997.0,,1.0,10426836672,1,565547,False,143% ב 15 שנים,מודיעין-מכבים-רעות,קיפודן,9.53,5655-47-7,5655/47,23720.55239642567,31.9048432615,35.0082419217,2024
2024-04-20,2024-04-20,"דוכיפת 51, מודיעין-מכבים-רעות",דוכיפת 51,5876-20-14,דירה בבית קומות,3.0,קומה ‎0‏,93.4,2700000,,,2016.0,,5.0,10427540004,1,587620,False,,מודיעין-מכבים-רעות,דוכיפת,,5876-20-14,5876/20,28907.92291220557,31.8957705929,34.9919238579,2024
2024-04-17,2024-04-17,,,5642-71-16,דירה בבית קומות,3.0,שניה,90.0,2896000,,,2025.0,,,10428136152,2,564271,False,,מודיעין-מכבים-רעות,תלתן,,5642-71-16,5642/71,32177.777777777777,,,2024
2024-04-17,2024-04-17,"עמק החולה 65, מודיעין-מכבים-רעות",עמק החולה 65,5688-39-5,דירה בבית קומות,4.0,שלישית,85.0,2330000,,,1996.0,,3.0,10426477824,1,568839,False,38% ב 4.1 שנים,מודיעין-מכבים-רעות,עמק החולה,9.27,5688-39-5,5688/39,27411.764705882357,31.8951858059,35.0138966121,2024
2024-04-17,2024-04-17,"חרצית 10, מודיעין-מכבים-רעות",חרצית 10,5656-40-7,דירה בבית קומות,3.0,שניה,65.8,2030000,,,1997.0,,3.0,10426311420,1,565640,False,,מודיעין-מכבים-רעות,חרצית,,5656-40-7,5656/40,30851.06382978724,31.9041786116,35.0118280597,2024
2024-04-16,2024-04-16,"עפרוני 27, מודיעין-מכבים-רעות",עפרוני 27,5877-54-8,דירה בבית קומות,5.0,קומה ‎0‏,118.1,4070000,,,2020.0,,3.0,10427199132,1,587754,False,,מודיעין-מכבים-רעות,עפרוני,,5877-54-8,5877/54,34462.32006773921,31.8960652418,35.0017036326,2024
2024-04-16,2024-04-16,"אליהו הנביא 16, מודיעין-מכבים-רעות",אליהו הנביא 16,5570-24-41,דירת גן,4.0,קרקע,96.4,3375000,,,1998.0,,2.0,10426181724,1,557024,False,100% ב 10.2 שנים,מודיעין-מכבים-רעות,אליהו הנביא,9.8,5570-24-41,5570/24,35010.3734439834,31.9115569975,35.0085326657,2024
2024-04-15,2024-04-15,"כסלו 30, מודיעין-מכבים-רעות",כסלו 30,5734-65-14,דירה בבית קומות,4.0,ראשונה,92.2,3125000,,,2010.0,,3.0,10426969056,1,573465,False,105% ב 10.6 שנים,מודיעין-מכבים-רעות,כסלו,9.91,5734-65-14,5734/65,33893.70932754881,31.9148452683,35.0069123336,2024
2024-04-15,2024-04-15,"עמק בית שאן 22, מודיעין-מכבים-רעות",עמק בית שאן 22,5569-49-50,דירה בבית קומות,4.0,קרקע,114.0,3430000,,,1998.0,,2.0,10427202576,1,556949,False,27% ב 2.3 שנים,מודיעין-מכבים-רעות,עמק בית שאן,11.74,5569-49-50,5569/49,30087.71929824561,31.9118525204,35.0032334491,2024
2024-04-15,2024-04-15,"תכלת 50, מודיעין-מכבים-רעות",תכלת 50,5871-24-21,דירה בבית קומות,4.0,שישית,94.0,3120000,,,2008.0,,,10426232460,1,587124,False,112% ב 13.5 שנים,מודיעין-מכבים-רעות,תכלת,8.3,5871-24-21,5871/24,33191.48936170213,31.9027909656,34.9937141944,2024
2024-04-08,2024-08-04,"חגי הנביא 8, מודיעין-מכבים-רעות",חגי הנביא 8,5570-44-8,דירה בבית קומות,5.0,קרקע וראשונה,126.3,3800000,,,1998.0,,2.0,10436511708,1,557044,False,,מודיעין-מכבים-רעות,חגי הנביא,,5570-44-8,5570/44,30087.09422011085,31.9112429547,35.0098257923,2024
2024-04-07,2024-07-04,"אלישע הנביא 17, מודיעין-מכבים-רעות",אלישע הנביא 17,5570-49-5,דירה בבית קומות,4.0,שניה,97.0,2980000,,,2000.0,,2.0,10433253768,1,557049,False,81% ב 9.7 שנים,מודיעין-מכבים-רעות,אלישע הנביא,8.35,5570-49-5,5570/49,30721.649484536083,31.9108148249,35.0080957266,2024
2024-04-07,2024-07-04,"תמוז 7, מודיעין-מכבים-רעות",תמוז 7,5733-60-18,דירה בבית קומות,4.5,"שלישית, רביעית",103.0,3455000,,,2013.0,,4.0,10433452680,1,573360,False,102% ב 10 שנים,מודיעין-מכבים-רעות,תמוז,10.2,5733-60-18,5733/60,33543.68932038835,31.917189812,35.0100419089,2024
2024-04-07,2024-07-04,"חטיבת גבעתי 30, מודיעין-מכבים-רעות",חטיבת גבעתי 30,5568-16-12,דירה בבית קומות,4.0,שניה,94.55,2780000,,,1999.0,,2.0,10433483172,1,556816,False,57% ב 3.5 שנים,מודיעין-מכבים-רעות,חטיבת גבעתי,16.29,5568-16-12,5568/16,29402.432575356957,31.9118323087,35.0010069952,2024
2024-04-07,2024-07-04,"יונה הנביא 13, מודיעין-מכבים-רעות",יונה הנביא 13,5570-58-54,דירה בבית קומות,5.0,קומה ‎2‏,120.0,3580000,,,2018.0,,8.0,10434698148,1,557058,False,128% ב 5.8 שנים,מודיעין-מכבים-רעות,יונה הנביא,22.07,5570-58-54,5570/58,29833.33333333333,31.9101843766,35.0104988824,2024
2024-04-06,2024-06-04,"עפרוני 9, מודיעין-מכבים-רעות",עפרוני 9,5877-47-11,דירה בבית קומות,3.0,חמישית,77.0,2580000,,,2015.0,,6.0,10430473620,1,587747,False,128% ב 8.5 שנים,מודיעין-מכבים-רעות,עפרוני,15.06,5877-47-11,5877/47,33506.493506493505,31.8970717325,34.9989713874,2024
2024-04-03,2024-03-04,,,5642-71-22,דירה בבית קומות,5.0,שישית,251.0,5856000,,,2025.0,,,10424687028,2,564271,False,,מודיעין-מכבים-רעות,תלתן,,5642-71-22,5642/71,23330.67729083665,,,2024
2024-04-02,2024-02-04,"קיפודן 6, מודיעין-מכבים-רעות",קיפודן 6,5656-8-6,דירה בבית קומות,3.0,ראשונה,71.85,2150000,,,1995.0,,2.0,10419183264,1,56568,False,39% ב 4.1 שנים,מודיעין-מכבים-רעות,קיפודן,9.51,5656-8-6,5656/8,29923.45163535143,31.9036429344,35.0116798722,2024
2024-04-02,2024-02-04,"ענבר 8, מודיעין-מכבים-רעות",ענבר 8,5869-45-15,דירה בבית קומות,4.0,קרקע,101.0,2800000,,,2006.0,,2.0,10419043236,1,586945,False,,מודיעין-מכבים-רעות,ענבר,,5869-45-15,5869/45,27722.772277227723,31.9053226456,34.9975064118,2024
2024-04-02,2024-02-04,"מגדל עוז 11, מודיעין-מכבים-רעות",מגדל עוז 11,5683-133-165,דירה בבית קומות,3.0,רביעית,75.84,2510000,,,2000.0,,9.0,10421388432,1,5683133,False,82% ב 10.3 שנים,מודיעין-מכבים-רעות,מגדל עוז,7.96,5683-133-165,5683/133,33095.99156118144,31.8978991604,35.0129493367,2024
2024-04-01,2024-01-04,"עמק האלה 14, מודיעין-מכבים-רעות",עמק האלה 14,5736-36-39,דירה בבית קומות,3.0,ראשונה,83.65,2470000,,,2006.0,,7.0,10417497804,1,573636,False,,מודיעין-מכבים-רעות,שבט,,5736-36-39,5736/36,29527.794381350865,31.9124409591,35.0129253709,2024
2024-04-01,2024-01-04,"הר רביד 612, מודיעין-מכבים-רעות",הר רביד 612,5325-89-2,קוטג' חד משפחתי,5.0,ראשונה,189.0,6700000,,,1991.0,,1.0,10416633612,1,532589,False,,מודיעין-מכבים-רעות,הר רביד,,5325-89-2,5325/89,35449.735449735446,31.8879987285,35.0342087431,2024
2024-03-31,2024-03-31,"כסלו 8, מודיעין-מכבים-רעות",כסלו 8,5734-76-25,דירה בבית קומות,4.0,קומה ‎1‏,78.0,2400000,,,2010.0,,5.0,10424682156,1,573476,False,,מודיעין-מכבים-רעות,טבת,,5734-76-25,5734/76,30769.23076923077,31.9146168327,35.0088369572,2024
2024-03-31,2024-03-31,"שמואל הנביא 18, מודיעין-מכבים-רעות",שמואל הנביא 18,5569-9-74,דירה בבית קומות,4.0,שניה,101.4,2930000,,,2000.0,,4.0,10424572536,1,55699,False,,מודיעין-מכבים-רעות,שמואל הנביא,,5569-9-74,5569/9,28895.463510848123,31.9128560793,35.0045716731,2024
2024-03-29,2024-03-29,"נחל הירקון 26, מודיעין-מכבים-רעות",נחל הירקון 26,5688-29-23,דירה בבית קומות,3.0,שלישית,84.9,2650000,,,1997.0,,3.0,10424561616,1,568829,False,52% ב 3.6 שנים,מודיעין-מכבים-רעות,נחל הירקון,14.44,5688-29-23,5688/29,31213.191990577143,31.8973655796,35.0190534474,2024
2024-03-28,2024-03-28,"מגדל דוד 23, מודיעין-מכבים-רעות",מגדל דוד 23,5685-17-61,דירה בבית קומות,4.0,חמישית,110.0,2710000,,,1999.0,,16.0,10425305856,1,568517,False,100% ב 12.5 שנים,מודיעין-מכבים-רעות,מגדל דוד,8.0,5685-17-61,5685/17,24636.36363636364,31.9006951502,35.011482743,2024
2024-03-28,2024-03-28,"אסתר המלכה 96, מודיעין-מכבים-רעות",אסתר המלכה 96,5818-77-11,קוטג' דו משפחתי,5.0,"ראשונה, שניה",131.15,3850000,,,2013.0,,1.0,10425023112,1,581877,False,,מודיעין-מכבים-רעות,מנחם בגין,,5818-77-11,5818/77,29355.699580632863,31.8820446696,35.0134464801,2024
2024-03-28,2024-03-28,"הנביאים 26, מודיעין-מכבים-רעות",הנביאים 26,5570-4-49,דירה בבית קומות,4.0,קרקע,105.8,3350000,,,1999.0,,4.0,10424782620,1,55704,False,,מודיעין-מכבים-רעות,הנביאים,,5570-4-49,5570/4,31663.51606805293,31.9126718667,35.007027808,2024
2024-03-28,2024-03-28,"נחל עיון 10, מודיעין-מכבים-רעות",נחל עיון 10,5683-18-1,דירה בבית קומות,5.0,קרקע וראשונה,135.81,4750000,,,1995.0,,1.0,10424801436,1,568318,False,59% ב 4.1 שנים,מודיעין-מכבים-רעות,נחל עיון,14.39,5683-18-1,5683/18,34975.33318606877,31.898998414,35.0120099447,2024
2024-03-28,2024-03-28,,,5642-71-17,דירה בבית קומות,6.0,רביעית,278.0,6056000,,,2025.0,,,10426791564,2,564271,False,,מודיעין-מכבים-רעות,תלתן,,5642-71-17,5642/71,21784.172661870503,,,2024
2024-03-27,2024-03-27,"נחליאלי 25, מודיעין-מכבים-רעות",נחליאלי 25,5876-45-52,דירת גן,5.0,"מרתף ‎-1‏, קומה ‎0‏, קומה ‎1‏",148.6,3600000,,,2018.0,,1.0,10425928044,1,587645,False,125% ב 10.5 שנים,מודיעין-מכבים-רעות,נחליאלי,11.9,5876-45-52,5876/45,24226.110363391657,31.8950625691,34.9919906119,2024
2024-03-26,2024-03-26,"מגדל הלבנון 18, מודיעין-מכבים-רעות",מגדל הלבנון 18,5683-119-5,דירה בבית קומות,4.0,שלישית,83.4,2545000,,,1998.0,,3.0,10425889320,1,5683119,False,105% ב 12 שנים,מודיעין-מכבים-רעות,מגדל הלבנון,8.75,5683-119-5,5683/119,30515.587529976016,31.895734917,35.0087553295,2024
2024-03-26,2024-03-26,"סביון 4, מודיעין-מכבים-רעות",סביון 4,5653-27-32,דירה בבית קומות,6.0,ראשונה + שניה,148.58,3850000,,,1996.0,,1.0,10425910236,1,565327,False,,מודיעין-מכבים-רעות,סביון,,5653-27-32,5653/27,25911.966617310536,31.9068015335,35.0140702292,2024
2024-03-25,2024-03-25,"יונה הנביא 5, מודיעין-מכבים-רעות",יונה הנביא 5,5570-74-33,דירה בבית קומות,5.0,קומה ‎2‏,123.9,3300000,,,2017.0,,7.0,10424631588,1,557074,False,,מודיעין-מכבים-רעות,יונה הנביא,,5570-74-33,5570/74,26634.382566585955,31.9100443567,35.0123869273,2024
2024-03-25,2024-03-25,"סלעית 7, מודיעין-מכבים-רעות",סלעית 7,5877-38-10,דירה בבית קומות,5.0,קומה ‎1‏,116.0,3720000,,,2012.0,,4.0,10423980084,1,587738,False,,מודיעין-מכבים-רעות,סלעית,,5877-38-10,5877/38,32068.96551724138,31.8950054161,34.9989737011,2024
2024-03-25,2024-03-25,"כסלו 13, מודיעין-מכבים-רעות",כסלו 13,5734-59-28,דירה בבית קומות,4.0,שניה,77.5,2550000,,,2001.0,,3.0,10425533916,1,573459,False,,מודיעין-מכבים-רעות,כסלו,,5734-59-28,5734/59,32903.22580645161,31.9139571868,35.0086444541,2024
2024-03-24,2024-03-24,"מגדל הלבנון 3, מודיעין-מכבים-רעות",מגדל הלבנון 3,5684-75-244,דירה בבית קומות,4.0,קרקע,86.65,2900000,,,2002.0,,10.0,10424100876,1,568475,False,,מודיעין-מכבים-רעות,מגדל הלבנון,,5684-75-244,5684/75,33467.97461050202,31.8948223544,35.0078793475,2024
2024-03-22,2024-03-22,"דוכיפת 24, מודיעין-מכבים-רעות",דוכיפת 24,5873-25-6,דירה בבית קומות,3.0,קומה ‎2‏,75.63,2500000,,,2014.0,,4.0,10423963704,1,587325,False,267% ב 7.7 שנים,מודיעין-מכבים-רעות,דוכיפת,34.68,5873-25-6,5873/25,33055.66574110803,31.8965655722,34.9926385925,2024
2024-03-21,2024-03-21,"טבת 16, מודיעין-מכבים-רעות",טבת 16,5734-28-53,דירה בבית קומות,4.0,ארבע עשרה,109.95,3420000,,,2010.0,,25.0,10423715484,1,573428,False,194% ב 13.7 שנים,מודיעין-מכבים-רעות,טבת,14.16,5734-28-53,5734/28,31105.047748976805,31.9156453501,35.0079763248,2024
2024-03-20,2024-03-20,"מנחם בגין 54, מודיעין-מכבים-רעות",מנחם בגין 54,5819-54-2,דירה בבית קומות,5.0,"מרתף, קרקע, ראשונה",132.65,3900000,,,2010.0,,1.0,10423524888,1,581954,False,14% ב 1.8 שנים,מודיעין-מכבים-רעות,מנחם בגין,7.78,5819-54-2,5819/54,29400.678477195623,31.879630162,35.0106511813,2024
2024-03-20,2024-03-20,"הלוח העברי 17, מודיעין-מכבים-רעות",הלוח העברי 17,5732-50-17,דירת גן,4.0,קרקע,84.5,3150000,,,2012.0,,3.0,10423967232,1,573250,False,,מודיעין-מכבים-רעות,הלוח העברי,,5732-50-17,5732/50,37278.10650887574,31.9180208132,35.0061384516,2024
2024-03-20,2024-03-20,"רא""ל דוד אלעזר 21, מודיעין-מכבים-רעות","רא""ל דוד אלעזר 21",5693-9-8,דירה בבית קומות,4.0,שניה,105.7,3290000,,,1997.0,,1.0,10423679448,1,56939,False,19% ב 2 שנים,מודיעין-מכבים-רעות,"רא""ל דוד אלעזר",9.5,5693-9-8,5693/9,31125.827814569537,31.9081724764,35.0019089245,2024
2024-03-19,2024-03-19,,,5642-71-18,דירה בבית קומות,5.0,שלישית,201.0,4091000,,,2025.0,,,10425975252,2,564271,False,,מודיעין-מכבים-רעות,תלתן,,5642-71-18,5642/71,20353.233830845773,,,2024
2024-03-18,2024-03-18,"יונה הנביא 7, מודיעין-מכבים-רעות",יונה הנביא 7,5570-74-11,דירה בבית קומות,3.5,קומה ‎3‏,90.5,3480000,,,2016.0,,7.0,10423716996,1,557074,False,,מודיעין-מכבים-רעות,יונה הנביא,,5570-74-11,5570/74,38453.03867403315,31.9100443567,35.0123869273,2024
2024-03-17,2024-03-17,"רבקה אימנו 16, מודיעין-מכבים-רעות",רבקה אימנו 16,5817-48-4,דירת גן,6.0,מרתף קרקע וראשונה,154.84,4725000,,,2008.0,,3.0,10424398236,1,581748,False,35% ב 6.2 שנים,מודיעין-מכבים-רעות,רבקה אמנו,5.65,5817-48-4,5817/48,30515.370705244124,31.8814235519,35.0040601002,2024
2024-03-17,2024-03-17,"ניסן 67, מודיעין-מכבים-רעות",ניסן 67,5733-63-2,דירה בבית קומות,4.0,קרקע,83.26,3270000,,,2013.0,,4.0,10423192920,1,573363,False,118% ב 10.3 שנים,מודיעין-מכבים-רעות,ניסן,11.46,5733-63-2,5733/63,39274.56161422051,31.9166543461,35.0119682685,2024
2024-03-17,2024-03-17,"מגדל המנורה 14, מודיעין-מכבים-רעות",מגדל המנורה 14,5872-19-53,דירה בבית קומות,4.0,שלישית,106.2,2917500,,,2004.0,,9.0,10423581756,1,587219,False,,מודיעין-מכבים-רעות,מגדל המנורה,,5872-19-53,5872/19,27471.751412429378,31.9017364586,34.9980567414,2024
2024-03-17,2024-03-17,"תרשיש 31, מודיעין-מכבים-רעות",תרשיש 31,5868-50-8,דירה בבית קומות,5.0,רביעית + חמישית,133.61,4900000,,,2007.0,,6.0,10423740516,1,586850,False,279% ב 16 שנים,מודיעין-מכבים-רעות,תרשיש,17.44,5868-50-8,5868/50,36673.901654067806,31.907018127,34.9945214753,2024
2024-03-14,2024-03-14,"שמואל הנביא 7, מודיעין-מכבים-רעות",שמואל הנביא 7,5569-13-25,דירה בבית קומות,4.0,ראשונה,87.3,2710000,,,1998.0,,2.0,10423187376,1,556913,False,6% ב 1.8 שנים,מודיעין-מכבים-רעות,שמואל הנביא,3.33,5569-13-25,5569/13,31042.38258877434,31.9115277263,35.0050659673,2024
2024-03-14,2024-03-14,,,5642-71-20,דירה בבית קומות,5.0,שניה,144.0,4006000,,,2025.0,,,10425344664,2,564271,False,,מודיעין-מכבים-רעות,תלתן,,5642-71-20,5642/71,27819.444444444445,,,2024
2024-03-09,2024-09-03,"עמק חרוד 14, מודיעין-מכבים-רעות",עמק חרוד 14,5732-10-13,דירה בבית קומות,5.0,קרקע,100.65,3400000,,,2000.0,,2.0,10440438372,1,573210,False,,מודיעין-מכבים-רעות,עמק חרוד,,5732-10-13,5732/10,33780.427223050174,31.91850235,35.003484221,2024
2024-03-06,2024-06-03,"כרכום 5, מודיעין-מכבים-רעות",כרכום 5,5653-26-31,דירה בבית קומות,5.0,קרקע + ראשונה,150.8,3650000,,,1995.0,,1.0,10430529816,1,565326,False,,מודיעין-מכבים-רעות,כרכום,,5653-26-31,5653/26,24204.24403183024,31.9068751292,35.0137937073,2024
2024-03-05,2024-05-03,"תשרי 29, מודיעין-מכבים-רעות",תשרי 29,5733-22-8,דירה בבית קומות,4.0,שניה,92.0,4000000,,,2010.0,,3.0,10428620496,1,573322,False,82% ב 5.1 שנים,מודיעין-מכבים-רעות,תשרי,16.08,5733-22-8,5733/22,43478.260869565216,31.9165357345,35.0087635146,2024
2024-03-04,2024-04-03,"תשרי 20, מודיעין-מכבים-רעות",תשרי 20,5733-16-4,דירה בבית קומות,4.0,שניה,89.52,2800000,,,2011.0,,3.0,10426324608,1,573316,False,54% ב 8.1 שנים,מודיעין-מכבים-רעות,תשרי,6.67,5733-16-4,5733/16,31277.92672028597,31.9156178725,35.010439215,2024
2024-03-04,2024-04-03,"נחל הירקון 32, מודיעין-מכבים-רעות",נחל הירקון 32,5691-9-7,דירה בבית קומות,4.0,קרקע,95.9,2860000,,,1995.0,,1.0,10425307200,1,56919,False,46% ב 6 שנים,מודיעין-מכבים-רעות,נחל הירקון,7.67,5691-9-7,5691/9,29822.73201251303,31.8971125521,35.0201275932,2024
2024-03-03,2024-03-03,"עמק החולה 34, מודיעין-מכבים-רעות",עמק החולה 34,5688-151-3,דירה בבית קומות,4.0,שניה,98.82,3200000,,,1999.0,,3.0,10423274064,1,5688151,False,119% ב 13.9 שנים,מודיעין-מכבים-רעות,עמק החולה,8.56,5688-151-3,5688/151,32382.108884841127,31.896425374,35.0188829277,2024
2024-03-03,2024-03-03,"ירמיהו הנביא 10, מודיעין-מכבים-רעות",ירמיהו הנביא 10,5569-12-22,דירה בבית קומות,4.0,שניה,86.85,2700000,,,1998.0,,3.0,10421740476,1,556912,False,51% ב 7.6 שנים,מודיעין-מכבים-רעות,ירמיהו הנביא,6.71,5569-12-22,5569/12,31088.082901554408,31.9124569095,35.0038466204,2024
2024-03-03,2024-03-03,"יונה הנביא 7, מודיעין-מכבים-רעות",יונה הנביא 7,5570-74-6,דירה בבית קומות,5.0,קומה ‎1‏,121.3,3950000,,,2016.0,,7.0,10422493032,1,557074,False,,מודיעין-מכבים-רעות,יונה הנביא,,5570-74-6,5570/74,32563.8911788953,31.9100443567,35.0123869273,2024
2024-03-02,2024-02-03,"חגי ישראל 5, מודיעין-מכבים-רעות",חגי ישראל 5,5733-65-55,דירה בבית קומות,5.0,שלישית,130.8,3700000,,,2014.0,,11.0,10419072972,1,573365,False,101% ב 9.8 שנים,מודיעין-מכבים-רעות,הלוח העברי,10.31,5733-65-55,5733/65,28287.461773700303,31.9173615488,35.0071576183,2024
2024-03-02,2024-02-03,"שבטי ישראל 44, מודיעין-מכבים-רעות",שבטי ישראל 44,5815-112-1,דירת גן,5.0,קרקע + ראשונה,143.0,5800000,,,2003.0,,6.0,10419804780,1,5815112,False,136% ב 11 שנים,מודיעין-מכבים-רעות,שבטי ישראל,12.36,5815-112-1,5815/112,40559.44055944056,31.8838985003,35.000949311,2024
2024-02-29,2024-02-29,"ישעיהו הנביא 8, מודיעין-מכבים-רעות",ישעיהו הנביא 8,5567-74-7,דירה בבית קומות,4.0,ראשונה,95.4,2900000,,,1998.0,,3.0,10421643960,1,556774,False,52% ב 4.9 שנים,מודיעין-מכבים-רעות,ישעיהו הנביא,10.61,5567-74-7,5567/74,30398.32285115304,31.91344459,35.0026399014,2024
2024-02-29,2024-02-29,"מגדל עוז 8, מודיעין-מכבים-רעות",מגדל עוז 8,5683-44-4,דירה בבית קומות,4.0,ראשונה,105.9,2900000,,,1998.0,,2.0,10421382048,1,568344,False,83% ב 13 שנים,מודיעין-מכבים-רעות,מגדל עוז,6.38,5683-44-4,5683/44,27384.32483474976,31.8979852705,35.0120069013,2024
2024-02-28,2024-02-28,,,5642-71-23,דירה בבית קומות,5.0,חמישית,209.0,5118000,,,2025.0,,,10423858200,2,564271,False,,מודיעין-מכבים-רעות,תלתן,,5642-71-23,5642/71,24488.03827751196,,,2024
2024-02-28,2024-02-28,"ישעיהו הנביא 8, מודיעין-מכבים-רעות",ישעיהו הנביא 8,5567-74-17,דירה בבית קומות,3.0,שלישית,64.8,2230000,,,1998.0,,3.0,10422486732,1,556774,False,127% ב 11.7 שנים,מודיעין-מכבים-רעות,ישעיהו הנביא,10.85,5567-74-17,5567/74,34413.58024691358,31.91344459,35.0026399014,2024
2024-02-28,2024-02-28,"ישעיהו הנביא 41, מודיעין-מכבים-רעות",ישעיהו הנביא 41,5567-8-2,דירה בבית קומות,6.0,קרקע וראשונה,150.0,3550000,,,2000.0,,4.0,10422292188,1,55678,False,294% ב 19.6 שנים,מודיעין-מכבים-רעות,ישעיהו הנביא,15.0,5567-8-2,5567/8,23666.666666666668,31.9161231047,35.0032048946,2024
2024-02-28,2024-02-28,"נחל עיון 15, מודיעין-מכבים-רעות",נחל עיון 15,5683-43-2,דירה בבית קומות,4.0,ראשונה,82.9,3030000,,,1997.0,,3.0,10421488812,1,568343,False,,מודיעין-מכבים-רעות,נחל עיון,,5683-43-2,5683/43,36550.06031363088,31.8975305773,35.0118945158,2024
2024-02-28,2024-02-28,"הנביאים 10, מודיעין-מכבים-רעות",הנביאים 10,5570-45-1,דירת גן,5.0,קרקע וראשונה,126.5,3630000,,,1999.0,,,10423311360,1,557045,False,93% ב 9.6 שנים,מודיעין-מכבים-רעות,הנביאים,9.69,5570-45-1,5570/45,28695.652173913044,31.9110453016,35.0095777536,2024
2024-02-27,2024-02-27,"מגדל עוז 11, מודיעין-מכבים-רעות",מגדל עוז 11,5683-133-160,דירה בבית קומות,5.0,שלישית,113.38,3120000,,,2000.0,,9.0,10421749464,1,5683133,False,,מודיעין-מכבים-רעות,מגדל עוז,,5683-133-160,5683/133,27518.080790262837,31.8978991604,35.0129493367,2024
2024-02-25,2024-02-25,"נחל שורק 34, מודיעין-מכבים-רעות",נחל שורק 34,5682-65-5,דירה בבית קומות,3.5,שניה,82.0,2950000,,,1997.0,,3.0,10420966248,1,568265,False,213% ב 14.7 שנים,מודיעין-מכבים-רעות,נחל שורק,14.49,5682-65-5,5682/65,35975.60975609756,31.895518756,35.0057187221,2024
2024-02-22,2024-02-22,"טבת 16, מודיעין-מכבים-רעות",טבת 16,5734-28-87,דירה בבית קומות,5.0,עשרים ושלוש,132.45,4220000,,,2010.0,,25.0,10420788084,1,573428,False,91% ב 9.9 שנים,מודיעין-מכבים-רעות,טבת,9.19,5734-28-87,5734/28,31861.079652699136,31.9156453501,35.0079763248,2024
2024-02-22,2024-02-22,"עמק החולה 49, מודיעין-מכבים-רעות",עמק החולה 49,5688-102-1,דירה בבית קומות,4.0,ראשונה,99.14,2953000,,,1997.0,,3.0,10422343344,1,5688102,False,113% ב 11 שנים,מודיעין-מכבים-רעות,עמק החולה,10.27,5688-102-1,5688/102,29786.160984466413,31.8955784721,35.0170204559,2024
2024-02-21,2024-02-21,"יונה הנביא 5, מודיעין-מכבים-רעות",יונה הנביא 5,5570-74-26,דירה בבית קומות,5.0,קומה ‎1‏,123.1,3375000,,,2017.0,,7.0,10422639276,1,557074,False,,מודיעין-מכבים-רעות,יונה הנביא,,5570-74-26,5570/74,27416.73436230707,31.9100443567,35.0123869273,2024
2024-02-19,2024-02-19,"עמק האלה 68, מודיעין-מכבים-רעות",עמק האלה 68,5734-57-6,דירה בבית קומות,3.0,שלישית,71.0,2400000,,,2002.0,,5.0,10421262936,1,573457,False,247% ב 16 שנים,מודיעין-מכבים-רעות,עמק האלה,15.44,5734-57-6,5734/57,33802.81690140845,31.914014674,35.007315604,2024
2024-02-18,2024-02-18,"רא""ל דוד אלעזר 10, מודיעין-מכבים-רעות","רא""ל דוד אלעזר 10",5571-13-32,דירה בבית קומות,4.0,ראשונה,110.4,2840000,,,2000.0,,3.0,10420348176,1,557113,False,49% ב 4.7 שנים,מודיעין-מכבים-רעות,"רא""ל דוד אלעזר",10.43,5571-13-32,5571/13,25724.63768115942,31.907837532,35.003304442,2024
2024-02-15,2024-02-15,"בדולח 7, מודיעין-מכבים-רעות",בדולח 7,5871-13-6,,4.0,שניה,94.0,2985000,,,2004.0,,6.0,10420520040,1,587113,False,,מודיעין-מכבים-רעות,בדולח,,5871-13-6,5871/13,31755.31914893617,31.9036549597,34.9939357722,2024
2024-02-14,2024-02-14,"רחל אימנו 26, מודיעין-מכבים-רעות",רחל אימנו 26,5819-56-18,דירה בבית קומות,6.0,"חמישית, שישית",130.6,4300000,,,2009.0,,7.0,10420905348,1,581956,False,36% ב 6.5 שנים,מודיעין-מכבים-רעות,רחל אמנו,5.54,5819-56-18,5819/56,32924.9617151608,31.8787072142,35.0075665883,2024
2024-02-14,2024-02-14,,,5642-71-25,דירה בבית קומות,5.0,חמישית,154.0,4176000,,,2025.0,,,10421599020,2,564271,False,,מודיעין-מכבים-רעות,תלתן,,5642-71-25,5642/71,27116.88311688312,,,2024
2024-02-14,2024-02-14,"חטיבת גולני 19, מודיעין-מכבים-רעות",חטיבת גולני 19,5568-57-24,דירה בבית קומות,3.0,שניה,60.1,2380000,,,2000.0,,2.0,10422955284,1,556857,False,,מודיעין-מכבים-רעות,חטיבת גולני,,5568-57-24,5568/57,39600.665557404325,31.9107578437,34.9997322602,2024
2024-02-13,2024-02-13,"עמק בית שאן 33, מודיעין-מכבים-רעות",עמק בית שאן 33,5568-16-43,דירה בבית קומות,4.0,קרקע,111.75,3300000,,,1999.0,,2.0,10419958668,1,556816,False,73% ב 7 שנים,מודיעין-מכבים-רעות,עמק בית שאן,10.43,5568-16-43,5568/16,29530.20134228188,31.9118323087,35.0010069952,2024
2024-02-13,2024-02-13,"שבט 11, מודיעין-מכבים-רעות",שבט 11,5736-39-172,דירה בבית קומות,5.0,"קרקע, ראשונה",120.6,3740000,,,2007.0,,7.0,10420630080,1,573639,False,,מודיעין-מכבים-רעות,שבט,,5736-39-172,5736/39,31011.608623548924,31.912036065,35.0133046456,2024
2024-02-13,2024-02-13,"ניסן 73, מודיעין-מכבים-רעות",ניסן 73,5733-62-32,דירה בבית קומות,4.0,שניה,104.13,2920000,,,2013.0,,4.0,10420202520,1,573362,False,104% ב 10 שנים,מודיעין-מכבים-רעות,ניסן,10.4,5733-62-32,5733/62,28041.870738499954,31.9170139128,35.0115447737,2024
2024-02-09,2024-09-02,"עמוס הנביא 16, מודיעין-מכבים-רעות",עמוס הנביא 16,5567-83-153,דירה בבית קומות,5.0,עשרים ואחת,120.1,4000000,,,2007.0,,27.0,10438957284,1,556783,False,80% ב 9.3 שנים,מודיעין-מכבים-רעות,עמוס הנביא,8.6,5567-83-153,5567/83,33305.578684429645,31.9155099204,35.0019056369,2024
2024-02-07,2024-07-02,"נחליאלי 25, מודיעין-מכבים-רעות",נחליאלי 25,5876-45-24,דירה בבית קומות,4.0,קומה ‎2‏,93.55,3120000,,,2018.0,,1.0,10433010672,1,587645,False,,מודיעין-מכבים-רעות,נחליאלי,,5876-45-24,5876/45,33351.14911811866,31.8950625691,34.9919906119,2024
2024-02-06,2024-06-02,"אודם 29, מודיעין-מכבים-רעות",אודם 29,5871-11-27,דירה בבית קומות,3.0,שלישית,72.0,2580000,,,2005.0,,4.0,10430263032,1,587111,False,44% ב 7.3 שנים,מודיעין-מכבים-רעות,אודם,6.03,5871-11-27,5871/11,35833.333333333336,31.9041890688,34.9940331773,2024
2024-02-06,2024-06-02,"דוכיפת 49, מודיעין-מכבים-רעות",דוכיפת 49,5876-21-4,דירה בבית קומות,3.0,קומה ‎1‏,87.85,2670000,,,2018.0,,5.0,10430251860,1,587621,False,,מודיעין-מכבים-רעות,דוכיפת,,5876-21-4,5876/21,30392.71485486625,31.8959713214,34.9926104088,2024
2024-02-05,2024-05-02,"טבת 23, מודיעין-מכבים-רעות",טבת 23,5734-69-3,דירה בבית קומות,4.0,שניה,88.96,2700000,,,2012.0,,3.0,10427391156,1,573469,False,114% ב 11.8 שנים,מודיעין-מכבים-רעות,טבת,9.66,5734-69-3,5734/69,30350.719424460432,31.9162559415,35.0070748439,2024
2024-02-05,2024-05-02,"כסלו 32, מודיעין-מכבים-רעות",כסלו 32,5734-67-5,דירה בבית קומות,3.0,שלישית,68.66,2512000,,,2010.0,,3.0,10427355708,1,573467,False,36% ב 2.8 שנים,מודיעין-מכבים-רעות,כסלו,12.86,5734-67-5,5734/67,36586.07631808914,31.9152555317,35.0065186703,2024
2024-02-04,2024-04-02,"חטיבת גולני 18, מודיעין-מכבים-רעות",חטיבת גולני 18,5569-35-3,דירה בבית קומות,4.0,שניה,98.59,2820000,,,1999.0,,3.0,10425556680,1,556935,False,96% ב 11.3 שנים,מודיעין-מכבים-רעות,חטיבת גולני,8.5,5569-35-3,5569/35,28603.306623389795,31.9106125045,35.0011046413,2024
2024-02-02,2024-02-02,"שמואל הנביא 24, מודיעין-מכבים-רעות",שמואל הנביא 24,5567-63-11,דירה בבית קומות,3.0,שניה,71.6,2170000,,,1998.0,,2.0,10419524892,1,556763,False,33% ב 7.5 שנים,מודיעין-מכבים-רעות,שמואל הנביא,4.4,5567-63-11,5567/63,30307.262569832405,31.9135916954,35.0035474442,2024
2024-02-02,2024-02-02,"עמק החולה 56, מודיעין-מכבים-רעות",עמק החולה 56,5688-21-6,דירה בבית קומות,4.0,שלישית,70.6,2080000,,,1996.0,,3.0,10418799300,1,568821,False,268% ב 17.1 שנים,מודיעין-מכבים-רעות,עמק החולה,15.67,5688-21-6,5688/21,29461.75637393768,31.8967731225,35.0147926613,2024
2024-02-01,2024-01-02,"סביון 2, מודיעין-מכבים-רעות",סביון 2,5653-28-4,דירה בבית קומות,4.0,ראשונה,86.73,2300000,,,1996.0,,3.0,10416615636,1,565328,False,,מודיעין-מכבים-רעות,סביון,,5653-28-4,5653/28,26519.082209154847,31.9076501065,35.0145965836,2024
2024-02-01,2024-01-02,"ישעיהו הנביא 43, מודיעין-מכבים-רעות",ישעיהו הנביא 43,5567-10-84,דירה בבית קומות,5.0,קרקע וראשונה,115.2,3640000,,,1998.0,,3.0,10417042440,1,556710,False,251% ב 19.5 שנים,מודיעין-מכבים-רעות,ישעיהו הנביא,12.87,5567-10-84,5567/10,31597.222222222223,31.9146111495,35.0041034967,2024
2024-02-01,2024-01-02,"מנחם בגין 116, מודיעין-מכבים-רעות",מנחם בגין 116,5817-17-16,דירת גן,5.0,"מרתף, קרקע, ראשונה",130.5,4320000,,,2008.0,,2.0,10416303156,1,581717,False,,מודיעין-מכבים-רעות,מנחם בגין,,5817-17-16,5817/17,33103.44827586207,31.8806323444,35.0029617917,2024
2024-01-31,2024-01-31,"כסלו 67, מודיעין-מכבים-רעות",כסלו 67,5733-29-26,דירה בבית קומות,5.0,חמישית,113.2,3370000,,,2012.0,,4.0,10418802072,1,573329,False,147% ב 13.7 שנים,מודיעין-מכבים-רעות,כסלו,10.73,5733-29-26,5733/29,29770.31802120141,31.915940511,35.0089713692,2024
2024-01-31,2024-01-31,"נחל יגור 11, מודיעין-מכבים-רעות",נחל יגור 11,5684-25-1,דירה בבית קומות,6.0,קרקע + ראשונה,119.7,4300000,,,1997.0,,1.0,10418620464,1,568425,False,74% ב 8.6 שנים,מודיעין-מכבים-רעות,נחל יגור,8.6,5684-25-1,5684/25,35923.14118629908,31.8920162579,35.0068791604,2024
2024-01-31,2024-01-31,"נחליאלי 25, מודיעין-מכבים-רעות",נחליאלי 25,5876-45-86,דירה בבית קומות,4.0,קומה ‎2‏,94.55,2900000,,,2018.0,,1.0,10418717400,1,587645,False,,מודיעין-מכבים-רעות,נחליאלי,,5876-45-86,5876/45,30671.60232681121,31.8950625691,34.9919906119,2024
2024-01-31,2024-01-31,"פיקוס 4, מודיעין-מכבים-רעות",פיקוס 4,5642-63-10,מחסנים,,,,53000,,,2020.0,,3.0,10421381376,1,564263,False,,מודיעין-מכבים-רעות,פיקוס,,5642-63-10,5642/63,,31.9015013945,35.0087593128,2024
2024-01-30,2024-01-30,"צוקית 11, מודיעין-מכבים-רעות",צוקית 11,5876-39-10,דירת גן,5.0,קרקע,129.5,4440000,,,2015.0,,3.0,10418622480,1,587639,False,92% ב 8.6 שנים,מודיעין-מכבים-רעות,חסידה,10.7,5876-39-10,5876/39,34285.71428571428,31.8959352003,34.9957780193,2024
2024-01-30,2024-01-30,"שרה אימנו 116, מודיעין-מכבים-רעות",שרה אימנו 116,5816-20-5,דירה בבית קומות,3.0,שניה,80.6,2715000,,,2010.0,,2.0,10418693124,1,581620,False,175% ב 13.7 שנים,מודיעין-מכבים-רעות,שרה אמנו,12.77,5816-20-5,5816/20,33684.8635235732,31.8826148654,35.0061710361,2024
2024-01-29,2024-01-29,"נחליאלי 18, מודיעין-מכבים-רעות",נחליאלי 18,5876-23-6,דירה בבית קומות,3.0,קומה ‎2‏,78.7,2470000,,,2015.0,,5.0,10418399376,1,587623,False,,מודיעין-מכבים-רעות,נחליאלי,,5876-23-6,5876/23,31385.00635324015,31.8954831755,34.9919752697,2024
2024-01-29,2024-01-29,"עמק חרוד 111, מודיעין-מכבים-רעות",עמק חרוד 111,5732-59-8,דירה בבית קומות,4.0,ראשונה,122.0,2785000,,,2015.0,,2.0,10418748060,1,573259,False,,מודיעין-מכבים-רעות,עמק חרוד,,5732-59-8,5732/59,22827.868852459014,31.918522322,35.0077464438,2024
2024-01-28,2024-01-28,"בדולח 15, מודיעין-מכבים-רעות",בדולח 15,5871-11-5,דירה בבית קומות,4.5,שניה,118.0,3065000,,,2005.0,,4.0,10418390388,1,587111,False,42% ב 5.6 שנים,מודיעין-מכבים-רעות,בדולח,7.5,5871-11-5,5871/11,25974.57627118644,31.9041890688,34.9940331773,2024
2024-01-25,2024-01-25,"אבני החושן 23, מודיעין-מכבים-רעות",אבני החושן 23,5871-60-56,דירה בבית קומות,4.5,שלישית,102.85,2800000,,,2008.0,,3.0,10419027276,1,587160,False,98% ב 11 שנים,מודיעין-מכבים-רעות,אבני החושן,8.91,5871-60-56,5871/60,27224.112785610112,31.9027076434,34.9960650189,2024
2024-01-25,2024-01-25,"עמק האלה 51, מודיעין-מכבים-רעות",עמק האלה 51,5570-4-11,דירה בבית קומות,3.0,שניה,64.2,2080000,,,1998.0,,2.0,10418099412,1,55704,False,217% ב 16.2 שנים,מודיעין-מכבים-רעות,עמק האלה,13.4,5570-4-11,5570/4,32398.753894080997,31.9126718667,35.007027808,2024
2024-01-25,2024-01-25,"יונה הנביא 3, מודיעין-מכבים-רעות",יונה הנביא 3,5570-74-58,דירה בבית קומות,3.5,קומה ‎3‏,90.3,2425000,,,2017.0,,7.0,10418165184,1,557074,False,17% ב 2.6 שנים,מודיעין-מכבים-רעות,יונה הנביא,6.54,5570-74-58,5570/74,26854.92801771872,31.9100443567,35.0123869273,2024
2024-01-21,2024-01-21,"עפרוני 1, מודיעין-מכבים-רעות",עפרוני 1,5877-29-12,דירה בבית קומות,4.0,שניה,88.0,3360000,,,2016.0,,3.0,10418014908,1,587729,False,140% ב 7.9 שנים,מודיעין-מכבים-רעות,עפרוני,17.72,5877-29-12,5877/29,38181.81818181818,31.8961299906,34.9982827266,2024
2024-01-21,2024-01-21,"מיכה הנביא 6, מודיעין-מכבים-רעות",מיכה הנביא 6,5567-74-20,דירה בבית קומות,4.0,ראשונה,97.8,3170000,,,1998.0,,3.0,10417606584,1,556774,False,54% ב 7.6 שנים,מודיעין-מכבים-רעות,מיכה הנביא,7.11,5567-74-20,5567/74,32413.087934560328,31.91344459,35.0026399014,2024
2024-01-19,2024-01-19,"חטיבת אלכסנדרוני 4, מודיעין-מכבים-רעות",חטיבת אלכסנדרוני 4,5569-36-14,דירה בבית קומות,3.0,שניה,81.4,2275000,,,1998.0,,2.0,10417483272,1,556936,False,100% ב 11 שנים,מודיעין-מכבים-רעות,חטיבת אלכסנדרוני,9.09,5569-36-14,5569/36,27948.402948402945,31.9099511463,35.0019851478,2024
2024-01-18,2024-01-18,"שמואל הנביא 22, מודיעין-מכבים-רעות",שמואל הנביא 22,5569-9-3,דירה בבית קומות,4.0,שניה,100.2,2563000,,,2000.0,,2.0,10417578948,1,55699,False,,מודיעין-מכבים-רעות,שמואל הנביא,,5569-9-3,5569/9,25578.84231536926,31.9128560793,35.0045716731,2024
2024-01-18,2024-01-18,"ניסן 73, מודיעין-מכבים-רעות",ניסן 73,5733-62-16,דירה בבית קומות,4.0,ראשונה,102.91,2910000,,,2013.0,,4.0,10417364748,1,573362,False,107% ב 10.9 שנים,מודיעין-מכבים-רעות,ניסן,9.82,5733-62-16,5733/62,28277.13536099505,31.9170139128,35.0115447737,2024
2024-01-17,2024-01-17,"יוסף 95, מודיעין-מכבים-רעות",יוסף 95,5812-64-2,דירה בבית קומות,6.5,קרקע וראשונה,164.6,3650000,,,2002.0,,,10418737560,1,581264,False,164% ב 21.5 שנים,מודיעין-מכבים-רעות,יוסף,7.63,5812-64-2,5812/64,22174.969623329285,31.8890544102,35.0032963769,2024
2024-01-17,2024-01-17,"עפרוני 23, מודיעין-מכבים-רעות",עפרוני 23,5877-54-19,דירה בבית קומות,5.0,קומה ‎0‏,118.1,4240000,,,2021.0,,3.0,10417380036,1,587754,False,,מודיעין-מכבים-רעות,עפרוני,,5877-54-19,5877/54,35901.778154106694,31.8960652418,35.0017036326,2024
2024-01-17,2024-01-17,"רא""ל יגאל ידין 49, מודיעין-מכבים-רעות","רא""ל יגאל ידין 49",5571-33-2,דירה בבית קומות,5.0,שניה,173.0,3440000,,,2007.0,,16.0,10418325204,1,557133,False,,מודיעין-מכבים-רעות,"רא""ל יגאל ידין",,5571-33-2,5571/33,19884.39306358381,31.9035037386,35.0043450634,2024
2024-01-17,2024-01-17,"עמק בית שאן 29, מודיעין-מכבים-רעות",עמק בית שאן 29,5568-16-31,דירה בבית קומות,3.0,קרקע,78.6,2625000,,,1999.0,,2.0,10417514436,1,556816,False,64% ב 6.5 שנים,מודיעין-מכבים-רעות,עמק בית שאן,9.85,5568-16-31,5568/16,33396.9465648855,31.9118323087,35.0010069952,2024
2024-01-17,2024-01-17,"כסלו 65, מודיעין-מכבים-רעות",כסלו 65,5733-29-43,דירה בבית קומות,3.0,שלישית,79.35,2600000,,,2010.0,,4.0,10417413300,1,573329,False,49% ב 4.4 שנים,מודיעין-מכבים-רעות,כסלו,11.14,5733-29-43,5733/29,32766.225582860745,31.915940511,35.0089713692,2024
2024-01-16,2024-01-16,"מגדל המנורה 43, מודיעין-מכבים-רעות",מגדל המנורה 43,5871-58-27,דירה בבית קומות,5.0,שניה,98.4,3200000,,,2004.0,,3.0,10417190112,1,587158,False,146% ב 13.5 שנים,מודיעין-מכבים-רעות,מגדל המנורה,10.81,5871-58-27,5871/58,32520.325203252032,31.9021585434,34.9966191194,2024
2024-01-16,2024-01-16,"הנביאים 28, מודיעין-מכבים-רעות",הנביאים 28,5570-4-80,דירה בבית קומות,4.0,ראשונה,97.4,2810000,,,2000.0,,4.0,10417234548,1,55704,False,129% ב 13.3 שנים,מודיעין-מכבים-רעות,הנביאים,9.7,5570-4-80,5570/4,28850.102669404518,31.9126718667,35.007027808,2024
2024-01-16,2024-01-16,"נחל הירקון 2, מודיעין-מכבים-רעות",נחל הירקון 2,5691-50-14,דירה בבית קומות,3.0,מרתף,46.0,1590000,,,1997.0,,1.0,10419043908,1,569150,False,,מודיעין-מכבים-רעות,נחל הירקון,,5691-50-14,5691/50,34565.217391304344,31.8983592664,35.0207396659,2024
2024-01-16,2024-01-16,"תכלת 21, מודיעין-מכבים-רעות",תכלת 21,5874-32-10,דירה בבית קומות,3.0,קרקע,72.88,3050000,,,2001.0,,3.0,10423215852,1,587432,False,93% ב 9.6 שנים,מודיעין-מכבים-רעות,תכלת,9.69,5874-32-10,5874/32,41849.61580680571,31.9005122112,34.9995634136,2024
2024-01-16,2024-01-16,"ענבר 14, מודיעין-מכבים-רעות",ענבר 14,5869-43-1,דירה בבית קומות,5.0,קרקע,101.0,4000000,,,2007.0,,2.0,10417436736,1,586943,False,,מודיעין-מכבים-רעות,ענבר,,5869-43-1,5869/43,39603.960396039605,31.9055860288,34.9956052608,2024
2024-01-16,2024-01-16,"תלתן 5, מודיעין-מכבים-רעות",תלתן 5,5652-27-15,דירה בבית קומות,3.0,שניה,67.64,2950000,,,1997.0,,2.0,10417762572,1,565227,False,245% ב 14.8 שנים,מודיעין-מכבים-רעות,תלתן,16.55,5652-27-15,5652/27,43613.24659964518,31.9071276481,35.0078097571,2024
2024-01-15,2024-01-15,"עמק דותן 1, מודיעין-מכבים-רעות",עמק דותן 1,5692-8-3,דירה בבית קומות,5.0,קרקע וראשונה,147.2,4460000,,,1997.0,,4.0,10418309244,1,56928,False,74% ב 8.5 שנים,מודיעין-מכבים-רעות,עמק דותן,8.71,5692-8-3,5692/8,30298.913043478264,31.897795546,35.0249985488,2024
2024-01-15,2024-01-15,"ירמיהו הנביא 17, מודיעין-מכבים-רעות",ירמיהו הנביא 17,5569-49-8,דירה בבית קומות,5.0,קרקע,114.0,3270000,,,1998.0,,2.0,10417285032,1,556949,False,40% ב 5.1 שנים,מודיעין-מכבים-רעות,ירמיהו הנביא,7.84,5569-49-8,5569/49,28684.21052631579,31.9118525204,35.0032334491,2024
2024-01-14,2024-01-14,"יונה הנביא 5, מודיעין-מכבים-רעות",יונה הנביא 5,5570-74-31,דירה בבית קומות,3.5,קומה ‎2‏,92.4,2750000,,,2017.0,,7.0,10418021712,1,557074,False,,מודיעין-מכבים-רעות,יונה הנביא,,5570-74-31,5570/74,29761.90476190476,31.9100443567,35.0123869273,2024
2024-01-14,2024-01-14,"נחל דליה 19, מודיעין-מכבים-רעות",נחל דליה 19,5692-16-6,דירה בבית קומות,5.0,שלישית ורביעית,125.15,3420000,,,1996.0,,2.0,10418108316,1,569216,False,276% ב 23.6 שנים,מודיעין-מכבים-רעות,נחל דליה,11.69,5692-16-6,5692/16,27327.207351178586,31.8978056065,35.0242480953,2024
2024-01-14,2024-01-14,"ירמיהו הנביא 19, מודיעין-מכבים-רעות",ירמיהו הנביא 19,5569-49-18,דירה בבית קומות,3.0,שניה,79.3,2250000,,,2000.0,,2.0,10417083516,1,556949,False,94% ב 11.2 שנים,מודיעין-מכבים-רעות,ירמיהו הנביא,8.39,5569-49-18,5569/49,28373.26607818411,31.9118525204,35.0032334491,2024
2024-01-08,2024-08-01,"ענבר 12, מודיעין-מכבים-רעות",ענבר 12,5869-44-14,דירה בבית קומות,4.0,ראשונה,92.0,3020000,,,2005.0,,2.0,10436188728,1,586944,False,56% ב 7.7 שנים,מודיעין-מכבים-רעות,ענבר,7.27,5869-44-14,5869/44,32826.086956521736,31.9053902622,34.996679437,2024
2024-01-08,2024-08-01,"אלמוגן 2, מודיעין-מכבים-רעות",אלמוגן 2,5685-106-13,דירת גן,3.0,ראשונה,67.6,2275000,,,1998.0,,3.0,10436535984,1,5685106,False,86% ב 12.2 שנים,מודיעין-מכבים-רעות,אלמוגן,7.05,5685-106-13,5685/106,33653.84615384616,31.9028247058,35.0137822325,2024
2024-01-08,2024-08-01,"ניסן 89, מודיעין-מכבים-רעות",ניסן 89,5733-41-2,דירה בבית קומות,4.0,"קרקע, ראשונה",99.55,3160000,,,2013.0,,1.0,10436796552,1,573341,False,91% ב 9.5 שנים,מודיעין-מכבים-רעות,ניסן,9.58,5733-41-2,5733/41,31742.84279256655,31.9183112283,35.0100680198,2024
2024-01-07,2024-07-01,"נחל נעמן 26, מודיעין-מכבים-רעות",נחל נעמן 26,5682-103-25,דירה בבית קומות,3.0,שניה,63.2,2300000,,,1996.0,,2.0,10434072852,1,5682103,False,0% ב 1.4 שנים,מודיעין-מכבים-רעות,נחל נעמן,0.0,5682-103-25,5682/103,36392.40506329114,31.8935062776,35.0035128484,2024
2024-01-07,2024-07-01,"עמק האלה 52, מודיעין-מכבים-רעות",עמק האלה 52,5734-58-8,דירה בבית קומות,5.0,קרקע,95.9,3850000,,,2000.0,,2.0,10433016804,1,573458,False,,מודיעין-מכבים-רעות,עמק האלה,,5734-58-8,5734/58,40145.98540145985,31.9136948219,35.0085805768,2024
2024-01-07,2024-07-01,"לוע הארי 18, מודיעין-מכבים-רעות",לוע הארי 18,5655-19-2,דירה בבית קומות,4.0,קרקע ראשונה,118.5,3800000,,,1996.0,,3.0,10433078544,1,565519,False,171% ב 15.1 שנים,מודיעין-מכבים-רעות,לוע הארי,11.32,5655-19-2,5655/19,32067.510548523205,31.9052241158,35.0086078427,2024
2024-01-05,2024-05-01,"עמוס הנביא 16, מודיעין-מכבים-רעות",עמוס הנביא 16,5567-83-145,דירה בבית קומות,5.0,תשע עשרה,120.1,3860000,,,2007.0,,27.0,10427052888,1,556783,False,98% ב 11 שנים,מודיעין-מכבים-רעות,עמוס הנביא,8.91,5567-83-145,5567/83,32139.883430474605,31.9155099204,35.0019056369,2024
2024-01-04,2024-04-01,"נחל זוהר 38, מודיעין-מכבים-רעות",נחל זוהר 38,5682-46-2,קוטג' דו משפחתי,6.0,ראשונה ושניה,215.2,5004000,,,1997.0,,1.0,10424869224,1,568246,False,,מודיעין-מכבים-רעות,נחל זוהר,,5682-46-2,5682/46,23252.78810408922,31.893305765,35.0063603827,2024
2024-01-04,2024-04-01,"נחליאלי 14, מודיעין-מכבים-רעות",נחליאלי 14,5876-22-6,דירה בבית קומות,3.0,קומה ‎2‏,78.7,2600000,,,2016.0,,5.0,10425635052,1,587622,False,,מודיעין-מכבים-רעות,נחליאלי,,5876-22-6,5876/22,33036.84879288437,31.8956549617,34.9927325896,2024
2024-01-04,2024-04-01,"כסלו 41, מודיעין-מכבים-רעות",כסלו 41,5734-47-19,דירה בבית קומות,3.0,שלישית,69.45,2520000,,,2004.0,,5.0,10424953728,1,573447,False,43% ב 6.9 שנים,מודיעין-מכבים-רעות,כסלו,6.23,5734-47-19,5734/47,36285.09719222462,31.9164023957,35.0060236882,2024
2024-01-04,2024-04-01,"ערער 14, מודיעין-מכבים-רעות",ערער 14,5642-63-7,דירה בבית קומות,3.0,רביעית,104.0,2730000,,,2020.0,,3.0,10425518628,1,564263,False,,מודיעין-מכבים-רעות,ערער,,5642-63-7,5642/63,26250.0,31.9015013945,35.0087593128,2024
2024-01-02,2024-02-01,"דוכיפת 20, מודיעין-מכבים-רעות",דוכיפת 20,5873-27-12,דירה בבית קומות,3.0,קומה ‎2‏,75.35,2405000,,,2015.0,,4.0,10418823576,1,587327,False,,מודיעין-מכבים-רעות,דוכיפת,,5873-27-12,5873/27,31917.717319177176,31.897183494,34.9931166006,2024
2024-01-02,2024-02-01,"נחל הירמוך 23, מודיעין-מכבים-רעות",נחל הירמוך 23,5683-64-8,דירה בבית קומות,6.0,שניה שלישית ורביעית,162.1,4250000,,,1996.0,,5.0,10419506160,1,568364,False,176% ב 15.9 שנים,מודיעין-מכבים-רעות,נחל הירמוך,11.07,5683-64-8,5683/64,26218.383713756943,31.8963409815,35.0123985455,2024
2024-01-02,2024-02-01,"עמק דותן 19, מודיעין-מכבים-רעות",עמק דותן 19,5692-129-47,דירה בבית קומות,4.0,ראשונה,118.1,3200000,,,1998.0,,4.0,10418816604,1,5692129,False,80% ב 9 שנים,מודיעין-מכבים-רעות,עמק דותן,8.89,5692-129-47,5692/129,27095.681625740897,31.8984238504,35.0215866932,2024
2024-01-02,2024-02-01,"נחל הירקון 12, מודיעין-מכבים-רעות",נחל הירקון 12,5687-68-7,דירה בבית קומות,3.0,שניה,66.2,2200000,,,1996.0,,2.0,10419512460,1,568768,False,31% ב 2.1 שנים,מודיעין-מכבים-רעות,נחל הירקון,14.76,5687-68-7,5687/68,33232.62839879154,31.8982471562,35.0197201793,2024
2024-01-01,2024-01-01,"יהודה 45, מודיעין-מכבים-רעות",יהודה 45,5814-106-2,קוטג' דו משפחתי,5.0,ראשונה,184.0,7500000,,,1999.0,,1.0,10418317560,1,5814106,False,,מודיעין-מכבים-רעות,יהודה,,5814-106-2,5814/106,40760.86956521739,31.8885762134,35.0019345838,2024
2024-01-01,2024-01-01,"נחל געתון 26, מודיעין-מכבים-רעות",נחל געתון 26,5691-47-9,דירה בבית קומות,3.0,שניה,68.93,2100000,,,1997.0,,4.0,10416643356,1,569147,False,283% ב 23.5 שנים,מודיעין-מכבים-רעות,נחל געתון,12.04,5691-47-9,5691/47,30465.68983026258,31.8955915636,35.0230548539,2024
2024-01-01,2024-01-01,"עפרוני 27, מודיעין-מכבים-רעות",עפרוני 27,5877-54-12,דירה בבית קומות,5.0,קומה ‎2‏,121.8,3850000,,,2020.0,,3.0,10416664188,1,587754,False,,מודיעין-מכבים-רעות,עפרוני,,5877-54-12,5877/54,31609.19540229885,31.8960652418,35.0017036326,2024
