DEALDATE,DEALDATETIME,FULLADRESS,DISPLAYADRESS,GUSH,DEALNATUREDESCRIPTION,ASSETROOMNUM,FLOORNO,DEALNATURE,DEALAMOUNT,NEWPROJECTTEXT,PROJECTNAME,BUILDINGYEAR,YEARBUILT,BUILDINGFLOORS,KEYVALUE,TYPE,POLYGON_ID,TREND_IS_NEGATIVE,TREND_FORMAT,city_name,street,presentage per year,GUSH - Copy,Gush_Helka,Price per sqm,lat,lon,Year
2015-12-31,2015-12-31,"חטיבת גבעתי 7, מודיעין-מכבים-רעות",חטיבת גבעתי 7,5569-36-77,דירה בבית קומות,3.0,שניה,81.4,1489000,,,1999.0,,2.0,9691631712,1,556936,False,59% ב 6.3 שנים,מודיעין-מכבים-רעות,חטיבת גבעתי,9.37,5569-36-77,5569/36,18292.38329238329,31.9099511463,35.0019851478,2015
2015-12-31,2015-12-31,"אסתר המלכה 95, מודיעין-מכבים-רעות",אסתר המלכה 95,5818-12-7,דירה בבית קומות,4.0,"ראשונה, שניה",105.8,1990000,,,2013.0,,1.0,9745038240,1,581812,False,,מודיעין-מכבים-רעות,אסתר המלכה,,5818-12-7,5818/12,18809.07372400756,31.8820102279,35.014124154,2015
2015-12-30,2015-12-30,"הלוטוס 71, מודיעין-מכבים-רעות",הלוטוס 71,5313-8-2,קוטג' חד משפחתי,1.0,,200.0,6670000,,,1989.0,,2.0,9744851172,1,53138,False,,מודיעין-מכבים-רעות,הלוטוס,,5313-8-2,5313/8,33350.0,31.8957636515,35.0358602969,2015
2015-12-30,2015-12-30,"תכלת 1, מודיעין-מכבים-רעות",תכלת 1,5872-24-10,דירה בבית קומות,4.0,ראשונה,107.95,1920000,,,2005.0,,2.0,9744438816,1,587224,False,64% ב 6 שנים,מודיעין-מכבים-רעות,תכלת,10.67,5872-24-10,5872/24,17786.01204261232,31.9025936093,34.9999351644,2015
2015-12-30,2015-12-30,"תרשיש 75, מודיעין-מכבים-רעות",תרשיש 75,5871-11-49,דירה בבית קומות,3.0,קרקע,75.3,1680000,,,2006.0,,4.0,9744253092,1,587111,False,16% ב 2.7 שנים,מודיעין-מכבים-רעות,תרשיש,5.93,5871-11-49,5871/11,22310.756972111554,31.9041890688,34.9940331773,2015
2015-12-30,2015-12-30,"מנחם בגין 16, מודיעין-מכבים-רעות",מנחם בגין 16,5818-12-41,דירה,4.0,,112.0,1990000,1.0,וילה יורו,2013.0,,3.0,11181257345,1,581812,False,,מודיעין-מכבים-רעות,מנחם בגין,,5818-12-41,5818/12,17767.85714285714,31.8820102279,35.014124154,2015
2015-12-30,2015-12-30,"נחל צין 18, מודיעין-מכבים-רעות",נחל צין 18,5688-82-1,קוטג' דו משפחתי,5.0,קרקע וראשונה,119.5,2150000,,,1992.0,,1.0,9746026584,1,568882,False,192% ב 17.4 שנים,מודיעין-מכבים-רעות,נחל צין,11.03,5688-82-1,5688/82,17991.63179916318,31.8948467624,35.0154459965,2015
2015-12-29,2015-12-29,"דוכיפת 21, מודיעין-מכבים-רעות",דוכיפת 21,5877-25-16,דירה בבית קומות,5.0,רביעית,95.0,1900000,,,2015.0,,4.0,9745334256,1,587725,False,,מודיעין-מכבים-רעות,דוכיפת,,5877-25-16,5877/25,20000.0,31.896937235,34.9981435338,2015
2015-12-29,2015-12-29,"שלדג 12, מודיעין-מכבים-רעות",שלדג 12,5877-24-14,דירה בבית קומות,5.0,שניה,127.0,1880000,,,2015.0,,3.0,9745774248,1,587724,False,,מודיעין-מכבים-רעות,חסידה,,5877-24-14,5877/24,14803.149606299212,31.8956584931,34.9972528473,2015
2015-12-29,2015-12-29,"שבט 34, מודיעין-מכבים-רעות",שבט 34,5735-11-59,דירה בבית קומות,4.0,שניה,103.36,1720000,,,2010.0,,6.0,9691403148,1,573511,False,63% ב 5.9 שנים,מודיעין-מכבים-רעות,שבט,10.68,5735-11-59,5735/11,16640.866873065017,31.9137826768,35.0117232437,2015
2015-12-29,2015-12-29,"עמק איילון 46, מודיעין-מכבים-רעות",עמק איילון 46,5656-23-26,דירה בבית קומות,3.0,ראשונה,70.5,1550000,,,1996.0,,4.0,9744297528,1,565623,False,160% ב 13.9 שנים,מודיעין-מכבים-רעות,עמק איילון,11.51,5656-23-26,5656/23,21985.81560283688,31.9032746569,35.0125054784,2015
2015-12-29,2015-12-29,"עפרוני 9, מודיעין-מכבים-רעות",עפרוני 9,5877-47-61,דירה בבית קומות,5.0,ראשונה,114.0,2670000,,,2015.0,,6.0,9745330140,1,587747,False,,מודיעין-מכבים-רעות,עפרוני,,5877-47-61,5877/47,23421.052631578947,31.8970717325,34.9989713874,2015
2015-12-28,2015-12-28,"ציפורנית 10, מודיעין-מכבים-רעות",ציפורנית 10,5653-33-38,דירה בבית קומות,4.0,שלישית,88.48,1710000,,,1997.0,,4.0,9691231956,1,565333,False,,מודיעין-מכבים-רעות,ציפורנית,,5653-33-38,5653/33,19326.40144665461,31.9062735535,35.0144732955,2015
2015-12-28,2015-12-28,"אבני החושן 68, מודיעין-מכבים-רעות",אבני החושן 68,5868-27-28,דירה בבית קומות,4.0,ראשונה + שניה,105.0,2020000,,,2002.0,,1.0,9745686216,1,586827,False,163% ב 13.1 שנים,מודיעין-מכבים-רעות,אבני החושן,12.44,5868-27-28,5868/27,19238.09523809524,31.9059296442,34.9918214791,2015
2015-12-28,2015-12-28,"צוקית 11, מודיעין-מכבים-רעות",צוקית 11,5876-39-14,דירה בבית קומות,5.0,שניה,127.05,1877000,,,2015.0,,3.0,9745887984,1,587639,False,,מודיעין-מכבים-רעות,חסידה,,5876-39-14,5876/39,14773.711137347502,31.8959352003,34.9957780193,2015
2015-12-27,2015-12-27,"נקר 313, מודיעין-מכבים-רעות",נקר 313,5289-77-1,קוטג' חד משפחתי,6.0,ראשונה,202.0,3900000,,,1989.0,,1.0,9744264264,1,528977,False,,מודיעין-מכבים-רעות,נקר,,5289-77-1,5289/77,19306.930693069306,31.8909694611,35.0318440571,2015
2015-12-27,2015-12-27,"שלדג 1, מודיעין-מכבים-רעות",שלדג 1,5877-25-3,דירה בבית קומות,4.0,שניה,87.0,1401000,,,2015.0,,4.0,9744870576,1,587725,False,,מודיעין-מכבים-רעות,שלדג,,5877-25-3,5877/25,16103.448275862069,31.896937235,34.9981435338,2015
2015-12-27,2015-12-27,"עפרוני 1, מודיעין-מכבים-רעות",עפרוני 1,5877-29-11,דירה בבית קומות,4.0,שניה,87.0,1365000,,,2016.0,,3.0,9744474264,1,587729,False,,מודיעין-מכבים-רעות,עפרוני,,5877-29-11,5877/29,15689.655172413792,31.8961299906,34.9982827266,2015
2015-12-27,2015-12-27,"סביון 11, מודיעין-מכבים-רעות",סביון 11,5653-30-6,דירה בבית קומות,5.0,שניה,101.59,2100000,,,1997.0,,3.0,9691387776,1,565330,False,,מודיעין-מכבים-רעות,סביון,,5653-30-6,5653/30,20671.325917905306,31.9059858757,35.0138886391,2015
2015-12-27,2015-12-27,"עמק האלה 5, מודיעין-מכבים-רעות",עמק האלה 5,5570-10-45,דירה בבית קומות,3.0,חמישית,77.65,1440000,,,1998.0,,6.0,9744047964,1,557010,False,37% ב 5 שנים,מודיעין-מכבים-רעות,עמק האלה,7.4,5570-10-45,5570/10,18544.75209272376,31.9106684461,35.012355268,2015
2015-12-25,2015-12-25,"נהר הירדן 68, מודיעין-מכבים-רעות",נהר הירדן 68,5682-176-3,דירה בבית קומות,4.0,שניה,101.2,1810000,,,1999.0,,5.0,9744180432,1,5682176,False,64% ב 6.5 שנים,מודיעין-מכבים-רעות,נהר הירדן,9.85,5682-176-3,5682/176,17885.375494071144,31.8958327284,35.0048186327,2015
2015-12-25,2015-12-25,"שמואל הנביא 12, מודיעין-מכבים-רעות",שמואל הנביא 12,5569-9-58,דירה בבית קומות,4.0,שלישית,96.65,1730000,,,2000.0,,3.0,9691075296,1,55699,False,,מודיעין-מכבים-רעות,שמואל הנביא,,5569-9-58,5569/9,17899.637868598034,31.9128560793,35.0045716731,2015
2015-12-24,2015-12-24,"שרה אימנו 90, מודיעין-מכבים-רעות",שרה אימנו 90,5819-12-40,דירה בבית קומות,4.0,ראשונה,92.9,2050000,,,2008.0,,,9744295512,1,581912,False,27% ב 2.4 שנים,מודיעין-מכבים-רעות,שרה אמנו,11.25,5819-12-40,5819/12,22066.73842841765,31.8796450034,35.0073010436,2015
2015-12-24,2015-12-24,"נחל שורק 5, מודיעין-מכבים-רעות",נחל שורק 5,5684-110-2,דירת גן,4.0,קרקע,94.0,1860000,,,1997.0,,2.0,9744293328,1,5684110,False,156% ב 15 שנים,מודיעין-מכבים-רעות,נחל שורק,10.4,5684-110-2,5684/110,19787.23404255319,31.8945360054,35.0103307944,2015
2015-12-24,2015-12-24,"צוקית 11, מודיעין-מכבים-רעות",צוקית 11,5876-39-15,דירה בבית קומות,5.0,שלישית,110.35,2050000,,,2015.0,,3.0,9747777900,1,587639,False,,מודיעין-מכבים-רעות,חסידה,,5876-39-15,5876/39,18577.254191209788,31.8959352003,34.9957780193,2015
2015-12-24,2015-12-24,"מגדל עוז 11, מודיעין-מכבים-רעות",מגדל עוז 11,5683-133-163,דירה בבית קומות,5.0,רביעית,116.94,2155000,,,2000.0,,9.0,9744116676,1,5683133,False,166% ב 13.8 שנים,מודיעין-מכבים-רעות,מגדל עוז,12.03,5683-133-163,5683/133,18428.25380537028,31.8978991604,35.0129493367,2015
2015-12-23,2015-12-23,"נחל זוהר 37, מודיעין-מכבים-רעות",נחל זוהר 37,5682-26-4,דירה בבית קומות,4.0,שלישית,94.3,1860000,,,1995.0,,5.0,9744779100,1,568226,False,,מודיעין-מכבים-רעות,נחל זוהר,,5682-26-4,5682/26,19724.28419936373,31.8932569184,35.0054206491,2015
2015-12-23,2015-12-23,"מגדל הלבנון 19, מודיעין-מכבים-רעות",מגדל הלבנון 19,5684-75-41,דירה בבית קומות,4.0,שניה,100.9,1810000,,,2002.0,,10.0,9691260264,1,568475,False,61% ב 6.5 שנים,מודיעין-מכבים-רעות,מגדל הלבנון,9.38,5684-75-41,5684/75,17938.553022794844,31.8948223544,35.0078793475,2015
2015-12-23,2015-12-23,"הר ארגמן 951, מודיעין-מכבים-רעות",הר ארגמן 951,5325-3-8,קוטג' חד משפחתי,5.0,שלישית ורביעית,136.86,3075000,,,1992.0,,4.0,9744616980,1,53253,False,,מודיעין-מכבים-רעות,הר ארגמן,,5325-3-8,5325/3,22468.21569487067,31.8886473101,35.0341244688,2015
2015-12-23,2015-12-23,"שני 39, מודיעין-מכבים-רעות",שני 39,5871-48-12,קוטג' חד משפחתי,6.0,שניה ושלישית,129.2,3080000,,,2004.0,,3.0,9744004200,1,587148,False,,מודיעין-מכבים-רעות,שני,,5871-48-12,5871/48,23839.0092879257,31.9009490148,34.9946939594,2015
2015-12-21,2015-12-21,"אדמונית 8, מודיעין-מכבים-רעות",אדמונית 8,5652-29-6,דירה בבית קומות,4.0,שניה,103.35,1520000,,,1997.0,,4.0,9691522092,1,565229,False,29% ב 6.5 שנים,מודיעין-מכבים-רעות,אדמונית,4.46,5652-29-6,5652/29,14707.30527334301,31.906969689,35.0085186132,2015
2015-12-21,2015-12-21,"רחל אימנו 30, מודיעין-מכבים-רעות",רחל אימנו 30,5819-55-10,דירה בבית קומות,6.0,"שלישית, רביעית",130.6,2737000,,,2009.0,,7.0,9744240744,1,581955,False,21% ב 4.5 שנים,מודיעין-מכבים-רעות,רחל אמנו,4.67,5819-55-10,5819/55,20957.120980091884,31.8788484403,35.0069297907,2015
2015-12-21,2015-12-21,"נחל הירמוך 19, מודיעין-מכבים-רעות",נחל הירמוך 19,5688-6-1,דירת גן,4.0,קרקע,105.9,1990000,,,1996.0,,5.0,9690355080,1,56886,False,34% ב 5.8 שנים,מודיעין-מכבים-רעות,נחל הירמוך,5.86,5688-6-1,5688/6,18791.31255901794,31.89621976,35.0131937187,2015
2015-12-21,2015-12-21,"מנחם בגין 16, מודיעין-מכבים-רעות",מנחם בגין 16,5818-12-16,דירה בבית קומות,5.0,ראשונה,130.0,2665000,,,2013.0,,3.0,9745101324,1,581812,False,34% ב 1.1 שנים,מודיעין-מכבים-רעות,מנחם בגין,30.91,5818-12-16,5818/12,20500.0,31.8820102279,35.014124154,2015
2015-12-20,2015-12-20,"מנחם בגין 16, מודיעין-מכבים-רעות",מנחם בגין 16,5818-12-39,דירה,5.0,,136.0,2665000,1.0,וילה יורו,2013.0,,3.0,11181257343,1,581812,False,,מודיעין-מכבים-רעות,מנחם בגין,,5818-12-39,5818/12,19595.58823529412,31.8820102279,35.014124154,2015
2015-12-20,2015-12-20,"חסידה 17, מודיעין-מכבים-רעות",חסידה 17,5877-24-7,דירה בבית קומות,5.0,שלישית,111.55,2093000,,,2015.0,,3.0,9744465948,1,587724,False,,מודיעין-מכבים-רעות,חסידה,,5877-24-7,5877/24,18762.886597938144,31.8956584931,34.9972528473,2015
2015-12-20,2015-12-20,"נהר הירדן 20, מודיעין-מכבים-רעות",נהר הירדן 20,5683-80-12,דירה בבית קומות,4.0,שביעית,103.3,1770000,,,1996.0,,4.0,9691249092,1,568380,False,,מודיעין-מכבים-רעות,נהר הירדן,,5683-80-12,5683/80,17134.559535333978,31.8966013994,35.0099125195,2015
2015-12-17,2015-12-17,"לוע הארי 15, מודיעין-מכבים-רעות",לוע הארי 15,5655-33-8,דירה בבית קומות,5.0,שניה ושלישית,110.9,2310000,,,1998.0,,1.0,9691628940,1,565533,False,40% ב 3 שנים,מודיעין-מכבים-רעות,לוע הארי,13.33,5655-33-8,5655/33,20829.576194770063,31.9046821268,35.0089812729,2015
2015-12-17,2015-12-17,"מגדל הלבנון 7, מודיעין-מכבים-רעות",מגדל הלבנון 7,5684-75-226,דירה בבית קומות,5.0,רביעית,115.0,2180000,,,2002.0,,10.0,9745153404,1,568475,False,,מודיעין-מכבים-רעות,מגדל הלבנון,,5684-75-226,5684/75,18956.52173913044,31.8948223544,35.0078793475,2015
2015-12-17,2015-12-17,"עפרוני 9, מודיעין-מכבים-רעות",עפרוני 9,5877-47-33,דירה בבית קומות,3.0,חמישית,73.0,1087000,,,2015.0,,6.0,9745327284,1,587747,False,,מודיעין-מכבים-רעות,עפרוני,,5877-47-33,5877/47,14890.410958904107,31.8970717325,34.9989713874,2015
2015-12-17,2015-12-17,"ישעיהו הנביא 34, מודיעין-מכבים-רעות",ישעיהו הנביא 34,5567-62-11,דירה בבית קומות,3.0,שניה,65.1,1450000,,,1998.0,,4.0,9690518796,1,556762,False,26% ב 2 שנים,מודיעין-מכבים-רעות,ישעיהו הנביא,13.0,5567-62-11,5567/62,22273.42549923195,31.9138083537,35.0038670003,2015
2015-12-16,2015-12-16,"שלדג 1, מודיעין-מכבים-רעות",שלדג 1,5877-25-4,דירה בבית קומות,4.0,שניה,89.0,1369000,,,2015.0,,4.0,9745090320,1,587725,False,,מודיעין-מכבים-רעות,שלדג,,5877-25-4,5877/25,15382.022471910112,31.896937235,34.9981435338,2015
2015-12-16,2015-12-16,"נחל געתון 24, מודיעין-מכבים-רעות",נחל געתון 24,5691-45-6,דירה בבית קומות,5.0,שניה,109.2,1915000,,,1997.0,,3.0,9691514448,1,569145,False,,מודיעין-מכבים-רעות,נחל געתון,,5691-45-6,5691/45,17536.630036630035,31.8958245675,35.0227428737,2015
2015-12-16,2015-12-16,"שרה אימנו 29, מודיעין-מכבים-רעות",שרה אימנו 29,5819-79-7,דירת גן,4.0,ראשונה,125.0,2430000,,,2008.0,,2.0,9690218076,1,581979,False,,מודיעין-מכבים-רעות,שרה אמנו,,5819-79-7,5819/79,19440.0,31.8797878686,35.0090794529,2015
2015-12-16,2015-12-16,"מגדל הלבנון 19, מודיעין-מכבים-רעות",מגדל הלבנון 19,5684-75-56,דירה בבית קומות,4.0,שביעית,100.9,1650000,,,2002.0,,10.0,9691157784,1,568475,False,,מודיעין-מכבים-רעות,מגדל הלבנון,,5684-75-56,5684/75,16352.824578790882,31.8948223544,35.0078793475,2015
2015-12-15,2015-12-15,"שבט 12, מודיעין-מכבים-רעות",שבט 12,5736-28-4,דירה בבית קומות,4.0,קרקע,92.9,1950000,,,2007.0,,3.0,9689450820,1,573628,False,,מודיעין-מכבים-רעות,שבט,,5736-28-4,5736/28,20990.312163616796,31.912835741,35.0131110205,2015
2015-12-13,2015-12-13,"נחל צופר 13, מודיעין-מכבים-רעות",נחל צופר 13,5682-11-2,קוטג' חד משפחתי,6.0,קרקע וראשונה,130.4,2540000,,,1996.0,,,9691252536,1,568211,False,,מודיעין-מכבים-רעות,נחל צופר,,5682-11-2,5682/11,19478.52760736196,31.8941489079,35.0023107363,2015
2015-12-13,2015-12-13,"יואל הנביא 10, מודיעין-מכבים-רעות",יואל הנביא 10,5567-6-45,דירה בבית קומות,3.0,ראשונה,79.65,1620000,,,2002.0,,3.0,9745883868,1,55676,False,174% ב 13.8 שנים,מודיעין-מכבים-רעות,יואל הנביא,12.61,5567-6-45,5567/6,20338.98305084745,31.9162950079,35.001383526,2015
2015-12-13,2015-12-13,"עפרוני 9, מודיעין-מכבים-רעות",עפרוני 9,5877-47-21,דירה בבית קומות,3.0,חמישית,73.0,1087000,,,2015.0,,6.0,9744871920,1,587747,False,,מודיעין-מכבים-רעות,עפרוני,,5877-47-21,5877/47,14890.410958904107,31.8970717325,34.9989713874,2015
2015-12-11,2015-11-12,"עמק האלה 67, מודיעין-מכבים-רעות",עמק האלה 67,5567-10-22,דירה בבית קומות,4.0,ראשונה,107.25,1635000,,,1998.0,,2.0,9687434148,1,556710,False,25% ב 5.5 שנים,מודיעין-מכבים-רעות,עמק האלה,4.55,5567-10-22,5567/10,15244.755244755244,31.9146111495,35.0041034967,2015
2015-12-11,2015-11-12,"עמק חרוד 4, מודיעין-מכבים-רעות",עמק חרוד 4,5732-10-36,דירה בבית קומות,5.0,שלישית,113.45,1780000,,,2002.0,,3.0,9687122340,1,573210,False,31% ב 6.1 שנים,מודיעין-מכבים-רעות,עמק חרוד,5.08,5732-10-36,5732/10,15689.731159100926,31.91850235,35.003484221,2015
2015-12-11,2015-11-12,"רחל אימנו 53, מודיעין-מכבים-רעות",רחל אימנו 53,5817-40-16,דירה בבית קומות,5.0,חמישית ושישית,124.5,2502000,,,2009.0,,3.0,9687337044,1,581740,False,64% ב 5.9 שנים,מודיעין-מכבים-רעות,רחל אמנו,10.85,5817-40-16,5817/40,20096.385542168675,31.8789215675,35.0058405712,2015
2015-12-11,2015-11-12,"יששכר 19, מודיעין-מכבים-רעות",יששכר 19,5815-113-3,דירת גן,5.5,ראשונה + שניה,152.0,2745000,,,2004.0,,6.0,9688069524,1,5815113,False,,מודיעין-מכבים-רעות,יששכר,,5815-113-3,5815/113,18059.21052631579,31.8841392928,35.0018033796,2015
2015-12-11,2015-11-12,"עמק האלה 14, מודיעין-מכבים-רעות",עמק האלה 14,5736-36-46,דירה בבית קומות,5.0,"שניה, שלישית",131.7,1940000,,,2006.0,,7.0,9687330156,1,573636,False,,מודיעין-מכבים-רעות,שבט,,5736-36-46,5736/36,14730.447987851176,31.9124409591,35.0129253709,2015
2015-12-10,2015-10-12,"מגדל הלבנון 34, מודיעין-מכבים-רעות",מגדל הלבנון 34,5682-144-5,דירה בבית קומות,4.0,שניה,87.0,1550000,,,1998.0,,4.0,9684567312,1,5682144,False,22% ב 4.7 שנים,מודיעין-מכבים-רעות,מגדל הלבנון,4.68,5682-144-5,5682/144,17816.091954022988,31.8945550527,35.0067029388,2015
2015-12-08,2015-08-12,"תשרי 15, מודיעין-מכבים-רעות",תשרי 15,5733-31-8,דירה בבית קומות,5.0,ראשונה,124.95,2500000,,,2010.0,,4.0,9680995632,1,573331,False,92% ב 5.6 שנים,מודיעין-מכבים-רעות,תשרי,16.43,5733-31-8,5733/31,20008.003201280517,31.914983026,35.0101857256,2015
2015-12-07,2015-07-12,"שרה אימנו 138, מודיעין-מכבים-רעות",שרה אימנו 138,5816-10-45,דירה בבית קומות,4.0,שניה,79.0,1640000,,,2007.0,,4.0,9677650248,1,581610,False,96% ב 7.9 שנים,מודיעין-מכבים-רעות,שרה אמנו,12.15,5816-10-45,5816/10,20759.49367088608,31.8824689881,35.00398688,2015
2015-12-06,2015-06-12,"חטיבת הצנחנים 31, מודיעין-מכבים-רעות",חטיבת הצנחנים 31,5869-68-9,דירה בבית קומות,4.0,שניה,89.0,1697000,,,2005.0,,3.0,9675508416,1,586968,False,,מודיעין-מכבים-רעות,חטיבת הצנחנים,,5869-68-9,5869/68,19067.41573033708,31.9088670908,34.9974325536,2015
2015-12-06,2015-06-12,"אפרים 40, מודיעין-מכבים-רעות",אפרים 40,5816-74-2,דירה בבית קומות,5.0,"קרקע, ראשונה",164.0,3220000,,,2009.0,,1.0,9676845108,1,581674,False,,מודיעין-מכבים-רעות,אפרים,,5816-74-2,5816/74,19634.146341463416,31.8833872871,35.0046793865,2015
2015-12-05,2015-05-12,"מגדל ים 23, מודיעין-מכבים-רעות",מגדל ים 23,5868-46-10,דירה בבית קומות,4.0,שישית,92.21,1870000,,,2007.0,,6.0,9673625472,1,586846,False,,מודיעין-מכבים-רעות,מגדל ים,,5868-46-10,5868/46,20279.79611755775,31.9066801241,34.9935142362,2015
2015-12-05,2015-05-12,"שני 45, מודיעין-מכבים-רעות",שני 45,5871-44-1,דירת גן,5.0,קרקע וראשונה,135.4,3150000,,,2004.0,,3.0,9676888032,1,587144,False,201% ב 11.1 שנים,מודיעין-מכבים-רעות,שני,18.11,5871-44-1,5871/44,23264.40177252585,31.9009953996,34.9938529651,2015
2015-12-05,2015-05-12,"טבת 3, מודיעין-מכבים-רעות",טבת 3,5734-76-44,דירה בבית קומות,4.0,שישית,105.0,1605000,,,2010.0,,5.0,9672461232,1,573476,False,,מודיעין-מכבים-רעות,טבת,,5734-76-44,5734/76,15285.714285714286,31.9146168327,35.0088369572,2015
2015-12-05,2015-05-12,"עמק זבולון 39, מודיעין-מכבים-רעות",עמק זבולון 39,5869-24-5,דירה בבית קומות,3.0,שניה,78.6,1600000,,,2003.0,,2.0,9672188064,1,586924,False,61% ב 6.6 שנים,מודיעין-מכבים-רעות,עמק זבולון,9.24,5869-24-5,5869/24,20356.234096692115,31.9062874014,34.9977656667,2015
2015-12-05,2015-05-12,"דוכיפת 29, מודיעין-מכבים-רעות",דוכיפת 29,5877-81-46,דירה בבית קומות,6.0,"ראשונה, שניה",134.46,2330000,,,2015.0,,3.0,9672550524,1,587781,False,,מודיעין-מכבים-רעות,דוכיפת,,5877-81-46,5877/81,17328.57355347315,31.8967916253,34.9961815609,2015
2015-12-04,2015-04-12,"טבת 16, מודיעין-מכבים-רעות",טבת 16,5734-28-7,דירה בבית קומות,4.0,שלישית,109.95,1820000,,,2010.0,,25.0,9672137580,1,573428,False,54% ב 4.4 שנים,מודיעין-מכבים-רעות,טבת,12.27,5734-28-7,5734/28,16552.978626648477,31.9156453501,35.0079763248,2015
2015-12-04,2015-04-12,"ראובן 10, מודיעין-מכבים-רעות",ראובן 10,5815-79-4,קוטג' חד משפחתי,6.0,קרקע וראשונה,144.43,2725000,,,2003.0,,1.0,9669568608,1,581579,False,,מודיעין-מכבים-רעות,ראובן,,5815-79-4,5815/79,18867.271342518867,31.8852572169,35.0004719964,2015
2015-12-04,2015-04-12,"גדעון 3, מודיעין-מכבים-רעות",גדעון 3,5683-86-16,קוטג' חד משפחתי,6.0,שלישית ורביעית,157.4,2310000,,,1998.0,,7.0,9669666804,1,568386,False,148% ב 13.4 שנים,מודיעין-מכבים-רעות,גדעון,11.04,5683-86-16,5683/86,14675.984752223634,31.8955571126,35.0110752639,2015
2015-12-03,2015-03-12,"עמק האלה 1, מודיעין-מכבים-רעות",עמק האלה 1,5570-10-7,דירה בבית קומות,4.0,רביעית,79.0,1530000,,,1999.0,,6.0,9668046192,1,557010,False,33% ב 3.4 שנים,מודיעין-מכבים-רעות,עמק האלה,9.71,5570-10-7,5570/10,19367.08860759494,31.9106684461,35.012355268,2015
2015-12-03,2015-03-12,"כסלו 57, מודיעין-מכבים-רעות",כסלו 57,5733-24-30,דירה בבית קומות,4.5,שישית,113.2,1670000,,,2013.0,,5.0,9667373268,1,573324,False,7% ב 3.1 שנים,מודיעין-מכבים-רעות,כסלו,2.26,5733-24-30,5733/24,14752.650176678444,31.9168369786,35.00778678,2015
2015-12-03,2015-03-12,"שרה אימנו 102, מודיעין-מכבים-רעות",שרה אימנו 102,5819-9-11,דירה בבית קומות,4.0,קרקע,95.0,2010000,,,2005.0,,2.0,9668397480,1,58199,False,,מודיעין-מכבים-רעות,שרה אמנו,,5819-9-11,5819/9,21157.894736842107,31.8807002545,35.0074055484,2015
2015-12-03,2015-03-12,"ניסן 91, מודיעין-מכבים-רעות",ניסן 91,5733-41-9,דירה בבית קומות,4.0,"שניה, שלישית",99.55,1658000,,,2013.0,,1.0,9668776404,1,573341,False,,מודיעין-מכבים-רעות,ניסן,,5733-41-9,5733/41,16654.94726268207,31.9183112283,35.0100680198,2015
2015-12-03,2015-03-12,"צוקית 4, מודיעין-מכבים-רעות",צוקית 4,5876-35-3,דירה בבית קומות,5.0,קומה ‎1‏,135.88,1940000,,,2014.0,,4.0,9668981616,1,587635,False,,מודיעין-מכבים-רעות,צוקית,,5876-35-3,5876/35,14277.303503090963,31.8967954774,34.9954183472,2015
2015-12-02,2015-02-12,"שבט 47, מודיעין-מכבים-רעות",שבט 47,5735-18-6,דירה בבית קומות,4.0,שלישית,86.8,1610000,,,2008.0,,3.0,9664731468,1,573518,False,64% ב 6.5 שנים,מודיעין-מכבים-רעות,חשון,9.85,5735-18-6,5735/18,18548.387096774197,31.9148089572,35.0122234597,2015
2015-12-02,2015-02-12,"ישעיהו הנביא 31, מודיעין-מכבים-רעות",ישעיהו הנביא 31,5567-6-108,דירה בבית קומות,6.0,שישית,146.45,2700000,,,2003.0,,6.0,9665691924,1,55676,False,163% ב 14 שנים,מודיעין-מכבים-רעות,ישעיהו הנביא,11.64,5567-6-108,5567/6,18436.326391259816,31.9162950079,35.001383526,2015
2015-12-02,2015-02-12,"עפרוני 9, מודיעין-מכבים-רעות",עפרוני 9,5877-47-17,דירה בבית קומות,5.0,שלישית,114.0,2140000,,,2015.0,,6.0,9666196596,1,587747,False,,מודיעין-מכבים-רעות,עפרוני,,5877-47-17,5877/47,18771.929824561405,31.8970717325,34.9989713874,2015
2015-12-02,2015-02-12,"דוכיפת 23, מודיעין-מכבים-רעות",דוכיפת 23,5877-21-16,דירה בבית קומות,4.0,שלישית,90.79,1664000,,,2015.0,,3.0,9665707296,1,587721,False,,מודיעין-מכבים-רעות,דוכיפת,,5877-21-16,5877/21,18328.009692697437,31.8966035511,34.9972546087,2015
2015-12-02,2015-02-12,"שבט 23, מודיעין-מכבים-רעות",שבט 23,5736-36-69,דירה בבית קומות,4.0,קרקע,97.0,1670000,,,2006.0,,7.0,9664574808,1,573636,False,34% ב 5.5 שנים,מודיעין-מכבים-רעות,שבט,6.18,5736-36-69,5736/36,17216.494845360823,31.9124409591,35.0129253709,2015
2015-12-02,2015-02-12,"דוכיפת 35, מודיעין-מכבים-רעות",דוכיפת 35,5876-33-11,דירה בבית קומות,5.0,קומה ‎1‏,135.88,1970000,,,2015.0,,4.0,9665901168,1,587633,False,,מודיעין-מכבים-רעות,דוכיפת,,5876-33-11,5876/33,14498.086546953196,31.8973249408,34.9954359536,2015
2015-12-01,2015-01-12,"אסתר המלכה 23, מודיעין-מכבים-רעות",אסתר המלכה 23,5818-48-5,קוטג' דו משפחתי,6.0,קרקע וראשונה,171.09,3470000,,,2006.0,,1.0,9662804844,1,581848,False,,מודיעין-מכבים-רעות,אסתר המלכה,,5818-48-5,5818/48,20281.72306972938,31.8843648613,35.0085044358,2015
2015-12-01,2015-01-12,"עמק איילון 13, מודיעין-מכבים-רעות",עמק איילון 13,5686-29-3,דירה בבית קומות,4.5,ראשונה,108.0,1680000,,,1996.0,,2.0,9661318380,1,568629,False,,מודיעין-מכבים-רעות,עמק איילון,,5686-29-3,5686/29,15555.555555555557,31.9037726505,35.014953746,2015
2015-11-30,2015-11-30,"אסתר המלכה 96, מודיעין-מכבים-רעות",אסתר המלכה 96,5818-77-9,דירה בבית קומות,5.5,"ראשונה, שניה",155.4,2380000,,,2013.0,,1.0,9690468900,1,581877,False,,מודיעין-מכבים-רעות,מנחם בגין,,5818-77-9,5818/77,15315.315315315314,31.8820446696,35.0134464801,2015
2015-11-30,2015-11-30,"רא""ל יגאל ידין 35, מודיעין-מכבים-רעות","רא""ל יגאל ידין 35",5571-31-10,דירה בבית קומות,5.0,שניה,150.8,2020000,,,2007.0,,17.0,9688522872,1,557131,False,152% ב 12.3 שנים,מודיעין-מכבים-רעות,"רא""ל יגאל ידין",12.36,5571-31-10,5571/31,13395.22546419098,31.9053519575,35.0041445904,2015
2015-11-29,2015-11-29,"מגדל דוד 15, מודיעין-מכבים-רעות",מגדל דוד 15,5685-12-2,דירה בבית קומות,3.0,ראשונה,77.3,1480000,,,1998.0,,2.0,9688044072,1,568512,False,170% ב 17 שנים,מודיעין-מכבים-רעות,מגדל דוד,10.0,5685-12-2,5685/12,19146.183699870635,31.9007759762,35.0128943521,2015
2015-11-29,2015-11-29,"עמוס הנביא 14, מודיעין-מכבים-רעות",עמוס הנביא 14,5567-83-11,דירה בבית קומות,5.0,שישית,117.1,2090000,,,2007.0,,27.0,9689391936,1,556783,False,92% ב 7.7 שנים,מודיעין-מכבים-רעות,עמוס הנביא,11.95,5567-83-11,5567/83,17847.993168232282,31.9155099204,35.0019056369,2015
2015-11-29,2015-11-29,"מנחם בגין 84, מודיעין-מכבים-רעות",מנחם בגין 84,5819-19-48,דירה בבית קומות,4.0,קומה ‎2‏,102.5,1980000,,,2009.0,,3.0,9688199220,1,581919,False,,מודיעין-מכבים-רעות,רחל אמנו,,5819-19-48,5819/19,19317.073170731703,31.878085258,35.0075821402,2015
2015-11-29,2015-11-29,"בדולח 9, מודיעין-מכבים-רעות",בדולח 9,5871-13-31,דירה בבית קומות,4.5,ראשונה,115.0,1940000,,,2004.0,,4.0,9689342712,1,587113,False,,מודיעין-מכבים-רעות,בדולח,,5871-13-31,5871/13,16869.565217391304,31.9036549597,34.9939357722,2015
2015-11-29,2015-11-29,"נחל נטוף 780, מודיעין-מכבים-רעות",נחל נטוף 780,5326-76-1,קוטג' חד משפחתי,6.0,ראשונה,202.0,4000000,,,1997.0,,1.0,9688301868,1,532676,False,,מודיעין-מכבים-רעות,נחל נטוף,,5326-76-1,5326/76,19801.980198019803,31.8837538496,35.0339064625,2015
2015-11-29,2015-11-29,"דוכיפת 21, מודיעין-מכבים-רעות",דוכיפת 21,5877-25-11,דירה בבית קומות,4.0,שניה,89.0,1401000,,,2015.0,,4.0,9689344728,1,587725,False,,מודיעין-מכבים-רעות,דוכיפת,,5877-25-11,5877/25,15741.573033707866,31.896937235,34.9981435338,2015
2015-11-27,2015-11-27,"נחל שורק 38, מודיעין-מכבים-רעות",נחל שורק 38,5682-62-7,דירה בבית קומות,3.5,שלישית,63.0,1515000,,,1997.0,,4.0,9689669052,1,568262,False,,מודיעין-מכבים-רעות,נחל שורק,,5682-62-7,5682/62,24047.61904761905,31.8949967375,35.0052605515,2015
2015-11-27,2015-11-27,"חסידה 23, מודיעין-מכבים-רעות",חסידה 23,5876-39-7,דירה בבית קומות,5.0,שלישית,111.5,2052000,,,2015.0,,3.0,9744249732,1,587639,False,,מודיעין-מכבים-רעות,חסידה,,5876-39-7,5876/39,18403.587443946188,31.8959352003,34.9957780193,2015
2015-11-27,2015-11-27,"שבט 8, מודיעין-מכבים-רעות",שבט 8,5736-32-6,דירה בבית קומות,4.0,ראשונה,82.3,1730000,,,2007.0,,3.0,9688303212,1,573632,False,98% ב 7.8 שנים,מודיעין-מכבים-רעות,שבט,12.56,5736-32-6,5736/32,21020.656136087484,31.9124970379,35.0136169897,2015
2015-11-26,2015-11-26,"תשרי 21, מודיעין-מכבים-רעות",תשרי 21,5733-27-4,דירה בבית קומות,5.0,שניה,109.95,2400000,,,2011.0,,4.0,9688303800,1,573327,False,86% ב 6 שנים,מודיעין-מכבים-רעות,תשרי,14.33,5733-27-4,5733/27,21828.103683492496,31.9156888115,35.0097337609,2015
2015-11-26,2015-11-26,"עמק החולה 67, מודיעין-מכבים-רעות",עמק החולה 67,5688-38-23,דירה בבית קומות,4.0,שלישית,85.0,1630000,,,1996.0,,3.0,9687918492,1,568838,False,158% ב 8.7 שנים,מודיעין-מכבים-רעות,עמק החולה,18.16,5688-38-23,5688/38,19176.470588235294,31.8949364544,35.0129188241,2015
2015-11-26,2015-11-26,"עפרוני 9, מודיעין-מכבים-רעות",עפרוני 9,5877-47-15,דירה בבית קומות,5.0,שניה,114.0,2550000,,,2015.0,,6.0,9689932476,1,587747,False,,מודיעין-מכבים-רעות,עפרוני,,5877-47-15,5877/47,22368.42105263158,31.8970717325,34.9989713874,2015
2015-11-25,2015-11-25,"שמואל הנביא 4, מודיעין-מכבים-רעות",שמואל הנביא 4,5570-40-5,דירה בבית קומות,3.0,שניה,78.6,1375000,,,2000.0,,2.0,9689948436,1,557040,False,34% ב 5.4 שנים,מודיעין-מכבים-רעות,שמואל הנביא,6.3,5570-40-5,5570/40,17493.638676844785,31.9119459863,35.00614464,2015
2015-11-25,2015-11-25,"יהלום 15, מודיעין-מכבים-רעות",יהלום 15,5870-14-1,דירה בבית קומות,4.0,ראשונה,83.8,2050000,,,2005.0,,3.0,9688524888,1,587014,False,156% ב 11 שנים,מודיעין-מכבים-רעות,יהלום,14.18,5870-14-1,5870/14,24463.007159904537,31.9048483295,34.9976757198,2015
2015-11-25,2015-11-25,"אשר 10, מודיעין-מכבים-רעות",אשר 10,5815-88-7,דירת גן,4.0,קרקע,108.82,2077000,,,2005.0,,1.0,9690125760,1,581588,False,,מודיעין-מכבים-רעות,אשר,,5815-88-7,5815/88,19086.56496967469,31.8860003441,34.9998905928,2015
2015-11-25,2015-11-25,"אבני החושן 5, מודיעין-מכבים-רעות",אבני החושן 5,5872-29-17,דירה בבית קומות,4.0,שלישית,94.0,1830000,,,2005.0,,3.0,9688664160,1,587229,False,,מודיעין-מכבים-רעות,אבני החושן,,5872-29-17,5872/29,19468.08510638298,31.9023452527,34.9992755216,2015
2015-11-25,2015-11-25,"יהלום 78, מודיעין-מכבים-רעות",יהלום 78,5868-27-58,קוטג' דו משפחתי,5.0,קרקע + ראשונה,131.65,2800000,,,2002.0,,2.0,9688328832,1,586827,False,198% ב 13 שנים,מודיעין-מכבים-רעות,יהלום,15.23,5868-27-58,5868/27,21268.515001898973,31.9059296442,34.9918214791,2015
2015-11-24,2015-11-24,"עמק דותן 19, מודיעין-מכבים-רעות",עמק דותן 19,5692-129-27,דירה בבית קומות,3.0,שניה,80.65,1500000,,,1998.0,,4.0,9688340592,1,5692129,False,,מודיעין-מכבים-רעות,עמק דותן,,5692-129-27,5692/129,18598.884066955983,31.8984238504,35.0215866932,2015
2015-11-24,2015-11-24,"עמק האלה 26, מודיעין-מכבים-רעות",עמק האלה 26,5735-15-11,דירה בבית קומות,3.0,שניה,68.7,1382000,,,1999.0,,2.0,9688471716,1,573515,False,,מודיעין-מכבים-רעות,עמק האלה,,5735-15-11,5735/15,20116.448326055317,31.9127026978,35.0116165355,2015
2015-11-22,2015-11-22,"ניסן 73, מודיעין-מכבים-רעות",ניסן 73,5733-62-11,דירה בבית קומות,5.0,שלישית,105.07,2160000,,,2013.0,,4.0,9689423688,1,573362,False,44% ב 3.2 שנים,מודיעין-מכבים-רעות,ניסן,13.75,5733-62-11,5733/62,20557.72342248025,31.9170139128,35.0115447737,2015
2015-11-22,2015-11-22,"מבצע קלשון 4, מודיעין-מכבים-רעות",מבצע קלשון 4,5698-42-1,דירה בבית קומות,4.0,,112.0,1715000,,,1999.0,,1.0,9687693288,1,569842,False,,מודיעין-מכבים-רעות,מבצע קלשון,,5698-42-1,5698/42,15312.5,31.9104659911,34.9987168733,2015
2015-11-20,2015-11-20,"עמק דותן 113, מודיעין-מכבים-רעות",עמק דותן 113,5682-189-8,דירה בבית קומות,5.0,רביעית,134.1,2150000,,,2014.0,,5.0,9687853476,1,5682189,False,,מודיעין-מכבים-רעות,עמק דותן,,5682-189-8,5682/189,16032.81133482476,31.897339053,35.0074558516,2015
2015-11-20,2015-11-20,"לוע הארי 16, מודיעין-מכבים-רעות",לוע הארי 16,5655-21-8,דירה בבית קומות,4.5,שלישית,98.0,1930000,,,1996.0,,3.0,9688302540,1,565521,False,70% ב 7 שנים,מודיעין-מכבים-רעות,לוע הארי,10.0,5655-21-8,5655/21,19693.877551020407,31.9050514551,35.0089791417,2015
2015-11-20,2015-11-20,"אבני החושן 47, מודיעין-מכבים-רעות",אבני החושן 47,5871-22-36,דירה בבית קומות,4.0,שניה,93.48,1716000,,,2003.0,,3.0,9688766724,1,587122,False,,מודיעין-מכבים-רעות,אבני החושן,,5871-22-36,5871/22,18356.867779204105,31.9033443732,34.9923807247,2015
2015-11-19,2015-11-19,"דם המכבים 27, מודיעין-מכבים-רעות",דם המכבים 27,5652-50-14,דירה בבית קומות,4.0,שניה ושלישית,98.8,1850000,,,1996.0,,5.0,9687748728,1,565250,False,27% ב 3.1 שנים,מודיעין-מכבים-רעות,דם המכבים,8.71,5652-50-14,5652/50,18724.696356275304,31.9081231513,35.0084936042,2015
2015-11-19,2015-11-19,"רחל אימנו 27, מודיעין-מכבים-רעות",רחל אימנו 27,5819-51-3,דירה בבית קומות,6.0,"שניה, שלישית",123.4,2630000,,,2007.0,,3.0,9687772332,1,581951,False,113% ב 8.3 שנים,מודיעין-מכבים-רעות,רחל אמנו,13.61,5819-51-3,5819/51,21312.803889789306,31.8788064927,35.0093234166,2015
2015-11-18,2015-11-18,"עמק האלה 15, מודיעין-מכבים-רעות",עמק האלה 15,5570-8-24,דירה בבית קומות,5.0,שישית + שביעית,106.5,1980000,,,1998.0,,6.0,9688103628,1,55708,False,44% ב 5.6 שנים,מודיעין-מכבים-רעות,עמק האלה,7.86,5570-8-24,5570/8,18591.549295774646,31.9108327525,35.0108952552,2015
2015-11-17,2015-11-17,"עמק החולה 3, מודיעין-מכבים-רעות",עמק החולה 3,5692-126-13,דירה בבית קומות,4.0,שניה,89.35,1650000,,,2001.0,,3.0,9688376712,1,5692126,False,,מודיעין-מכבים-רעות,עמק החולה,,5692-126-13,5692/126,18466.70397313934,31.8933269089,35.0236590885,2015
2015-11-17,2015-11-17,"עפרוני 9, מודיעין-מכבים-רעות",עפרוני 9,5877-47-3,דירה בבית קומות,5.0,שניה,114.0,2450000,,,2015.0,,6.0,9688206192,1,587747,False,,מודיעין-מכבים-רעות,עפרוני,,5877-47-3,5877/47,21491.22807017544,31.8970717325,34.9989713874,2015
2015-11-17,2015-11-17,"עגור 344, מודיעין-מכבים-רעות",עגור 344,5289-108-1,קוטג' חד משפחתי,6.0,,216.0,4200000,,,1987.0,,2.0,9687264384,1,5289108,False,,מודיעין-מכבים-רעות,עגור,,5289-108-1,5289/108,19444.444444444445,31.8911406046,35.0302119927,2015
2015-11-17,2015-11-17,"שבט 11, מודיעין-מכבים-רעות",שבט 11,5736-39-149,דירה בבית קומות,5.0,שניה,102.0,2030000,,,2007.0,,7.0,9687684972,1,573639,False,75% ב 7.3 שנים,מודיעין-מכבים-רעות,שבט,10.27,5736-39-149,5736/39,19901.960784313724,31.912036065,35.0133046456,2015
2015-11-16,2015-11-16,"קיפודן 14, מודיעין-מכבים-רעות",קיפודן 14,5656-62-4,דירה בבית קומות,6.0,קרקע + ראשונה,161.8,2300000,,,1997.0,,2.0,9687634404,1,565662,False,,מודיעין-מכבים-רעות,קיפודן,,5656-62-4,5656/62,14215.080346106302,31.9039558856,35.0099659806,2015
2015-11-15,2015-11-15,"מגדל דוד 25, מודיעין-מכבים-רעות",מגדל דוד 25,5685-17-45,דירה בבית קומות,6.0,שש עשרה,169.0,2565000,,,1998.0,,13.0,9688535388,1,568517,False,113% ב 8.5 שנים,מודיעין-מכבים-רעות,מגדל דוד,13.29,5685-17-45,5685/17,15177.514792899408,31.9006951502,35.011482743,2015
2015-11-15,2015-11-15,"עפרוני 9, מודיעין-מכבים-רעות",עפרוני 9,5877-47-59,דירה בבית קומות,3.0,חמישית,77.0,1139000,,,2015.0,,6.0,9687641208,1,587747,False,,מודיעין-מכבים-רעות,עפרוני,,5877-47-59,5877/47,14792.207792207791,31.8970717325,34.9989713874,2015
2015-11-15,2015-11-15,"ענבר 16, מודיעין-מכבים-רעות",ענבר 16,5869-43-11,דירת גן,4.0,קרקע,92.0,1870000,,,2007.0,,2.0,9689215956,1,586943,False,,מודיעין-מכבים-רעות,ענבר,,5869-43-11,5869/43,20326.08695652174,31.9055860288,34.9956052608,2015
2015-11-15,2015-11-15,"עמק איילון 6, מודיעין-מכבים-רעות",עמק איילון 6,5654-40-60,דירה בבית קומות,4.0,שלישית,100.4,1500000,,,1997.0,,4.0,9686833884,1,565440,False,114% ב 11.8 שנים,מודיעין-מכבים-רעות,עמק איילון,9.66,5654-40-60,5654/40,14940.2390438247,31.9066916279,35.0170734476,2015
2015-11-15,2015-11-15,"עמק בית שאן 20, מודיעין-מכבים-רעות",עמק בית שאן 20,5569-49-59,דירה בבית קומות,3.0,שניה,73.2,1520000,,,1998.0,,2.0,9687300924,1,556949,False,42% ב 3.2 שנים,מודיעין-מכבים-רעות,עמק בית שאן,13.12,5569-49-59,5569/49,20765.02732240437,31.9118525204,35.0032334491,2015
2015-11-13,2015-11-13,"ירח-אב 13, מודיעין-מכבים-רעות",ירח-אב 13,5735-10-61,דירה בבית קומות,5.0,שש עשרה,101.89,1850000,,,2010.0,,21.0,9686701668,1,573510,False,27% ב 5.6 שנים,מודיעין-מכבים-רעות,ירח-אב,4.82,5735-10-61,5735/10,18156.835803317303,31.9136512293,35.0120722111,2015
2015-11-11,2015-11-11,"חסידה 34, מודיעין-מכבים-רעות",חסידה 34,5877-81-35,דירה בבית קומות,6.0,"ראשונה, שניה",134.46,4720000,,,2015.0,,3.0,9687562248,1,587781,False,,מודיעין-מכבים-רעות,חסידה,,5877-81-35,5877/81,35103.37646883832,31.8967916253,34.9961815609,2015
2015-11-06,2015-06-11,"עמוס הנביא 16, מודיעין-מכבים-רעות",עמוס הנביא 16,5567-83-112,דירה בבית קומות,4.0,עשירית,102.5,1850000,,,2007.0,,27.0,9675464652,1,556783,False,107% ב 7.4 שנים,מודיעין-מכבים-רעות,עמוס הנביא,14.46,5567-83-112,5567/83,18048.78048780488,31.9155099204,35.0019056369,2015
2015-11-05,2015-05-11,"דפנה 1, מודיעין-מכבים-רעות",דפנה 1,5655-52-7,דירה בבית קומות,3.0,שלישית,71.5,1315000,,,1995.0,,3.0,9672190080,1,565552,False,,מודיעין-מכבים-רעות,דפנה,,5655-52-7,5655/52,18391.60839160839,31.9052329506,35.010523015,2015
2015-11-05,2015-05-11,"דוכיפת 19, מודיעין-מכבים-רעות",דוכיפת 19,5877-25-22,דירה בבית קומות,5.0,שלישית,108.0,1900000,,,2015.0,,3.0,9674822892,1,587725,False,,מודיעין-מכבים-רעות,דוכיפת,,5877-25-22,5877/25,17592.59259259259,31.896937235,34.9981435338,2015
2015-11-05,2015-05-11,"רחל אימנו 44, מודיעין-מכבים-רעות",רחל אימנו 44,5817-61-24,דירת גן,6.0,"שישית, שביעית",158.9,3150000,,,2007.0,,6.0,9674966280,1,581761,False,,מודיעין-מכבים-רעות,רחל אמנו,,5817-61-24,5817/61,19823.788546255502,31.880406647,35.0063625124,2015
2015-11-03,2015-03-11,"רחל אימנו 22, מודיעין-מכבים-רעות",רחל אימנו 22,5819-57-15,דירה בבית קומות,6.0,"רביעית, חמישית",130.5,2584000,,,2010.0,,7.0,9667317744,1,581957,False,23% ב 2.8 שנים,מודיעין-מכבים-רעות,רחל אמנו,8.21,5819-57-15,5819/57,19800.766283524903,31.8788326285,35.0082141548,2015
2015-11-03,2015-03-11,"שמואל הנביא 12, מודיעין-מכבים-רעות",שמואל הנביא 12,5569-9-56,דירה בבית קומות,4.0,שניה,101.4,1800000,,,2000.0,,3.0,9668258124,1,55699,False,,מודיעין-מכבים-רעות,שמואל הנביא,,5569-9-56,5569/9,17751.479289940828,31.9128560793,35.0045716731,2015
2015-11-03,2015-03-11,"יואל הנביא 2, מודיעין-מכבים-רעות",יואל הנביא 2,5567-6-71,דירה בבית קומות,3.0,קרקע,80.6,1570000,,,2001.0,,2.0,9667599816,1,55676,False,25% ב 2.2 שנים,מודיעין-מכבים-רעות,יואל הנביא,11.36,5567-6-71,5567/6,19478.90818858561,31.9162950079,35.001383526,2015
2015-11-03,2015-03-11,"עמוס הנביא 16, מודיעין-מכבים-רעות",עמוס הנביא 16,5567-83-165,דירה בבית קומות,5.0,עשרים וארבע,107.0,2220000,,,2007.0,,27.0,9667315560,1,556783,False,,מודיעין-מכבים-רעות,עמוס הנביא,,5567-83-165,5567/83,20747.66355140187,31.9155099204,35.0019056369,2015
2015-11-03,2015-03-11,"הדורית 264, מודיעין-מכבים-רעות",הדורית 264,5289-28-1,קוטג' חד משפחתי,6.0,ראשונה,224.0,5099000,,,1995.0,,1.0,9668553384,1,528928,False,,מודיעין-מכבים-רעות,הדורית,,5289-28-1,5289/28,22763.39285714286,31.8925171199,35.029423845,2015
2015-11-03,2015-03-11,"חטיבת גבעתי 2, מודיעין-מכבים-רעות",חטיבת גבעתי 2,5569-29-47,דירה בבית קומות,4.0,שניה,94.0,1520000,,,1999.0,,2.0,9667298424,1,556929,False,,מודיעין-מכבים-רעות,חטיבת גבעתי,,5569-29-47,5569/29,16170.212765957447,31.9101266313,35.0033023407,2015
2015-11-03,2015-03-11,"רא""ל מרדכי מקלף 22, מודיעין-מכבים-רעות","רא""ל מרדכי מקלף 22",5697-14-3,דירת גן,4.0,קרקע וראשונה,125.0,2230000,,,1999.0,,1.0,9667222908,1,569714,False,30% ב 4.1 שנים,מודיעין-מכבים-רעות,"רא""ל מרדכי מקלף",7.32,5697-14-3,5697/14,17840.0,31.9067761255,35.0002595259,2015
2015-11-03,2015-03-11,"לוי 17, מודיעין-מכבים-רעות",לוי 17,5813-8-12,דירה בבית קומות,4.0,שניה,89.45,1515000,,,2002.0,,1.0,9669990036,1,58138,False,,מודיעין-מכבים-רעות,לוי,,5813-8-12,5813/8,16936.83622135271,31.887524049,35.009501389,2015
2015-11-03,2015-03-11,"טבת 17, מודיעין-מכבים-רעות",טבת 17,5734-66-23,דירה בבית קומות,4.0,שישית,95.47,1780000,,,2010.0,,5.0,9668842848,1,573466,False,38% ב 4.6 שנים,מודיעין-מכבים-רעות,טבת,8.26,5734-66-23,5734/66,18644.600398030798,31.9153223216,35.0069988936,2015
2015-11-02,2015-02-11,"מנחם בגין 72, מודיעין-מכבים-רעות",מנחם בגין 72,5819-19-55,דירה בבית קומות,4.5,קומה ‎0‏,111.3,2490000,,,2010.0,,3.0,9664641252,1,581919,False,,מודיעין-מכבים-רעות,מנחם בגין,,5819-19-55,5819/19,22371.96765498652,31.878085258,35.0075821402,2015
2015-11-02,2015-02-11,"עמוס הנביא 16, מודיעין-מכבים-רעות",עמוס הנביא 16,5567-83-117,דירה בבית קומות,5.0,שתים עשרה,120.3,2075000,,,2007.0,,27.0,9665690664,1,556783,False,,מודיעין-מכבים-רעות,עמוס הנביא,,5567-83-117,5567/83,17248.545303408147,31.9155099204,35.0019056369,2015
2015-11-02,2015-02-11,"חשוון 19, מודיעין-מכבים-רעות",חשוון 19,5735-18-27,דירה בבית קומות,4.0,ראשונה,85.25,1750000,,,2008.0,,3.0,9665267892,1,573518,False,83% ב 6 שנים,מודיעין-מכבים-רעות,חשון,13.83,5735-18-27,5735/18,20527.859237536657,31.9148089572,35.0122234597,2015
2015-11-02,2015-02-11,"ניסן 95, מודיעין-מכבים-רעות",ניסן 95,5733-42-10,דירה בבית קומות,4.0,"קרקע, ראשונה",99.55,1665000,,,2013.0,,1.0,9665193048,1,573342,False,,מודיעין-מכבים-רעות,ניסן,,5733-42-10,5733/42,16725.263686589653,31.9185322371,35.0097290062,2015
2015-11-01,2015-01-11,"לוי 13, מודיעין-מכבים-רעות",לוי 13,5813-8-19,דירה בבית קומות,5.0,קרקע וראשונה,124.35,2450000,,,2001.0,,1.0,9661104264,1,58138,False,121% ב 8.6 שנים,מודיעין-מכבים-רעות,לוי,14.07,5813-8-19,5813/8,19702.45275432248,31.887524049,35.009501389,2015
2015-11-01,2015-01-11,"שמואל הנביא 7, מודיעין-מכבים-רעות",שמואל הנביא 7,5569-13-24,דירה בבית קומות,4.0,ראשונה,87.5,1435000,,,1998.0,,2.0,9662438268,1,556913,False,132% ב 16.2 שנים,מודיעין-מכבים-רעות,שמואל הנביא,8.15,5569-13-24,5569/13,16400.0,31.9115277263,35.0050659673,2015
2015-11-01,2015-01-11,"מנחם בגין 72, מודיעין-מכבים-רעות",מנחם בגין 72,5819-19-7,דירה בבית קומות,6.0,קומה ‎0‏,111.3,2130000,,,2010.0,,3.0,9664190256,1,581919,True,-7% ב 0.9 שנים,מודיעין-מכבים-רעות,רחל אמנו,-7.78,5819-19-7,5819/19,19137.466307277627,31.878085258,35.0075821402,2015
2015-10-30,2015-10-30,"תכלת 81, מודיעין-מכבים-רעות",תכלת 81,5871-39-10,דירת גן,5.0,ראשונה,110.4,2380000,,,2005.0,,4.0,9686149200,1,587139,False,,מודיעין-מכבים-רעות,תכלת,,5871-39-10,5871/39,21557.971014492752,31.9022335838,34.9933727963,2015
2015-10-30,2015-10-30,"לבונה 23, מודיעין-מכבים-רעות",לבונה 23,5685-39-5,דירה בבית קומות,4.0,שניה,106.45,1805000,,,1996.0,,2.0,9685914336,1,568539,False,126% ב 11.4 שנים,מודיעין-מכבים-רעות,לבונה,11.05,5685-39-5,5685/39,16956.317519962424,31.9000313504,35.0096394451,2015
2015-10-29,2015-10-29,"חטיבת אלכסנדרוני 1, מודיעין-מכבים-רעות",חטיבת אלכסנדרוני 1,5569-37-10,דירת גן,4.5,קרקע וראשונה,137.0,2500000,,,1997.0,,2.0,9686247648,1,556937,False,,מודיעין-מכבים-רעות,חטיבת אלכסנדרוני,,5569-37-10,5569/37,18248.17518248175,31.9093182772,35.002879911,2015
2015-10-28,2015-10-28,"נחל זוהר 23, מודיעין-מכבים-רעות",נחל זוהר 23,5684-115-5,דירה בבית קומות,4.0,רביעית + חמישית,98.0,1630000,,,1995.0,,3.0,9687292188,1,5684115,False,,מודיעין-מכבים-רעות,נחל זוהר,,5684-115-5,5684/115,16632.65306122449,31.8923113345,35.0073016958,2015
2015-10-28,2015-10-28,"לאה אימנו 81, מודיעין-מכבים-רעות",לאה אימנו 81,5817-17-46,דירה בבית קומות,4.0,ראשונה,99.0,1750000,,,2008.0,,1.0,9686539548,1,581717,False,74% ב 6.2 שנים,מודיעין-מכבים-רעות,לאה אמנו,11.94,5817-17-46,5817/17,17676.76767676768,31.8806323444,35.0029617917,2015
2015-10-28,2015-10-28,"תשרי 17, מודיעין-מכבים-רעות",תשרי 17,5733-28-6,דירה בבית קומות,5.0,"שניה, שלישית",123.05,2340000,,,2010.0,,3.0,9686032944,1,573328,False,85% ב 6.1 שנים,מודיעין-מכבים-רעות,תשרי,13.93,5733-28-6,5733/28,19016.65989435189,31.915403193,35.0100414545,2015
2015-10-28,2015-10-28,"עמק זבולון 23, מודיעין-מכבים-רעות",עמק זבולון 23,5870-64-8,דירת גן,4.0,קרקע,101.4,2170000,,,2003.0,,2.0,9686570628,1,587064,False,,מודיעין-מכבים-רעות,עמק זבולון,,5870-64-8,5870/64,21400.394477317557,31.9041468511,34.9989860444,2015
2015-10-28,2015-10-28,"שרה אימנו 134, מודיעין-מכבים-רעות",שרה אימנו 134,5816-10-25,דירה בבית קומות,4.0,שלישית,80.0,1825000,,,2007.0,,6.0,9686147856,1,581610,False,,מודיעין-מכבים-רעות,שרה אמנו,,5816-10-25,5816/10,22812.5,31.8824689881,35.00398688,2015
2015-10-28,2015-10-28,"בדולח 23, מודיעין-מכבים-רעות",בדולח 23,5871-4-27,דירה בבית קומות,4.0,שניה,87.0,1770000,,,2003.0,,4.0,9688034328,1,58714,False,184% ב 12.2 שנים,מודיעין-מכבים-רעות,בדולח,15.08,5871-4-27,5871/4,20344.82758620689,31.9052912295,34.9942287672,2015
2015-10-28,2015-10-28,"חסידה 26, מודיעין-מכבים-רעות",חסידה 26,5877-28-8,דירה בבית קומות,5.0,שלישית,97.0,1900000,,,2015.0,,3.0,9687179040,1,587728,False,,מודיעין-מכבים-רעות,חסידה,,5877-28-8,5877/28,19587.628865979383,31.8961950062,34.9978982716,2015
2015-10-28,2015-10-28,"דוכיפת 20, מודיעין-מכבים-רעות",דוכיפת 20,5873-27-4,דירה בבית קומות,5.0,קומה ‎1‏,121.87,2707000,,,2015.0,,4.0,9687633060,1,587327,False,,מודיעין-מכבים-רעות,דוכיפת,,5873-27-4,5873/27,22212.19332075162,31.897183494,34.9931166006,2015
2015-10-27,2015-10-27,"ראובן 15, מודיעין-מכבים-רעות",ראובן 15,5814-79-1,דירה בבית קומות,5.0,קרקע,108.75,2380000,,,2007.0,,1.0,9686270664,1,581479,False,,מודיעין-מכבים-רעות,ראובן,,5814-79-1,5814/79,21885.05747126437,31.8853830345,35.0018818623,2015
2015-10-27,2015-10-27,"עמק האלה 15, מודיעין-מכבים-רעות",עמק האלה 15,5570-8-21,דירה בבית קומות,3.0,חמישית,73.0,1400000,,,1998.0,,6.0,9687213144,1,55708,False,86% ב 6.3 שנים,מודיעין-מכבים-רעות,עמק האלה,13.65,5570-8-21,5570/8,19178.08219178082,31.9108327525,35.0108952552,2015
2015-10-27,2015-10-27,"דוכיפת 20, מודיעין-מכבים-רעות",דוכיפת 20,5873-27-3,דירה בבית קומות,5.0,קומה ‎1‏,121.89,2680000,,,2015.0,,4.0,9686825568,1,587327,False,,מודיעין-מכבים-רעות,דוכיפת,,5873-27-3,5873/27,21987.0374928214,31.897183494,34.9931166006,2015
2015-10-26,2015-10-26,"עמק האלה 7, מודיעין-מכבים-רעות",עמק האלה 7,5570-10-52,דירה בבית קומות,4.0,שניה,103.1,1760000,,,1998.0,,6.0,9687299832,1,557010,False,130% ב 8.4 שנים,מודיעין-מכבים-רעות,עמק האלה,15.48,5570-10-52,5570/10,17070.805043646946,31.9106684461,35.012355268,2015
2015-10-26,2015-10-26,"נחל זוהר 8, מודיעין-מכבים-רעות",נחל זוהר 8,5684-77-1,דירה בבית קומות,5.0,קרקע ראשונה ושניה,136.3,2675000,,,2002.0,,,9686472180,1,568477,False,154% ב 12.8 שנים,מודיעין-מכבים-רעות,נחל זוהר,12.03,5684-77-1,5684/77,19625.82538517975,31.8927493312,35.0093598335,2015
2015-10-26,2015-10-26,"בנימין 26, מודיעין-מכבים-רעות",בנימין 26,5813-74-1,קוטג' דו משפחתי,6.0,ראשונה,150.0,3975000,,,2001.0,,1.0,9685509036,1,581374,False,,מודיעין-מכבים-רעות,בנימין,,5813-74-1,5813/74,26500.0,31.8873806812,35.0063408467,2015
2015-10-25,2015-10-25,"רא""ל חיים לסקוב 23, מודיעין-מכבים-רעות","רא""ל חיים לסקוב 23",5698-15-11,דירה בבית קומות,5.0,קרקע,107.6,1835000,,,1998.0,,1.0,9686483940,1,569815,False,,מודיעין-מכבים-רעות,"רא""ל חיים לסקוב",,5698-15-11,5698/15,17053.90334572491,31.9103500216,34.9983159562,2015
2015-10-25,2015-10-25,"דוכיפת 28, מודיעין-מכבים-רעות",דוכיפת 28,5873-23-4,דירה בבית קומות,5.0,קומה ‎1‏,121.85,2657000,,,2015.0,,4.0,9686853372,1,587323,False,,מודיעין-מכבים-רעות,דוכיפת,,5873-23-4,5873/23,21805.498563807963,31.8961588939,34.9916355353,2015
2015-10-25,2015-10-25,"צוקית 9, מודיעין-מכבים-רעות",צוקית 9,5877-81-23,דירה בבית קומות,4.0,שלישית,90.79,1764000,,,2015.0,,3.0,9686028744,1,587781,False,,מודיעין-מכבים-רעות,חסידה,,5877-81-23,5877/81,19429.452582883576,31.8967916253,34.9961815609,2015
2015-10-23,2015-10-23,"עמק דותן 86, מודיעין-מכבים-רעות",עמק דותן 86,5685-35-15,דירה בבית קומות,3.0,שלישית,69.1,1435000,,,1997.0,,3.0,9685730712,1,568535,False,,מודיעין-מכבים-רעות,עמק דותן,,5685-35-15,5685/35,20767.00434153401,31.8994497347,35.0105329943,2015
2015-10-23,2015-10-23,"מגדל עוז 11, מודיעין-מכבים-רעות",מגדל עוז 11,5683-133-161,דירה בבית קומות,3.5,שלישית,75.84,1670000,,,2000.0,,9.0,9685997496,1,5683133,False,62% ב 5.8 שנים,מודיעין-מכבים-רעות,מגדל עוז,10.69,5683-133-161,5683/133,22020.042194092825,31.8978991604,35.0129493367,2015
2015-10-22,2015-10-22,"תרשיש 34, מודיעין-מכבים-רעות",תרשיש 34,5871-9-18,דירה בבית קומות,4.0,שניה ושלישית,118.9,1790000,,,2003.0,,2.0,9685116000,1,58719,False,141% ב 13 שנים,מודיעין-מכבים-רעות,תרשיש,10.85,5871-9-18,5871/9,15054.66778805719,31.9049171999,34.9931726573,2015
2015-10-22,2015-10-22,"לשם 59, מודיעין-מכבים-רעות",לשם 59,5871-30-14,דירה בבית קומות,4.0,שניה,88.0,1700000,,,2003.0,,4.0,9685048800,1,587130,False,6% ב 1.5 שנים,מודיעין-מכבים-רעות,לשם,4.0,5871-30-14,5871/30,19318.18181818182,31.9025618088,34.9953465624,2015
2015-10-22,2015-10-22,"לילך 35, מודיעין-מכבים-רעות",לילך 35,5293-18-1,קוטג' חד משפחתי,5.0,,186.0,4050000,,,1998.0,,,9686525520,1,529318,False,,מודיעין-מכבים-רעות,לילך,,5293-18-1,5293/18,21774.1935483871,31.8840542534,35.0235010272,2015
2015-10-21,2015-10-21,"שבט 30, מודיעין-מכבים-רעות",שבט 30,5735-11-0,דירת גג,5.0,חמישית,143.0,2725000,,,2011.0,,6.0,9685742472,1,573511,False,,מודיעין-מכבים-רעות,שבט,,5735-11-0,5735/11,19055.94405594405,31.9137826768,35.0117232437,2015
2015-10-21,2015-10-21,"אפרים 32, מודיעין-מכבים-רעות",אפרים 32,5816-70-4,דירת גג,5.0,"ראשונה, שניה, שלישית",169.55,3825000,,,2008.0,,1.0,9685361364,1,581670,False,104% ב 7.1 שנים,מודיעין-מכבים-רעות,אפרים,14.65,5816-70-4,5816/70,22559.716897670303,31.884049244,35.0054636247,2015
2015-10-21,2015-10-21,"טבת 12, מודיעין-מכבים-רעות",טבת 12,5734-29-9,דירה בבית קומות,3.0,שלישית,92.4,1560000,,,2010.0,,5.0,9687079248,1,573429,False,76% ב 5.4 שנים,מודיעין-מכבים-רעות,טבת,14.07,5734-29-9,5734/29,16883.116883116883,31.9151676546,35.0083005751,2015
2015-10-21,2015-10-21,"מגדל עוז 7, מודיעין-מכבים-רעות",מגדל עוז 7,5683-133-93,דירה בבית קומות,5.0,ראשונה,116.74,2040000,,,2000.0,,9.0,9685105836,1,5683133,False,,מודיעין-מכבים-רעות,מגדל עוז,,5683-133-93,5683/133,17474.730169607676,31.8978991604,35.0129493367,2015
2015-10-21,2015-10-21,"שלדג 6, מודיעין-מכבים-רעות",שלדג 6,5877-21-49,דירה בבית קומות,3.0,שניה,77.0,822000,,,2015.0,,3.0,9686344836,1,587721,False,,מודיעין-מכבים-רעות,שלדג,,5877-21-49,5877/21,10675.324675324677,31.8966035511,34.9972546087,2015
2015-10-20,2015-10-20,"ישעיהו הנביא 39, מודיעין-מכבים-רעות",ישעיהו הנביא 39,5567-8-16,דירה בבית קומות,4.0,רביעית,112.0,2390000,,,1999.0,,4.0,9685491564,1,55678,False,216% ב 15.5 שנים,מודיעין-מכבים-רעות,ישעיהו הנביא,13.94,5567-8-16,5567/8,21339.285714285717,31.9161231047,35.0032048946,2015
2015-10-20,2015-10-20,"מגדל הלבנון 13, מודיעין-מכבים-רעות",מגדל הלבנון 13,5684-75-145,דירה בבית קומות,5.0,שביעית,115.0,1820000,,,2002.0,,10.0,9685521552,1,568475,False,24% ב 1.8 שנים,מודיעין-מכבים-רעות,מגדל הלבנון,13.33,5684-75-145,5684/75,15826.08695652174,31.8948223544,35.0078793475,2015
2015-10-19,2015-10-19,"רחל אימנו 44, מודיעין-מכבים-רעות",רחל אימנו 44,5817-61-1,דירת גן,5.0,"ראשונה, שניה",129.9,2880000,,,2007.0,,6.0,9686964840,1,581761,False,,מודיעין-מכבים-רעות,רחל אמנו,,5817-61-1,5817/61,22170.900692840645,31.880406647,35.0063625124,2015
2015-10-19,2015-10-19,"נחל שורק 4, מודיעין-מכבים-רעות",נחל שורק 4,5683-112-3,דירה בבית קומות,3.0,שניה,65.4,1350000,,,1999.0,,4.0,9685632852,1,5683112,False,,מודיעין-מכבים-רעות,נחל שורק,,5683-112-3,5683/112,20642.201834862382,31.8946626987,35.0107412117,2015
2015-10-18,2015-10-18,"נחל צלמון 2, מודיעין-מכבים-רעות",נחל צלמון 2,5684-68-15,דירה בבית קומות,5.0,ראשונה,106.9,1800000,,,1997.0,,4.0,9685633524,1,568468,False,,מודיעין-מכבים-רעות,נחל צלמון,,5684-68-15,5684/68,16838.166510757717,31.893400191,35.0097341589,2015
2015-10-18,2015-10-18,"רא""ל דוד אלעזר 5, מודיעין-מכבים-רעות","רא""ל דוד אלעזר 5",5693-40-5,דירה בבית קומות,4.5,קרקע וראשונה,129.5,2350000,,,1997.0,,1.0,9685071732,1,569340,False,,מודיעין-מכבים-רעות,"רא""ל דוד אלעזר",,5693-40-5,5693/40,18146.718146718147,31.9072733682,35.0032465306,2015
2015-10-18,2015-10-18,"נפתלי 13, מודיעין-מכבים-רעות",נפתלי 13,5813-15-15,דירה בבית קומות,5.0,ראשונה+שניה,117.0,2350000,,,2004.0,,5.0,9685004532,1,581315,False,,מודיעין-מכבים-רעות,נפתלי,,5813-15-15,5813/15,20085.47008547009,31.8860715339,35.0073801604,2015
2015-10-16,2015-10-16,"עמק איילון 10, מודיעין-מכבים-רעות",עמק איילון 10,5654-40-4,דירה בבית קומות,4.0,ראשונה,93.9,1712000,,,1997.0,,5.0,9685070388,1,565440,False,242% ב 8.6 שנים,מודיעין-מכבים-רעות,עמק איילון,28.14,5654-40-4,5654/40,18232.1618743344,31.9066916279,35.0170734476,2015
2015-10-16,2015-10-16,"שני 29, מודיעין-מכבים-רעות",שני 29,5874-21-2,דירה בבית קומות,5.0,ראשונה ושניה,130.45,2760000,,,2004.0,,,9685444524,1,587421,False,148% ב 12.4 שנים,מודיעין-מכבים-רעות,שני,11.94,5874-21-2,5874/21,21157.53162131085,31.8999380592,34.9961314492,2015
2015-10-13,2015-10-13,"נחליאלי 33, מודיעין-מכבים-רעות",נחליאלי 33,5876-16-4,דירה בבית קומות,4.5,קומה ‎1‏,148.94,1870000,,,2015.0,,3.0,9685784724,1,587616,False,,מודיעין-מכבים-רעות,נחליאלי,,5876-16-4,5876/16,12555.391432791728,31.8954485486,34.9908850405,2015
2015-10-13,2015-10-13,"שקמה 13, מודיעין-מכבים-רעות",שקמה 13,5294-230-1,קוטג' חד משפחתי,6.5,,167.0,4333000,,,1991.0,,2.0,9686952492,1,5294230,False,,מודיעין-מכבים-רעות,שקמה,,5294-230-1,5294/230,25946.107784431137,31.8930259471,35.0132902282,2015
2015-10-12,2015-12-10,"רא""ל דוד אלעזר 18, מודיעין-מכבים-רעות","רא""ל דוד אלעזר 18",5569-45-28,דירה בבית קומות,4.0,ראשונה,93.7,1730000,,,2002.0,,2.0,9690940728,1,556945,False,19% ב 4.7 שנים,מודיעין-מכבים-רעות,"רא""ל דוד אלעזר",4.04,5569-45-28,5569/45,18463.180362860192,31.9087132836,35.0021690364,2015
2015-10-12,2015-12-10,"מבצע יונתן 20, מודיעין-מכבים-רעות",מבצע יונתן 20,5695-49-1,דירה בבית קומות,5.0,מרתף קרקע וראשונה,162.0,2935000,,,1999.0,,1.0,9690615732,1,569549,False,,מודיעין-מכבים-רעות,מבצע יונתן,,5695-49-1,5695/49,18117.28395061728,31.9065630576,35.0012377719,2015
2015-10-11,2015-11-10,"מנחם בגין 16, מודיעין-מכבים-רעות",מנחם בגין 16,5818-12-12,דירה בבית קומות,4.5,ראשונה,135.0,2090000,,,2013.0,,3.0,9688370412,1,581812,True,-21% ב 1.2 שנים,מודיעין-מכבים-רעות,מנחם בגין,-17.5,5818-12-12,5818/12,15481.481481481482,31.8820102279,35.014124154,2015
2015-10-11,2015-11-10,"חטיבת גבעתי 42, מודיעין-מכבים-רעות",חטיבת גבעתי 42,5567-70-15,דירה בבית קומות,4.0,שלישית,100.3,1570000,,,1999.0,,3.0,9690436308,1,556770,False,199% ב 17.6 שנים,מודיעין-מכבים-רעות,חטיבת גבעתי,11.31,5567-70-15,5567/70,15653.040877367896,31.9130989934,35.0000620027,2015
2015-10-11,2015-11-10,"חטיבת אלכסנדרוני 6, מודיעין-מכבים-רעות",חטיבת אלכסנדרוני 6,5569-36-24,דירה בבית קומות,4.0,שניה,102.35,1550000,,,1997.0,,2.0,9687356448,1,556936,False,13% ב 4.3 שנים,מודיעין-מכבים-רעות,חטיבת אלכסנדרוני,3.02,5569-36-24,5569/36,15144.113336590131,31.9099511463,35.0019851478,2015
2015-10-11,2015-11-10,"כסלו 65, מודיעין-מכבים-רעות",כסלו 65,5733-29-1,דירה בבית קומות,5.0,"קרקע, ראשונה",124.7,2550000,,,2010.0,,4.0,9687794592,1,573329,False,41% ב 4.4 שנים,מודיעין-מכבים-רעות,כסלו,9.32,5733-29-1,5733/29,20449.077786688053,31.915940511,35.0089713692,2015
2015-10-09,2015-09-10,"אייר 17, מודיעין-מכבים-רעות",אייר 17,5733-64-21,דירה בבית קומות,5.0,ראשונה,102.14,1800000,,,2014.0,,5.0,9684256764,1,573364,False,,מודיעין-מכבים-רעות,אייר,,5733-64-21,5733/64,17622.87056980615,31.9165287247,35.0111176003,2015
2015-10-09,2015-09-10,"תכלת 60, מודיעין-מכבים-רעות",תכלת 60,5871-24-94,דירה בבית קומות,4.0,שישית,84.6,1880000,,,2008.0,,,9683746044,1,587124,False,143% ב 8.7 שנים,מודיעין-מכבים-רעות,תכלת,16.44,5871-24-94,5871/24,22222.222222222223,31.9027909656,34.9937141944,2015
2015-10-08,2015-08-10,"חרצית 32, מודיעין-מכבים-רעות",חרצית 32,5653-6-18,דירה בבית קומות,4.0,שביעית,101.0,1810000,,,2002.0,,21.0,9682140384,1,56536,False,28% ב 3.4 שנים,מודיעין-מכבים-רעות,חרצית,8.24,5653-6-18,5653/6,17920.79207920792,31.9067455537,35.0114550657,2015
2015-10-08,2015-08-10,"לשם 69, מודיעין-מכבים-רעות",לשם 69,5870-23-31,דירה בבית קומות,3.0,רביעית,82.2,1560000,,,2003.0,,4.0,9682698900,1,587023,False,166% ב 12 שנים,מודיעין-מכבים-רעות,לשם,13.83,5870-23-31,5870/23,18978.10218978102,31.9035374114,34.9955833082,2015
2015-10-08,2015-08-10,"ניסן 73, מודיעין-מכבים-רעות",ניסן 73,5733-62-33,דירה בבית קומות,5.0,שניה,104.53,1420000,,,2013.0,,4.0,9683234568,1,573362,False,,מודיעין-מכבים-רעות,ניסן,,5733-62-33,5733/62,13584.61685640486,31.9170139128,35.0115447737,2015
2015-10-08,2015-08-10,"שבט 6, מודיעין-מכבים-רעות",שבט 6,5736-33-13,דירת גן,4.0,קרקע,91.35,1750000,,,2008.0,,3.0,9681093912,1,573633,False,66% ב 6.8 שנים,מודיעין-מכבים-רעות,שבט,9.71,5736-33-13,5736/33,19157.088122605364,31.9120146305,35.0139716718,2015
2015-10-08,2015-08-10,"צאלון 7, מודיעין-מכבים-רעות",צאלון 7,5654-13-12,דירה בבית קומות,3.0,ראשונה,61.2,1160000,,,1996.0,,2.0,9681104244,1,565413,False,122% ב 9 שנים,מודיעין-מכבים-רעות,צאלון,13.56,5654-13-12,5654/13,18954.24836601307,31.9080683496,35.0149566824,2015
2015-10-07,2015-07-10,"אליהו הנביא 18, מודיעין-מכבים-רעות",אליהו הנביא 18,5570-24-47,דירה בבית קומות,3.0,קרקע,73.0,1370000,,,1998.0,,2.0,9677852688,1,557024,False,106% ב 9.2 שנים,מודיעין-מכבים-רעות,אליהו הנביא,11.52,5570-24-47,5570/24,18767.12328767123,31.9115569975,35.0085326657,2015
2015-10-07,2015-07-10,"אדר 31, מודיעין-מכבים-רעות",אדר 31,5735-31-6,דירה בבית קומות,4.0,שניה,86.15,1666000,,,2008.0,,3.0,9680430648,1,573531,False,84% ב 6 שנים,מודיעין-מכבים-רעות,אדר,14.0,5735-31-6,5735/31,19338.36331979106,31.9148249046,35.0136093908,2015
2015-10-06,2015-06-10,"דפנה 12, מודיעין-מכבים-רעות",דפנה 12,5652-32-11,דירה בבית קומות,6.0,קרקע וראשונה,138.84,2682000,,,1998.0,,2.0,9676798824,1,565232,False,,מודיעין-מכבים-רעות,דפנה,,5652-32-11,5652/32,19317.199654278305,31.906524393,35.0088593617,2015
2015-10-06,2015-06-10,"שלדג 14, מודיעין-מכבים-רעות",שלדג 14,5877-24-21,דירה בבית קומות,4.0,שניה,100.25,1593000,,,2015.0,,3.0,9675468180,1,587724,False,,מודיעין-מכבים-רעות,חסידה,,5877-24-21,5877/24,15890.274314214465,31.8956584931,34.9972528473,2015
2015-10-06,2015-06-10,"מנחם בגין 16, מודיעין-מכבים-רעות",מנחם בגין 16,5818-12-30,דירה,5.0,,135.0,2620000,1.0,וילה יורו,2013.0,,3.0,11181257338,1,581812,False,,מודיעין-מכבים-רעות,מנחם בגין,,5818-12-30,5818/12,19407.40740740741,31.8820102279,35.014124154,2015
2015-10-06,2015-06-10,"עמק איילון 46, מודיעין-מכבים-רעות",עמק איילון 46,5656-23-21,דירה בבית קומות,3.0,שניה,71.5,1340000,,,1996.0,,4.0,9676087008,1,565623,False,11% ב 1.5 שנים,מודיעין-מכבים-רעות,עמק איילון,7.33,5656-23-21,5656/23,18741.25874125874,31.9032746569,35.0125054784,2015
2015-10-05,2015-05-10,"מלאכי הנביא 16, מודיעין-מכבים-רעות",מלאכי הנביא 16,5570-30-17,דירה בבית קומות,3.0,שניה,81.4,1250000,,,1998.0,,2.0,9671745384,1,557030,False,37% ב 5.8 שנים,מודיעין-מכבים-רעות,מלאכי הנביא,6.38,5570-30-17,5570/30,15356.265356265356,31.910535639,35.0064104884,2015
2015-10-05,2015-05-10,"נחל בצת 10, מודיעין-מכבים-רעות",נחל בצת 10,5687-42-6,דירה בבית קומות,5.0,קרקע וראשונה,119.7,2725000,,,1995.0,,2.0,9671848452,1,568742,False,,מודיעין-מכבים-רעות,נחל בצת,,5687-42-6,5687/42,22765.246449456976,31.8981210234,35.0180196104,2015
2015-10-05,2015-05-10,"עמק החולה 69, מודיעין-מכבים-רעות",עמק החולה 69,5688-38-17,דירה בבית קומות,4.0,שלישית,84.0,1550000,,,1996.0,,3.0,9672228972,1,568838,False,151% ב 12.3 שנים,מודיעין-מכבים-רעות,עמק החולה,12.28,5688-38-17,5688/38,18452.380952380958,31.8949364544,35.0129188241,2015
2015-10-05,2015-05-10,"עפרוני 9, מודיעין-מכבים-רעות",עפרוני 9,5877-47-19,דירה בבית קומות,5.0,רביעית,110.0,2550000,,,2015.0,,6.0,9672547836,1,587747,False,,מודיעין-מכבים-רעות,עפרוני,,5877-47-19,5877/47,23181.81818181818,31.8970717325,34.9989713874,2015
2015-10-05,2015-05-10,"מגדל דוד 25, מודיעין-מכבים-רעות",מגדל דוד 25,5685-17-29,דירה בבית קומות,4.0,אחת עשרה,109.7,1760000,,,1998.0,,13.0,9672166728,1,568517,False,95% ב 7.8 שנים,מודיעין-מכבים-רעות,מגדל דוד,12.18,5685-17-29,5685/17,16043.755697356426,31.9006951502,35.011482743,2015
2015-10-03,2015-03-10,"ראובן 16, מודיעין-מכבים-רעות",ראובן 16,5815-92-2,דירת גג,5.0,ראשונה,111.71,1920000,,,1992.0,,1.0,9670639944,1,581592,False,,מודיעין-מכבים-רעות,ראובן,,5815-92-2,5815/92,17187.360128905202,31.8852763578,34.9993261738,2015
2015-10-03,2015-03-10,"לשם 71, מודיעין-מכבים-רעות",לשם 71,5870-23-42,דירה בבית קומות,4.0,שניה,97.2,1720000,,,2004.0,,4.0,9669012024,1,587023,False,17% ב 2.7 שנים,מודיעין-מכבים-רעות,לשם,6.3,5870-23-42,5870/23,17695.473251028805,31.9035374114,34.9955833082,2015
2015-10-03,2015-03-10,"חשון 28, מודיעין-מכבים-רעות",חשון 28,5735-27-12,דירה בבית קומות,4.0,שניה,93.45,1680000,,,2008.0,,3.0,9668442420,1,573527,False,81% ב 5.6 שנים,מודיעין-מכבים-רעות,חשון,14.46,5735-27-12,5735/27,17977.52808988764,31.9152508305,35.012468114,2015
2015-10-02,2015-02-10,"עמק החולה 74, מודיעין-מכבים-רעות",עמק החולה 74,5683-63-6,קוטג' חד משפחתי,4.0,שלישית,70.6,1287000,,,1995.0,,3.0,9664048044,1,568363,False,55% ב 5.3 שנים,מודיעין-מכבים-רעות,עמק החולה,10.38,5683-63-6,5683/63,18229.461756373938,31.8962272689,35.0121270989,2015
2015-10-02,2015-02-10,"עמק יזרעאל 9, מודיעין-מכבים-רעות",עמק יזרעאל 9,5687-45-7,דירה בבית קומות,3.0,ראשונה,68.9,600000,,,1998.0,,4.0,9674847840,1,568745,False,,מודיעין-מכבים-רעות,עמק יזרעאל,,5687-45-7,5687/45,8708.272859216255,31.8979923797,35.0172321591,2015
2015-10-02,2015-02-10,"גפן 18, מודיעין-מכבים-רעות",גפן 18,5310-25-2,דירה בבית קומות,6.0,,320.0,4500000,,,1985.0,,1.0,9666416760,1,531025,False,,מודיעין-מכבים-רעות,גפן,,5310-25-2,5310/25,14062.5,31.895241098,35.0328438705,2015
2015-10-02,2015-02-10,"ניסן 85, מודיעין-מכבים-רעות",ניסן 85,5733-40-7,דירה בבית קומות,4.0,"שלישית, רביעית",100.0,1748000,,,2014.0,,3.0,9665666976,1,573340,False,,מודיעין-מכבים-רעות,ניסן,,5733-40-7,5733/40,17480.0,31.9179759651,35.0102457847,2015
2015-10-02,2015-02-10,"נהר הירדן 83, מודיעין-מכבים-רעות",נהר הירדן 83,5682-167-1,קוטג' דו משפחתי,6.0,מרתף קרקע וראשונה,157.9,2600000,,,1998.0,,2.0,9666371232,1,5682167,False,,מודיעין-מכבים-רעות,נהר הירדן,,5682-167-1,5682/167,16466.117796073464,31.8960219386,35.0062420402,2015
2015-10-02,2015-02-10,"רא""ל יגאל ידין 49, מודיעין-מכבים-רעות","רא""ל יגאל ידין 49",5571-33-36,דירה בבית קומות,5.0,שביעית,143.0,1850000,,,2007.0,,16.0,9667120344,1,557133,False,,מודיעין-מכבים-רעות,"רא""ל יגאל ידין",,5571-33-36,5571/33,12937.062937062938,31.9035037386,35.0043450634,2015
2015-10-02,2015-02-10,"שלדג 6, מודיעין-מכבים-רעות",שלדג 6,5877-21-44,דירה בבית קומות,4.0,ראשונה,104.93,1860000,,,2015.0,,3.0,9665706624,1,587721,False,,מודיעין-מכבים-רעות,שלדג,,5877-21-44,5877/21,17726.103116363287,31.8966035511,34.9972546087,2015
2015-09-30,2015-09-30,"עמק דותן 111, מודיעין-מכבים-רעות",עמק דותן 111,5682-189-23,דירה בבית קומות,4.5,שניה,118.4,1920000,,,2014.0,,5.0,9684571512,1,5682189,False,,מודיעין-מכבים-רעות,עמק דותן,,5682-189-23,5682/189,16216.216216216217,31.897339053,35.0074558516,2015
2015-09-29,2015-09-29,"שרה אימנו 136, מודיעין-מכבים-רעות",שרה אימנו 136,5816-10-37,דירה בבית קומות,4.0,שלישית,87.0,1830000,,,2007.0,,6.0,9684568656,1,581610,False,,מודיעין-מכבים-רעות,שרה אמנו,,5816-10-37,5816/10,21034.48275862069,31.8824689881,35.00398688,2015
2015-09-29,2015-09-29,"טבת 16, מודיעין-מכבים-רעות",טבת 16,5734-28-77,דירה בבית קומות,4.0,עשרים,109.95,1770000,,,2010.0,,25.0,9684698268,1,573428,False,51% ב 5.5 שנים,מודיעין-מכבים-רעות,טבת,9.27,5734-28-77,5734/28,16098.226466575716,31.9156453501,35.0079763248,2015
2015-09-24,2015-09-24,"אירוסים 26, מודיעין-מכבים-רעות",אירוסים 26,5298-62-1,קוטג' חד משפחתי,4.0,,123.0,4340000,,,1989.0,,,9686150712,1,529862,False,,מודיעין-מכבים-רעות,אירוסים,,5298-62-1,5298/62,35284.55284552846,31.883199396,35.015308779,2015
2015-09-24,2015-09-24,"צוקית 4, מודיעין-מכבים-רעות",צוקית 4,5876-35-8,דירה בבית קומות,5.0,קומה ‎3‏,144.05,2675000,,,2014.0,,4.0,9686348952,1,587635,False,,מודיעין-מכבים-רעות,צוקית,,5876-35-8,5876/35,18569.940992710865,31.8967954774,34.9954183472,2015
2015-09-21,2015-09-21,"רא""ל יגאל ידין 39, מודיעין-מכבים-רעות","רא""ל יגאל ידין 39",5571-32-23,דירה בבית קומות,5.0,חמישית,124.7,1950000,,,2007.0,,17.0,9684211740,1,557132,False,7% ב 1.5 שנים,מודיעין-מכבים-רעות,"רא""ל יגאל ידין",4.67,5571-32-23,5571/32,15637.530072173216,31.9044538939,35.0042638394,2015
2015-09-18,2015-09-18,"עמק האלה 50, מודיעין-מכבים-רעות",עמק האלה 50,5734-58-15,דירה בבית קומות,5.0,ראשונה,96.7,1740000,,,2000.0,,2.0,9683652552,1,573458,False,58% ב 6 שנים,מודיעין-מכבים-רעות,עמק האלה,9.67,5734-58-15,5734/58,17993.79524301965,31.9136948219,35.0085805768,2015
2015-09-17,2015-09-17,"דוכיפת 15, מודיעין-מכבים-רעות",דוכיפת 15,5877-47-40,דירה בבית קומות,5.0,שניה,114.0,2200000,,,2015.0,,6.0,9684247104,1,587747,False,,מודיעין-מכבים-רעות,דוכיפת,,5877-47-40,5877/47,19298.245614035088,31.8970717325,34.9989713874,2015
2015-09-16,2015-09-16,"עמק איילון 14, מודיעין-מכבים-רעות",עמק איילון 14,5653-41-29,דירה בבית קומות,3.0,שניה,68.3,1485000,,,1996.0,,5.0,9683653896,1,565341,False,,מודיעין-מכבים-רעות,עמק איילון,,5653-41-29,5653/41,21742.313323572474,31.9061018624,35.0153596141,2015
2015-09-16,2015-09-16,"תכלת 60, מודיעין-מכבים-רעות",תכלת 60,5871-24-89,דירה בבית קומות,5.0,חמישית,111.1,2050000,,,2008.0,,,9683737056,1,587124,False,,מודיעין-מכבים-רעות,תכלת,,5871-24-89,5871/24,18451.845184518454,31.9027909656,34.9937141944,2015
2015-09-16,2015-09-16,"ברקת 38, מודיעין-מכבים-רעות",ברקת 38,5299-24-2,קוטג' דו משפחתי,4.0,ראשונה,120.0,3400000,,,1990.0,,1.0,9683414916,1,529924,False,,מודיעין-מכבים-רעות,ברקת,,5299-24-2,5299/24,28333.33333333333,31.887495886,35.0155939169,2015
2015-09-13,2015-09-13,"קיפודן 16, מודיעין-מכבים-רעות",קיפודן 16,5656-61-4,חנות,,קרקע,55.6,1430000,,,1997.0,,5.0,9684911712,1,565661,False,133% ב 15.5 שנים,מודיעין-מכבים-רעות,קיפודן,8.58,5656-61-4,5656/61,25719.424460431652,31.9042060203,35.0095916744,2015
2015-09-12,2015-12-09,"רותם 24, מודיעין-מכבים-רעות",רותם 24,5294-130-1,קוטג' חד משפחתי,6.0,,180.0,4400000,,,1983.0,,2.0,9690942156,1,5294130,False,,מודיעין-מכבים-רעות,רותם,,5294-130-1,5294/130,24444.444444444445,31.8918742068,35.0148188283,2015
2015-09-12,2015-12-09,"כסלו 57, מודיעין-מכבים-רעות",כסלו 57,5733-24-18,דירת גן,5.0,"קרקע, ראשונה",129.75,2720000,,,2013.0,,5.0,9745319640,1,573324,False,42% ב 4.6 שנים,מודיעין-מכבים-רעות,כסלו,9.13,5733-24-18,5733/24,20963.39113680154,31.9168369786,35.00778678,2015
2015-09-12,2015-12-09,"נחל ארנון 6, מודיעין-מכבים-רעות",נחל ארנון 6,5682-52-1,דירת גן,4.0,קרקע,106.3,2100000,,,1995.0,,3.0,9690198588,1,568252,False,,מודיעין-מכבים-רעות,נחל ארנון,,5682-52-1,5682/52,19755.40921919097,31.8946242746,35.0049181449,2015
2015-09-11,2015-11-09,"עמוס הנביא 16, מודיעין-מכבים-רעות",עמוס הנביא 16,5567-83-118,דירה בבית קומות,5.0,שתים עשרה,117.1,2140000,,,2007.0,,27.0,9687330828,1,556783,False,96% ב 7.8 שנים,מודיעין-מכבים-רעות,עמוס הנביא,12.31,5567-83-118,5567/83,18274.97865072588,31.9155099204,35.0019056369,2015
2015-09-11,2015-11-09,"מנחם בגין 16, מודיעין-מכבים-רעות",מנחם בגין 16,5818-12-35,דירה,4.0,,123.0,2090000,1.0,וילה יורו,2013.0,,3.0,11181257341,1,581812,False,,מודיעין-מכבים-רעות,מנחם בגין,,5818-12-35,5818/12,16991.869918699187,31.8820102279,35.014124154,2015
2015-09-11,2015-11-09,"הנביאים 26, מודיעין-מכבים-רעות",הנביאים 26,5570-4-57,דירה בבית קומות,4.0,ראשונה,94.6,1715000,,,1999.0,,4.0,9686954676,1,55704,False,107% ב 8.2 שנים,מודיעין-מכבים-רעות,הנביאים,13.05,5570-4-57,5570/4,18128.96405919662,31.9126718667,35.007027808,2015
2015-09-10,2015-10-09,"רחל אימנו 51, מודיעין-מכבים-רעות",רחל אימנו 51,5817-40-3,קוטג' חד משפחתי,5.0,שניה ושלישית,140.5,2560000,,,2011.0,,3.0,9685088364,1,581740,False,82% ב 6.3 שנים,מודיעין-מכבים-רעות,רחל אמנו,13.02,5817-40-3,5817/40,18220.64056939502,31.8789215675,35.0058405712,2015
2015-09-10,2015-10-09,"לאה אימנו 25, מודיעין-מכבים-רעות",לאה אימנו 25,5816-71-4,דירת גן,5.5,"מרתף, קרקע, ראשונה",168.85,3750000,,,2009.0,,3.0,9685646040,1,581671,False,78% ב 6.3 שנים,מודיעין-מכבים-רעות,לאה אמנו,12.38,5816-71-4,5816/71,22209.06129700918,31.8839355176,35.0047965301,2015
2015-09-09,2015-09-09,"חרצית 37, מודיעין-מכבים-רעות",חרצית 37,5652-54-27,דירה בבית קומות,4.0,שניה ושלישית,99.8,1790000,,,1997.0,,4.0,9682790376,1,565254,False,,מודיעין-מכבים-רעות,חרצית,,5652-54-27,5652/54,17935.871743486976,31.9082371788,35.0101689405,2015
2015-09-09,2015-09-09,"חטיבת גבעתי 42, מודיעין-מכבים-רעות",חטיבת גבעתי 42,5567-70-9,דירה בבית קומות,4.0,שלישית,120.5,1630000,,,1999.0,,3.0,9683674056,1,556770,False,55% ב 6.1 שנים,מודיעין-מכבים-רעות,חטיבת גבעתי,9.02,5567-70-9,5567/70,13526.970954356846,31.9130989934,35.0000620027,2015
2015-09-09,2015-09-09,"עמק בית שאן 27, מודיעין-מכבים-רעות",עמק בית שאן 27,5569-27-30,דירה בבית קומות,4.0,שניה,93.0,1590000,,,2000.0,,2.0,9683245068,1,556927,False,,מודיעין-מכבים-רעות,עמק בית שאן,,5569-27-30,5569/27,17096.774193548386,31.9108931844,35.0020733173,2015
2015-09-09,2015-09-09,"מגדל הלבנון 19, מודיעין-מכבים-רעות",מגדל הלבנון 19,5684-75-55,דירה בבית קומות,5.0,שביעית,115.0,1875000,,,2002.0,,10.0,9683201976,1,568475,False,,מודיעין-מכבים-רעות,מגדל הלבנון,,5684-75-55,5684/75,16304.347826086956,31.8948223544,35.0078793475,2015
2015-09-08,2015-08-09,"מגדל המנורה 11, מודיעין-מכבים-רעות",מגדל המנורה 11,5872-21-2,קוטג' דו משפחתי,5.0,מרתף קרקע וראשונה,138.5,2575000,,,2003.0,,2.0,9681648396,1,587221,False,,מודיעין-מכבים-רעות,מגדל המנורה,,5872-21-2,5872/21,18592.057761732853,31.9012514191,34.9991299799,2015
2015-09-08,2015-08-09,"עמק חרוד 8, מודיעין-מכבים-רעות",עמק חרוד 8,5732-10-26,דירת גן,5.0,קרקע,98.15,2050000,,,2001.0,,2.0,9680879796,1,573210,False,,מודיעין-מכבים-רעות,עמק חרוד,,5732-10-26,5732/10,20886.39836984208,31.91850235,35.003484221,2015
2015-09-08,2015-08-09,"חסידה 17, מודיעין-מכבים-רעות",חסידה 17,5877-24-3,דירה בבית קומות,5.0,ראשונה,124.85,1868000,,,2015.0,,3.0,9682827084,1,587724,False,,מודיעין-מכבים-רעות,חסידה,,5877-24-3,5877/24,14961.954345214255,31.8956584931,34.9972528473,2015
2015-09-08,2015-08-09,"עמק בית שאן 43, מודיעין-מכבים-רעות",עמק בית שאן 43,5567-72-3,דירה בבית קומות,3.0,שניה,81.7,1375000,,,1997.0,,3.0,9680925408,1,556772,False,,מודיעין-מכבים-רעות,עמק בית שאן,,5567-72-3,5567/72,16829.86536107711,31.9127712338,35.0006677152,2015
2015-09-07,2015-07-09,"שרה אימנו 120, מודיעין-מכבים-רעות",שרה אימנו 120,5816-19-4,דירה בבית קומות,5.0,ראשונה,113.2,2140000,,,2010.0,,2.0,9678327288,1,581619,False,20% ב 2.4 שנים,מודיעין-מכבים-רעות,שרה אמנו,8.33,5816-19-4,5816/19,18904.59363957597,31.8825480932,35.005224204,2015
2015-09-06,2015-06-09,"שבט 43, מודיעין-מכבים-רעות",שבט 43,5735-19-3,דירה בבית קומות,4.0,שניה,90.35,1645000,,,2007.0,,3.0,9676075164,1,573519,False,14% ב 2.8 שנים,מודיעין-מכבים-רעות,שבט,5.0,5735-19-3,5735/19,18206.97288323188,31.9145234994,35.0117850232,2015
2015-09-06,2015-06-09,"נהר הירדן 70, מודיעין-מכבים-רעות",נהר הירדן 70,5682-177-7,דירה בבית קומות,3.0,רביעית,63.0,1435000,,,1999.0,,4.0,9675496572,1,5682177,False,164% ב 15.5 שנים,מודיעין-מכבים-רעות,נהר הירדן,10.58,5682-177-7,5682/177,22777.777777777777,31.8957131129,35.0045166166,2015
2015-09-06,2015-06-09,"שני 68, מודיעין-מכבים-רעות",שני 68,5871-46-1,קוטג' טורי,5.5,קרקע+ראשונה,119.2,2400000,,,2005.0,,2.0,9674430108,1,587146,False,203% ב 12.3 שנים,מודיעין-מכבים-רעות,שני,16.5,5871-46-1,5871/46,20134.228187919463,31.9016084343,34.9938362881,2015
2015-09-06,2015-06-09,"עמק החולה 66, מודיעין-מכבים-רעות",עמק החולה 66,5688-16-1,דירת גן,4.0,ראשונה,94.9,1830000,,,1996.0,,3.0,9675019872,1,568816,False,,מודיעין-מכבים-רעות,עמק החולה,,5688-16-1,5688/16,19283.45626975764,31.8960098339,35.013186636,2015
2015-09-06,2015-06-09,"טבת 3, מודיעין-מכבים-רעות",טבת 3,5734-76-8,דירה בבית קומות,3.5,קומה ‎0‏,89.9,1650000,,,2010.0,,5.0,9674672616,1,573476,False,38% ב 3.2 שנים,מודיעין-מכבים-רעות,טבת,11.88,5734-76-8,5734/76,18353.726362625137,31.9146168327,35.0088369572,2015
2015-09-06,2015-06-09,"חטיבת גולני 23, מודיעין-מכבים-רעות",חטיבת גולני 23,5568-57-3,דירה בבית קומות,4.0,ראשונה,87.55,1810000,,,1999.0,,2.0,9674531244,1,556857,False,34% ב 2.4 שנים,מודיעין-מכבים-רעות,חטיבת גולני,14.17,5568-57-3,5568/57,20673.90062821245,31.9107578437,34.9997322602,2015
2015-09-03,2015-03-09,"אדמונית 3, מודיעין-מכבים-רעות",אדמונית 3,5652-50-31,דירה בבית קומות,2.0,ראשונה,67.3,1200000,,,1997.0,,5.0,9667216608,1,565250,False,,מודיעין-מכבים-רעות,אדמונית,,5652-50-31,5652/50,17830.609212481428,31.9081231513,35.0084936042,2015
2015-09-03,2015-03-09,"מגדל הלבנון 23, מודיעין-מכבים-רעות",מגדל הלבנון 23,5684-75-4,דירה בבית קומות,4.0,קרקע,87.95,1530000,,,2002.0,,10.0,9670063368,1,568475,False,20% ב 3.6 שנים,מודיעין-מכבים-רעות,מגדל הלבנון,5.56,5684-75-4,5684/75,17396.24786810688,31.8948223544,35.0078793475,2015
2015-09-03,2015-03-09,"עפרוני 9, מודיעין-מכבים-רעות",עפרוני 9,5877-47-18,דירה בבית קומות,5.0,שלישית,114.0,2125000,,,2015.0,,6.0,9668050392,1,587747,False,,מודיעין-מכבים-רעות,עפרוני,,5877-47-18,5877/47,18640.35087719298,31.8970717325,34.9989713874,2015
2015-09-03,2015-03-09,"נחל בזק 13, מודיעין-מכבים-רעות",נחל בזק 13,5688-150-5,דירה בבית קומות,4.0,שלישית,84.08,1550000,,,1997.0,,3.0,9666917316,1,5688150,False,,מודיעין-מכבים-רעות,נחל בזק,,5688-150-5,5688/150,18434.823977164604,31.8965837904,35.0191640563,2015
2015-09-02,2015-02-09,"שלדג 14, מודיעין-מכבים-רעות",שלדג 14,5877-24-19,דירה בבית קומות,4.0,ראשונה,100.3,1558000,,,2015.0,,3.0,9666455652,1,587724,False,,מודיעין-מכבים-רעות,חסידה,,5877-24-19,5877/24,15533.399800598208,31.8956584931,34.9972528473,2015
2015-09-02,2015-02-09,"הלוח העברי 31, מודיעין-מכבים-רעות",הלוח העברי 31,5732-58-19,דירה בבית קומות,3.0,,75.0,1450000,,,2017.0,,4.0,9665252604,1,573258,False,,מודיעין-מכבים-רעות,הלוח העברי,,5732-58-19,5732/58,19333.33333333333,31.9187170358,35.0081662122,2015
2015-09-01,2015-01-09,"עמק זבולון 15, מודיעין-מכבים-רעות",עמק זבולון 15,5872-24-1,דירת גן,4.0,קרקע,110.95,1810000,,,2005.0,,2.0,9661326696,1,587224,False,,מודיעין-מכבים-רעות,עמק זבולון,,5872-24-1,5872/24,16313.654799459217,31.9025936093,34.9999351644,2015
2015-09-01,2015-01-09,"כסלו 36, מודיעין-מכבים-רעות",כסלו 36,5734-67-13,דירה בבית קומות,4.0,ראשונה,91.27,1780000,,,2010.0,,3.0,9661090404,1,573467,False,29% ב 3.6 שנים,מודיעין-מכבים-רעות,כסלו,8.06,5734-67-13,5734/67,19502.57477813082,31.9152555317,35.0065186703,2015
2015-08-31,2015-08-31,"שבט 14, מודיעין-מכבים-רעות",שבט 14,5736-28-10,דירה בבית קומות,4.0,קרקע,92.9,1900000,,,2007.0,,3.0,9683969232,1,573628,False,128% ב 7.9 שנים,מודיעין-מכבים-רעות,שבט,16.2,5736-28-10,5736/28,20452.09903121636,31.912835741,35.0131110205,2015
2015-08-31,2015-08-31,"דוכיפת 20, מודיעין-מכבים-רעות",דוכיפת 20,5873-27-9,דירה בבית קומות,5.0,קומה ‎0‏,130.32,2905000,,,2015.0,,4.0,9683396100,1,587327,False,,מודיעין-מכבים-רעות,דוכיפת,,5873-27-9,5873/27,22291.282995702888,31.897183494,34.9931166006,2015
2015-08-30,2015-08-30,"אודם 22, מודיעין-מכבים-רעות",אודם 22,5871-6-19,דירה בבית קומות,4.0,שלישית,85.0,1750000,,,2003.0,,4.0,9682132068,1,58716,False,,מודיעין-מכבים-רעות,אודם,,5871-6-19,5871/6,20588.235294117647,31.9047161031,34.9943829094,2015
2015-08-30,2015-08-30,"טבת 16, מודיעין-מכבים-רעות",טבת 16,5734-28-2,דירה בבית קומות,4.0,ראשונה,111.0,1800000,,,2010.0,,25.0,9682094520,1,573428,False,51% ב 4.4 שנים,מודיעין-מכבים-רעות,טבת,11.59,5734-28-2,5734/28,16216.216216216217,31.9156453501,35.0079763248,2015
2015-08-30,2015-08-30,"תכלת 12, מודיעין-מכבים-רעות",תכלת 12,5872-21-16,קוטג' חד משפחתי,4.0,מרתף שניה ושלישית,125.8,2200000,,,2000.0,,3.0,9683094792,1,587221,False,154% ב 11 שנים,מודיעין-מכבים-רעות,תכלת,14.0,5872-21-16,5872/21,17488.076311605724,31.9012514191,34.9991299799,2015
2015-08-28,2015-08-28,"תשרי 4, מודיעין-מכבים-רעות",תשרי 4,5735-25-22,דירה בבית קומות,3.0,שניה,79.7,1595000,,,2008.0,,3.0,9682041936,1,573525,False,,מודיעין-מכבים-רעות,תשרי,,5735-25-22,5735/25,20012.54705144291,31.913885061,35.0106647608,2015
2015-08-27,2015-08-27,"עמק איילון 38, מודיעין-מכבים-רעות",עמק איילון 38,5656-45-16,דירה בבית קומות,5.0,שניה,133.28,1750000,,,1997.0,,4.0,9682543668,1,565645,False,156% ב 13 שנים,מודיעין-מכבים-רעות,עמק איילון,12.0,5656-45-16,5656/45,13130.252100840336,31.9041626998,35.0134492842,2015
2015-08-27,2015-08-27,"ישעיהו הנביא 45, מודיעין-מכבים-רעות",ישעיהו הנביא 45,5567-10-78,דירה בבית קומות,3.0,שניה,71.25,1340000,,,1998.0,,3.0,9682108464,1,556710,False,170% ב 17.5 שנים,מודיעין-מכבים-רעות,ישעיהו הנביא,9.71,5567-10-78,5567/10,18807.01754385965,31.9146111495,35.0041034967,2015
2015-08-26,2015-08-26,"טבת 16, מודיעין-מכבים-רעות",טבת 16,5734-28-91,דירה בבית קומות,5.0,עשרים וארבע,131.7,2600000,,,2010.0,,25.0,9683480604,1,573428,False,,מודיעין-מכבים-רעות,טבת,,5734-28-91,5734/28,19741.83750949127,31.9156453501,35.0079763248,2015
2015-08-26,2015-08-26,"עמק זבולון 36, מודיעין-מכבים-רעות",עמק זבולון 36,5869-67-17,דירה בבית קומות,4.0,שלישית,91.0,1725000,,,2003.0,,3.0,9683599800,1,586967,False,,מודיעין-מכבים-רעות,עמק זבולון,,5869-67-17,5869/67,18956.043956043955,31.9090276587,34.9964809569,2015
2015-08-26,2015-08-26,"עמק בית שאן 40, מודיעין-מכבים-רעות",עמק בית שאן 40,5567-67-5,דירה בבית קומות,4.0,שניה,92.5,1585000,,,1999.0,,2.0,9681903336,1,556767,False,72% ב 6.5 שנים,מודיעין-מכבים-רעות,עמק בית שאן,11.08,5567-67-5,5567/67,17135.135135135137,31.9127609431,35.0019073683,2015
2015-08-25,2015-08-25,"אסתר המלכה 55, מודיעין-מכבים-רעות",אסתר המלכה 55,5818-68-4,קוטג' חד משפחתי,6.0,קרקע ראשונה ושניה,175.1,3330000,,,2004.0,,,9681865956,1,581868,False,156% ב 10.3 שנים,מודיעין-מכבים-רעות,אסתר המלכה,15.15,5818-68-4,5818/68,19017.70416904626,31.8835147,35.0117382009,2015
2015-08-25,2015-08-25,"נחל צלמון 16, מודיעין-מכבים-רעות",נחל צלמון 16,5684-48-5,דירה בבית קומות,3.0,שלישית,61.44,1360000,,,2000.0,,3.0,9682157016,1,568448,False,57% ב 5.1 שנים,מודיעין-מכבים-רעות,נחל צלמון,11.18,5684-48-5,5684/48,22135.416666666668,31.8916710278,35.0098684776,2015
2015-08-24,2015-08-24,"שרה אימנו 84, מודיעין-מכבים-רעות",שרה אימנו 84,5819-12-13,דירת גן,5.0,קרקע,113.15,2380000,,,2007.0,,,9682693356,1,581912,False,98% ב 7.9 שנים,מודיעין-מכבים-רעות,שרה אמנו,12.41,5819-12-13,5819/12,21034.025629695094,31.8796450034,35.0073010436,2015
2015-08-24,2015-08-24,"בנימין 25, מודיעין-מכבים-רעות",בנימין 25,5814-58-11,דירה בבית קומות,6.0,שניה + שלישית,159.1,3260000,,,2002.0,,1.0,9682041264,1,581458,False,196% ב 12.9 שנים,מודיעין-מכבים-רעות,בנימין,15.19,5814-58-11,5814/58,20490.257699560025,31.8873621177,35.0045039628,2015
2015-08-24,2015-08-24,"שבט 43, מודיעין-מכבים-רעות",שבט 43,5735-19-12,דירה בבית קומות,4.0,שלישית,103.45,2300000,,,2007.0,,3.0,9683953188,1,573519,False,130% ב 7.8 שנים,מודיעין-מכבים-רעות,שבט,16.67,5735-19-12,5735/19,22232.9627839536,31.9145234994,35.0117850232,2015
2015-08-23,2015-08-23,"ישעיהו הנביא 4, מודיעין-מכבים-רעות",ישעיהו הנביא 4,5567-75-27,דירה בבית קומות,4.0,שניה,101.8,1650000,,,1999.0,,3.0,9681642096,1,556775,False,29% ב 5.1 שנים,מודיעין-מכבים-רעות,ישעיהו הנביא,5.69,5567-75-27,5567/75,16208.251473477409,31.9131221158,35.0028772922,2015
2015-08-21,2015-08-21,"חשוון 18, מודיעין-מכבים-רעות",חשוון 18,5735-30-10,דירה בבית קומות,4.0,שניה,86.3,1700000,,,2008.0,,3.0,9683071776,1,573530,False,99% ב 7.1 שנים,מודיעין-מכבים-רעות,חשון,13.94,5735-30-10,5735/30,19698.72537659328,31.9148341075,35.0131347263,2015
2015-08-20,2015-08-20,"טבת 16, מודיעין-מכבים-רעות",טבת 16,5734-28-92,דירה בבית קומות,5.0,עשרים וחמש,170.0,4150000,,,2010.0,,25.0,9682123752,1,573428,False,35% ב 3.5 שנים,מודיעין-מכבים-רעות,טבת,10.0,5734-28-92,5734/28,24411.764705882357,31.9156453501,35.0079763248,2015
2015-08-20,2015-08-20,"תשרי 23, מודיעין-מכבים-רעות",תשרי 23,5733-26-7,דירה בבית קומות,3.0,שלישית,72.7,1510000,,,2012.0,,4.0,9681922152,1,573326,False,33% ב 2.9 שנים,מודיעין-מכבים-רעות,תשרי,11.38,5733-26-7,5733/26,20770.28885832187,31.9159404747,35.0094474761,2015
2015-08-19,2015-08-19,"עמק זבולון 23, מודיעין-מכבים-רעות",עמק זבולון 23,5870-64-11,דירה בבית קומות,3.0,שניה,70.6,1370000,,,2003.0,,2.0,9681462588,1,587064,False,5% ב 2.7 שנים,מודיעין-מכבים-רעות,עמק זבולון,1.85,5870-64-11,5870/64,19405.099150141643,31.9041468511,34.9989860444,2015
2015-08-19,2015-08-19,"עמק החולה 84, מודיעין-מכבים-רעות",עמק החולה 84,5683-32-7,דירה בבית קומות,4.0,שלישית,101.37,1725000,,,1996.0,,3.0,9682033620,1,568332,False,70% ב 6.9 שנים,מודיעין-מכבים-רעות,עמק החולה,10.14,5683-32-7,5683/32,17016.868896123113,31.8976342609,35.0110080012,2015
2015-08-19,2015-08-19,"עמק החולה 95, מודיעין-מכבים-רעות",עמק החולה 95,5683-75-8,דירה בבית קומות,3.0,רביעית,73.7,1450000,,,1997.0,,,9682612212,1,568375,False,102% ב 12.9 שנים,מודיעין-מכבים-רעות,עמק החולה,7.91,5683-75-8,5683/75,19674.355495251017,31.8972858424,35.0097057748,2015
2015-08-18,2015-08-18,"צוקית 11, מודיעין-מכבים-רעות",צוקית 11,5876-39-16,דירה בבית קומות,5.0,שלישית,110.5,1993000,,,2015.0,,3.0,9682774416,1,587639,False,,מודיעין-מכבים-רעות,חסידה,,5876-39-16,5876/39,18036.199095022625,31.8959352003,34.9957780193,2015
2015-08-17,2015-08-17,"תרשיש 24, מודיעין-מכבים-רעות",תרשיש 24,5868-35-9,דירת גן,4.0,שלישית רביעית,113.6,2212000,,,2006.0,,5.0,9681918036,1,586835,False,,מודיעין-מכבים-רעות,תרשיש,,5868-35-9,5868/35,19471.83098591549,31.9068232954,34.9928006201,2015
2015-08-17,2015-08-17,"ישעיהו הנביא 6, מודיעין-מכבים-רעות",ישעיהו הנביא 6,5567-74-33,דירה בבית קומות,4.0,שניה,93.7,1580000,,,1999.0,,3.0,9681322644,1,556774,False,152% ב 16.8 שנים,מודיעין-מכבים-רעות,ישעיהו הנביא,9.05,5567-74-33,5567/74,16862.32657417289,31.91344459,35.0026399014,2015
2015-08-17,2015-08-17,"ענבר 8, מודיעין-מכבים-רעות",ענבר 8,5869-45-17,דירה בבית קומות,4.0,ראשונה,92.0,1790000,,,2006.0,,2.0,9682066884,1,586945,False,24% ב 3.5 שנים,מודיעין-מכבים-רעות,ענבר,6.86,5869-45-17,5869/45,19456.52173913044,31.9053226456,34.9975064118,2015
2015-08-16,2015-08-16,"אבני החושן 40, מודיעין-מכבים-רעות",אבני החושן 40,5871-49-5,דירה בבית קומות,4.0,שניה,95.75,1750000,,,2005.0,,1.0,9681330288,1,587149,False,40% ב 5.5 שנים,מודיעין-מכבים-רעות,אבני החושן,7.27,5871-49-5,5871/49,18276.76240208877,31.904464813,34.9925977812,2015
2015-08-16,2015-08-16,"נהר הירדן 55, מודיעין-מכבים-רעות",נהר הירדן 55,5682-160-1,דירה בבית קומות,6.0,מרתף קרקע וראשונה,157.9,2700000,,,2000.0,,,9683281608,1,5682160,False,,מודיעין-מכבים-רעות,נהר הירדן,,5682-160-1,5682/160,17099.430018999366,31.8966002676,35.0075774436,2015
2015-08-13,2015-08-13,"שבטי ישראל 14, מודיעין-מכבים-רעות",שבטי ישראל 14,5814-5-24,דירה בבית קומות,5.0,ראשונה,117.19,2000000,,,2006.0,,1.0,9683454984,1,58145,False,,מודיעין-מכבים-רעות,שבטי ישראל,,5814-5-24,5814/5,17066.302585544843,31.8860141917,35.0045435827,2015
2015-08-13,2015-08-13,"ציפורנית 10, מודיעין-מכבים-רעות",ציפורנית 10,5653-33-10,דירה בבית קומות,4.5,שלישית,107.2,1730000,,,1997.0,,4.0,9681686280,1,565333,False,,מודיעין-מכבים-רעות,ציפורנית,,5653-33-10,5653/33,16138.059701492535,31.9062735535,35.0144732955,2015
2015-08-12,2015-12-08,"לוע הארי 14, מודיעין-מכבים-רעות",לוע הארי 14,5655-23-8,דירה בבית קומות,4.0,שניה,93.0,1350000,,,1997.0,,5.0,9745262772,1,565523,False,,מודיעין-מכבים-רעות,לוע הארי,,5655-23-8,5655/23,14516.129032258064,31.9049192021,35.0094278463,2015
2015-08-12,2015-12-08,"שבט 18, מודיעין-מכבים-רעות",שבט 18,5736-29-12,דירת גן,4.0,"קרקע, ראשונה",97.2,2150000,,,2009.0,,3.0,9744333564,1,573629,False,21% ב 2.5 שנים,מודיעין-מכבים-רעות,שבט,8.4,5736-29-12,5736/29,22119.34156378601,31.9130735306,35.0125248805,2015
2015-08-12,2015-12-08,"הגנן 14, מודיעין-מכבים-רעות",הגנן 14,5892-68-1,תעשיה,,ראשונה,979.0,6450000,,,2000.0,,,9746544948,1,589268,False,,מודיעין-מכבים-רעות,הגנן,,5892-68-1,5892/68,6588.355464759959,31.8858845603,34.9642510063,2015
2015-08-11,2015-11-08,"דוכיפת 15, מודיעין-מכבים-רעות",דוכיפת 15,5877-47-45,דירה בבית קומות,3.0,חמישית,73.0,1087000,,,2015.0,,6.0,9687661368,1,587747,False,,מודיעין-מכבים-רעות,דוכיפת,,5877-47-45,5877/47,14890.410958904107,31.8970717325,34.9989713874,2015
2015-08-11,2015-11-08,"טבת 11, מודיעין-מכבים-רעות",טבת 11,5734-63-7,דירה בבית קומות,5.0,חמישית,125.68,2200000,,,2010.0,,5.0,9687073116,1,573463,False,51% ב 5.2 שנים,מודיעין-מכבים-רעות,טבת,9.81,5734-63-7,5734/63,17504.77402928071,31.9149314483,35.0075565859,2015
2015-08-11,2015-11-08,"לילך 50, מודיעין-מכבים-רעות",לילך 50,5293-55-1,קוטג' דו משפחתי,8.0,,270.0,4150000,,,1991.0,,,9687463296,1,529355,False,,מודיעין-מכבים-רעות,לילך,,5293-55-1,5293/55,15370.37037037037,31.8827094807,35.0233714677,2015
2015-08-10,2015-10-08,"חטיבת גבעתי 17, מודיעין-מכבים-רעות",חטיבת גבעתי 17,5568-17-26,דירה בבית קומות,4.0,קרקע,112.05,2230000,,,1999.0,,2.0,9685213608,1,556817,False,193% ב 15.8 שנים,מודיעין-מכבים-רעות,חטיבת גבעתי,12.22,5568-17-26,5568/17,19901.82954038376,31.9111876871,35.0005157777,2015
2015-08-10,2015-10-08,"שלומציון המלכה 19, מודיעין-מכבים-רעות",שלומציון המלכה 19,5819-70-1,דירת גן,5.0,קרקע,146.1,3050000,,,2007.0,,1.0,9684143196,1,581970,False,,מודיעין-מכבים-רעות,שלומציון המלכה,,5819-70-1,5819/70,20876.112251882278,31.8805736001,35.008755531,2015
2015-08-07,2015-07-08,"מנחם בגין 16, מודיעין-מכבים-רעות",מנחם בגין 16,5818-12-3,דירה בבית קומות,4.0,ראשונה,100.0,1950000,,,2013.0,,3.0,9681136164,1,581812,False,30% ב 3.4 שנים,מודיעין-מכבים-רעות,מנחם בגין,8.82,5818-12-3,5818/12,19500.0,31.8820102279,35.014124154,2015
2015-08-07,2015-07-08,"מגדל הלבנון 11, מודיעין-מכבים-רעות",מגדל הלבנון 11,5684-75-156,דירה בבית קומות,4.0,ראשונה,98.95,1600000,,,2002.0,,10.0,9678363408,1,568475,False,50% ב 6.4 שנים,מודיעין-מכבים-רעות,מגדל הלבנון,7.81,5684-75-156,5684/75,16169.78271854472,31.8948223544,35.0078793475,2015
2015-08-06,2015-06-08,"מרים החשמונאית 6, מודיעין-מכבים-רעות",מרים החשמונאית 6,5818-74-8,קוטג' דו משפחתי,5.0,"מרתף, קרקע, ראשונה",162.3,3440000,,,2007.0,,2.0,9674798616,1,581874,False,56% ב 7.2 שנים,מודיעין-מכבים-רעות,מרים החשמונאית,7.78,5818-74-8,5818/74,21195.31731361676,31.8819540383,35.0116523801,2015
2015-08-06,2015-06-08,"ישעיהו הנביא 19, מודיעין-מכבים-רעות",ישעיהו הנביא 19,5567-65-1,דירה בבית קומות,4.0,קרקע,110.4,1750000,,,1997.0,,2.0,9675554028,1,556765,False,10% ב 2.5 שנים,מודיעין-מכבים-רעות,ישעיהו הנביא,4.0,5567-65-1,5567/65,15851.449275362318,31.9138490515,35.0017163102,2015
2015-08-06,2015-06-08,"עמק בית שאן 43, מודיעין-מכבים-רעות",עמק בית שאן 43,5567-72-2,דירה בבית קומות,3.0,ראשונה,80.7,1555000,,,1997.0,,3.0,9674779968,1,556772,False,43% ב 5 שנים,מודיעין-מכבים-רעות,עמק בית שאן,8.6,5567-72-2,5567/72,19268.89714993804,31.9127712338,35.0006677152,2015
2015-08-06,2015-06-08,"חטיבת גולני 4, מודיעין-מכבים-רעות",חטיבת גולני 4,5569-37-3,דירה בבית קומות,4.0,קרקע + ראשונה,113.0,1860000,,,1997.0,,3.0,9675729336,1,556937,False,,מודיעין-מכבים-רעות,חטיבת גולני,,5569-37-3,5569/37,16460.17699115044,31.9093182772,35.002879911,2015
2015-08-04,2015-04-08,"יהלום 14, מודיעין-מכבים-רעות",יהלום 14,5870-63-18,דירה בבית קומות,3.0,שניה,73.6,1530000,,,2005.0,,2.0,9669686964,1,587063,False,,מודיעין-מכבים-רעות,יהלום,,5870-63-18,5870/63,20788.04347826087,31.9050392548,34.9984950203,2015
2015-08-03,2015-03-08,"ענבר 13, מודיעין-מכבים-רעות",ענבר 13,5870-13-6,דירה בבית קומות,3.0,שלישית,67.2,1430000,,,2004.0,,3.0,9666644820,1,587013,False,105% ב 7.6 שנים,מודיעין-מכבים-רעות,ענבר,13.82,5870-13-6,5870/13,21279.761904761905,31.9050415131,34.9966708854,2015
2015-08-03,2015-03-08,"גבעת הלבונה 55, מודיעין-מכבים-רעות",גבעת הלבונה 55,5296-236-1,קוטג' חד משפחתי,7.0,,230.0,4400000,,,1991.0,,3.0,9667214592,1,5296236,False,,מודיעין-מכבים-רעות,גבעת הלבונה,,5296-236-1,5296/236,19130.434782608696,31.8872022093,35.0205823357,2015
2015-08-03,2015-03-08,"רבקה אימנו 7, מודיעין-מכבים-רעות",רבקה אימנו 7,5817-59-2,קוטג' טורי,5.0,ראשונה,143.0,3300000,,,2009.0,,3.0,9666854232,1,581759,False,78% ב 5.7 שנים,מודיעין-מכבים-רעות,רבקה אמנו,13.68,5817-59-2,5817/59,23076.92307692308,31.8810611545,35.0050841005,2015
2015-08-03,2015-03-08,"עמק חרוד 14, מודיעין-מכבים-רעות",עמק חרוד 14,5732-10-6,דירה בבית קומות,3.0,שניה,70.0,1320000,,,2000.0,,2.0,9666854904,1,573210,False,22% ב 4.5 שנים,מודיעין-מכבים-רעות,עמק חרוד,4.89,5732-10-6,5732/10,18857.14285714286,31.91850235,35.003484221,2015
2015-08-03,2015-03-08,"נחל יגור 5, מודיעין-מכבים-רעות",נחל יגור 5,5684-28-2,קוטג' דו משפחתי,7.0,ראשונה ושניה,117.3,2420000,,,1996.0,,1.0,9666804168,1,568428,False,125% ב 11.7 שנים,מודיעין-מכבים-רעות,נחל יגור,10.68,5684-28-2,5684/28,20630.8610400682,31.891661239,35.0075772096,2015
2015-08-03,2015-03-08,"דוכיפת 23, מודיעין-מכבים-רעות",דוכיפת 23,5877-21-11,דירה בבית קומות,6.0,"ראשונה, שניה",134.46,2270000,,,2015.0,,3.0,9667302624,1,587721,False,,מודיעין-מכבים-רעות,דוכיפת,,5877-21-11,5877/21,16882.344191581138,31.8966035511,34.9972546087,2015
2015-08-03,2015-03-08,"רא""ל משה דיין 38, מודיעין-מכבים-רעות","רא""ל משה דיין 38",5695-35-5,דירת גן,4.5,קרקע + ראשונה,129.5,2420000,,,1999.0,,1.0,9667002408,1,569535,False,122% ב 7.8 שנים,מודיעין-מכבים-רעות,"רא""ל משה דיין",15.64,5695-35-5,5695/35,18687.258687258687,31.9062774735,35.0015973709,2015
2015-08-02,2015-02-08,"שבט 49, מודיעין-מכבים-רעות",שבט 49,5735-18-12,דירה בבית קומות,4.0,שלישית,90.6,1655000,,,2008.0,,3.0,9663864420,1,573518,False,,מודיעין-מכבים-רעות,חשון,,5735-18-12,5735/18,18267.10816777042,31.9148089572,35.0122234597,2015
2015-08-02,2015-02-08,"דוכיפת 20, מודיעין-מכבים-רעות",דוכיפת 20,5873-27-8,דירת גן,5.0,קומה ‎0‏,130.32,2690000,,,2015.0,,4.0,9666148716,1,587327,False,,מודיעין-מכבים-רעות,דוכיפת,,5873-27-8,5873/27,20641.497851442604,31.897183494,34.9931166006,2015
2015-08-02,2015-02-08,"צוקית 13, מודיעין-מכבים-רעות",צוקית 13,5876-39-21,דירה בבית קומות,4.0,שניה,100.2,1510000,,,2015.0,,3.0,9666458508,1,587639,False,,מודיעין-מכבים-רעות,חסידה,,5876-39-21,5876/39,15069.860279441118,31.8959352003,34.9957780193,2015
2015-08-02,2015-02-08,"צוקית 13, מודיעין-מכבים-רעות",צוקית 13,5876-39-17,דירה בבית קומות,4.0,קרקע,87.4,1670000,,,2015.0,,3.0,9666456324,1,587639,False,,מודיעין-מכבים-רעות,חסידה,,5876-39-17,5876/39,19107.551487414188,31.8959352003,34.9957780193,2015
2015-08-02,2015-02-08,"מנחם בגין 16, מודיעין-מכבים-רעות",מנחם בגין 16,5818-12-8,דירה בבית קומות,5.0,ראשונה,135.0,2013000,,,2013.0,,3.0,9665342736,1,581812,True,-17% ב 0.8 שנים,מודיעין-מכבים-רעות,מנחם בגין,-21.25,5818-12-8,5818/12,14911.111111111111,31.8820102279,35.014124154,2015
2015-08-02,2015-02-08,"בדולח 4, מודיעין-מכבים-רעות",בדולח 4,5871-28-43,דירה בבית קומות,3.0,שניה,81.0,1500000,,,2004.0,,4.0,9664201260,1,587128,False,16% ב 1.5 שנים,מודיעין-מכבים-רעות,בדולח,10.67,5871-28-43,5871/28,18518.51851851852,31.9026613754,34.9947157419,2015
2015-08-02,2015-02-08,"צוקית 4, מודיעין-מכבים-רעות",צוקית 4,5876-35-6,דירה בבית קומות,5.0,קומה ‎2‏,123.0,2000000,,,2014.0,,4.0,9665900580,1,587635,False,,מודיעין-מכבים-רעות,צוקית,,5876-35-6,5876/35,16260.162601626016,31.8967954774,34.9954183472,2015
2015-08-02,2015-02-08,"יוסף 2, מודיעין-מכבים-רעות",יוסף 2,5813-14-52,דירה בבית קומות,5.0,שלישית,116.07,3450000,,,2001.0,,2.0,9669039828,1,581314,False,270% ב 13.3 שנים,מודיעין-מכבים-רעות,יוסף,20.3,5813-14-52,5813/14,29723.442750064616,31.8860741485,35.0090745813,2015
2015-08-01,2015-01-08,"ניסן 85, מודיעין-מכבים-רעות",ניסן 85,5733-40-8,דירה בבית קומות,4.0,"שלישית, רביעית",100.25,1728000,,,2014.0,,3.0,9662845080,1,573340,False,,מודיעין-מכבים-רעות,ניסן,,5733-40-8,5733/40,17236.907730673316,31.9179759651,35.0102457847,2015
2015-08-01,2015-01-08,"רא""ל יגאל ידין 39, מודיעין-מכבים-רעות","רא""ל יגאל ידין 39",5571-32-46,דירה בבית קומות,5.0,אחת עשרה,197.1,2540000,,,2007.0,,17.0,9664619244,1,557132,False,22% ב 3.7 שנים,מודיעין-מכבים-רעות,"רא""ל יגאל ידין",5.95,5571-32-46,5571/32,12886.859462201928,31.9044538939,35.0042638394,2015
2015-08-01,2015-01-08,"שבט 10, מודיעין-מכבים-רעות",שבט 10,5736-32-14,דירה בבית קומות,4.0,ראשונה,82.3,1600000,,,2007.0,,3.0,9666300336,1,573632,False,83% ב 6.8 שנים,מודיעין-מכבים-רעות,שבט,12.21,5736-32-14,5736/32,19441.069258809235,31.9124970379,35.0136169897,2015
2015-08-01,2015-01-08,"שבט 30, מודיעין-מכבים-רעות",שבט 30,5735-11-19,קוטג' חד משפחתי,4.0,רביעית,102.72,1635000,,,2011.0,,6.0,9662720340,1,573511,False,54% ב 5.3 שנים,מודיעין-מכבים-רעות,שבט,10.19,5735-11-19,5735/11,15917.056074766357,31.9137826768,35.0117232437,2015
2015-08-01,2015-01-08,"ישעיהו הנביא 8, מודיעין-מכבים-רעות",ישעיהו הנביא 8,5567-74-11,דירה בבית קומות,3.0,שלישית,78.9,1300000,,,1998.0,,3.0,9661729392,1,556774,False,112% ב 8 שנים,מודיעין-מכבים-רעות,ישעיהו הנביא,14.0,5567-74-11,5567/74,16476.5525982256,31.91344459,35.0026399014,2015
2015-08-01,2015-01-08,"עמק החולה 43, מודיעין-מכבים-רעות",עמק החולה 43,5688-103-12,דירה בבית קומות,3.5,שלישית,67.64,1295000,,,1997.0,,3.0,9662466660,1,5688103,False,174% ב 14 שנים,מודיעין-מכבים-רעות,עמק החולה,12.43,5688-103-12,5688/103,19145.476049674748,31.8955582065,35.0176920303,2015
2015-08-01,2015-01-08,"בוסתן 21, מודיעין-מכבים-רעות",בוסתן 21,5310-28-1,קוטג' חד משפחתי,7.0,ראשונה,312.0,5300000,,,1985.0,,1.0,9661144500,1,531028,False,,מודיעין-מכבים-רעות,בוסתן,,5310-28-1,5310/28,16987.17948717949,31.8949923599,35.0327571043,2015
2015-08-01,2015-01-08,"חרצית 6, מודיעין-מכבים-רעות",חרצית 6,5656-43-3,דירת גן,5.0,קרקע וראשונה,115.0,1957000,,,1996.0,,2.0,9661363320,1,565643,False,7% ב 0.7 שנים,מודיעין-מכבים-רעות,חרצית,10.0,5656-43-3,5656/43,17017.391304347828,31.9041541658,35.0124749739,2015
2015-07-31,2015-07-31,"צוקית 11, מודיעין-מכבים-רעות",צוקית 11,5876-39-12,דירה בבית קומות,5.0,ראשונה,129.6,1928000,,,2015.0,,3.0,9681650412,1,587639,False,,מודיעין-מכבים-רעות,חסידה,,5876-39-12,5876/39,14876.543209876543,31.8959352003,34.9957780193,2015
2015-07-30,2015-07-30,"רא""ל דוד אלעזר 41, מודיעין-מכבים-רעות","רא""ל דוד אלעזר 41",5696-7-6,דירת גן,5.0,קרקע וראשונה,134.7,2700000,,,1997.0,,1.0,9681447300,1,56967,False,,מודיעין-מכבים-רעות,"רא""ל דוד אלעזר",,5696-7-6,5696/7,20044.5434298441,31.9095482377,35.000449424,2015
2015-07-30,2015-07-30,"עמוס הנביא 14, מודיעין-מכבים-רעות",עמוס הנביא 14,5567-83-35,דירה בבית קומות,5.0,שתים עשרה,120.3,2242000,,,2007.0,,27.0,9680057184,1,556783,False,114% ב 7.6 שנים,מודיעין-מכבים-רעות,עמוס הנביא,15.0,5567-83-35,5567/83,18636.74147963425,31.9155099204,35.0019056369,2015
2015-07-28,2015-07-28,"סחלב 5, מודיעין-מכבים-רעות",סחלב 5,5297-266-1,קוטג' דו משפחתי,7.0,ראשונה,172.0,3750000,,,1998.0,,1.0,9680457108,1,5297266,False,,מודיעין-מכבים-רעות,סחלב,,5297-266-1,5297/266,21802.325581395347,31.8828230773,35.0216069447,2015
2015-07-28,2015-07-28,"אסתר המלכה 6, מודיעין-מכבים-רעות",אסתר המלכה 6,5816-68-2,קוטג' חד משפחתי,6.0,"קרקע, ראשונה",154.8,3000000,,,2005.0,,2.0,9679350996,1,581668,False,,מודיעין-מכבים-רעות,אסתר המלכה,,5816-68-2,5816/68,19379.84496124031,31.8844984365,35.0079504393,2015
2015-07-27,2015-07-27,"מגדל עוז 11, מודיעין-מכבים-רעות",מגדל עוז 11,5683-133-168,דירה בבית קומות,5.5,חמישית,113.38,2030000,,,2000.0,,9.0,9681016884,1,5683133,False,166% ב 13.5 שנים,מודיעין-מכבים-רעות,מגדל עוז,12.3,5683-133-168,5683/133,17904.392309049217,31.8978991604,35.0129493367,2015
2015-07-27,2015-07-27,"ירח-אב 5, מודיעין-מכבים-רעות",ירח-אב 5,5736-26-7,דירה בבית קומות,4.0,שניה,84.1,1950000,,,2007.0,,3.0,9680161008,1,573626,False,53% ב 5.2 שנים,מודיעין-מכבים-רעות,ירח-אב,10.19,5736-26-7,5736/26,23186.68252080856,31.9133405148,35.0126893448,2015
2015-07-27,2015-07-27,"כסלו 31, מודיעין-מכבים-רעות",כסלו 31,5734-15-14,דירה בבית קומות,3.0,ראשונה,67.95,1445000,,,2002.0,,4.0,9680061384,1,573415,False,28% ב 2.6 שנים,מודיעין-מכבים-רעות,כסלו,10.77,5734-15-14,5734/15,21265.636497424577,31.9149111428,35.006016245,2015
2015-07-27,2015-07-27,"קיפודן 13, מודיעין-מכבים-רעות",קיפודן 13,5656-15-5,דירה בבית קומות,4.0,שניה,97.0,1725000,,,1997.0,,4.0,9679438356,1,565615,False,133% ב 12.2 שנים,מודיעין-מכבים-רעות,קיפודן,10.9,5656-15-5,5656/15,17783.505154639177,31.903394469,35.0103350432,2015
2015-07-27,2015-07-27,"נחל צין 9, מודיעין-מכבים-רעות",נחל צין 9,5688-107-4,דירה בבית קומות,4.0,שניה,95.63,1550000,,,1997.0,,4.0,9679791744,1,5688107,False,178% ב 16.8 שנים,מודיעין-מכבים-רעות,נחל צין,10.6,5688-107-4,5688/107,16208.302833838754,31.8950569174,35.0171453155,2015
2015-07-27,2015-07-27,"דוכיפת 35, מודיעין-מכבים-רעות",דוכיפת 35,5876-33-16,דירה בבית קומות,5.0,קומה ‎3‏,142.64,2800000,,,2015.0,,4.0,9680378736,1,587633,False,,מודיעין-מכבים-רעות,דוכיפת,,5876-33-16,5876/33,19629.837352776223,31.8973249408,34.9954359536,2015
2015-07-26,2015-07-26,"מנחם בגין 16, מודיעין-מכבים-רעות",מנחם בגין 16,5818-12-34,דירה,4.0,,119.0,2045000,1.0,וילה יורו,2013.0,,3.0,11181257340,1,581812,False,,מודיעין-מכבים-רעות,מנחם בגין,,5818-12-34,5818/12,17184.873949579833,31.8820102279,35.014124154,2015
2015-07-23,2015-07-23,"חרצית 32, מודיעין-מכבים-רעות",חרצית 32,5653-6-8,דירה בבית קומות,4.0,שלישית,99.5,1765000,,,2002.0,,21.0,9679191480,1,56536,False,161% ב 13.5 שנים,מודיעין-מכבים-רעות,חרצית,11.93,5653-6-8,5653/6,17738.693467336685,31.9067455537,35.0114550657,2015
2015-07-22,2015-07-22,"ירח-אב 13, מודיעין-מכבים-רעות",ירח-אב 13,5735-10-2,דירת גן,5.0,קרקע,114.47,2350000,,,2010.0,,21.0,9679197192,1,573510,False,67% ב 5.3 שנים,מודיעין-מכבים-רעות,ירח-אב,12.64,5735-10-2,5735/10,20529.396348388225,31.9136512293,35.0120722111,2015
2015-07-21,2015-07-21,"נמר 4, מודיעין-מכבים-רעות",נמר 4,5682-138-5,דירה בבית קומות,3.5,שניה,82.0,1480000,,,1997.0,,3.0,9679038516,1,5682138,False,127% ב 12.4 שנים,מודיעין-מכבים-רעות,נמר,10.24,5682-138-5,5682/138,18048.78048780488,31.8949072414,35.0063971422,2015
2015-07-16,2015-07-16,"עמק האלה 42, מודיעין-מכבים-רעות",עמק האלה 42,5734-61-20,דירת גן,5.0,קרקע,95.9,1850000,,,2002.0,,2.0,9681438312,1,573461,False,150% ב 12.7 שנים,מודיעין-מכבים-רעות,עמק האלה,11.81,5734-61-20,5734/61,19290.928050052134,31.9135187145,35.0092730715,2015
2015-07-16,2015-07-16,"עמק החולה 53, מודיעין-מכבים-רעות",עמק החולה 53,5688-101-4,דירה בבית קומות,4.0,ראשונה,97.46,1675000,,,1998.0,,5.0,9678689916,1,5688101,False,,מודיעין-מכבים-רעות,עמק החולה,,5688-101-4,5688/101,17186.53806689924,31.8955630909,35.0163345513,2015
2015-07-15,2015-07-15,"דוכיפת 25, מודיעין-מכבים-רעות",דוכיפת 25,5877-21-6,דירה בבית קומות,6.0,"ראשונה, שניה",134.46,2300000,,,2015.0,,3.0,9679718328,1,587721,False,,מודיעין-מכבים-רעות,דוכיפת,,5877-21-6,5877/21,17105.458872527146,31.8966035511,34.9972546087,2015
2015-07-15,2015-07-15,"מגדל הלבנון 13, מודיעין-מכבים-רעות",מגדל הלבנון 13,5684-75-138,דירה בבית קומות,5.0,חמישית,115.6,1820000,,,2002.0,,10.0,9679804848,1,568475,False,8% ב 3.3 שנים,מודיעין-מכבים-רעות,מגדל הלבנון,2.42,5684-75-138,5684/75,15743.9446366782,31.8948223544,35.0078793475,2015
2015-07-14,2015-07-14,"צוקית 5, מודיעין-מכבים-רעות",צוקית 5,5877-81-1,דירה בבית קומות,5.0,קרקע,104.93,4452000,,,2015.0,,3.0,9680403012,1,587781,False,,מודיעין-מכבים-רעות,צוקית,,5877-81-1,5877/81,42428.28552368245,31.8967916253,34.9961815609,2015
2015-07-14,2015-07-14,"אדר 17, מודיעין-מכבים-רעות",אדר 17,5736-24-2,דירת גג,4.0,קרקע,94.3,1880000,,,2007.0,,3.0,9677772300,1,573624,False,100% ב 7.8 שנים,מודיעין-מכבים-רעות,אדר,12.82,5736-24-2,5736/24,19936.373276776245,31.9128380842,35.0145055767,2015
2015-07-14,2015-07-14,"דוכיפת 20, מודיעין-מכבים-רעות",דוכיפת 20,5873-27-10,דירה בבית קומות,5.0,קומה ‎1‏,121.87,2580000,,,2015.0,,4.0,9679286484,1,587327,False,,מודיעין-מכבים-רעות,דוכיפת,,5873-27-10,5873/27,21170.09928612456,31.897183494,34.9931166006,2015
2015-07-14,2015-07-14,"גלעד 2, מודיעין-מכבים-רעות",גלעד 2,5295-117-2,קוטג' חד משפחתי,6.0,ראשונה,180.0,3850000,,,1991.0,,1.0,9678759804,1,5295117,False,,מודיעין-מכבים-רעות,גלעד,,5295-117-2,5295/117,21388.88888888889,31.8898407737,35.0188418832,2015
2015-07-13,2015-07-13,"דוכיפת 23, מודיעין-מכבים-רעות",דוכיפת 23,5877-21-10,דירה בבית קומות,5.0,קרקע,104.76,2120000,,,2015.0,,3.0,9678759132,1,587721,False,,מודיעין-מכבים-רעות,דוכיפת,,5877-21-10,5877/21,20236.73157693776,31.8966035511,34.9972546087,2015
2015-07-13,2015-07-13,"עמק האלה 14, מודיעין-מכבים-רעות",עמק האלה 14,5736-36-35,דירה בבית קומות,3.0,קרקע,82.7,1645000,,,2006.0,,7.0,9677769528,1,573636,False,22% ב 1.9 שנים,מודיעין-מכבים-רעות,שבט,11.58,5736-36-35,5736/36,19891.17291414752,31.9124409591,35.0129253709,2015
2015-07-13,2015-07-13,"חטיבת הנגב 18, מודיעין-מכבים-רעות",חטיבת הנגב 18,5571-13-10,דירה בבית קומות,4.0,שניה,100.7,1640000,,,1997.0,,3.0,9678115356,1,557113,False,172% ב 16.7 שנים,מודיעין-מכבים-רעות,חטיבת הנגב,10.3,5571-13-10,5571/13,16285.99801390268,31.907837532,35.003304442,2015
2015-07-13,2015-07-13,"חטיבת גולני 29, מודיעין-מכבים-רעות",חטיבת גולני 29,5568-56-5,דירה בבית קומות,4.0,שלישית,83.18,1630000,,,2000.0,,2.0,9679606020,1,556856,False,60% ב 6.9 שנים,מודיעין-מכבים-רעות,חטיבת גולני,8.7,5568-56-5,5568/56,19596.05674440971,31.9112521838,34.9992183665,2015
2015-07-10,2015-10-07,"עמק איילון 21, מודיעין-מכבים-רעות",עמק איילון 21,5685-106-11,דירה בבית קומות,4.0,שלישית,74.7,1320000,,,1996.0,,3.0,9684271464,1,5685106,False,39% ב 5.8 שנים,מודיעין-מכבים-רעות,עמק איילון,6.72,5685-106-11,5685/106,17670.682730923694,31.9028247058,35.0137822325,2015
2015-07-10,2015-10-07,"שבט 47, מודיעין-מכבים-רעות",שבט 47,5735-18-3,דירה בבית קומות,4.0,שניה,85.7,1700000,,,2008.0,,3.0,9684272052,1,573518,False,81% ב 7.2 שנים,מודיעין-מכבים-רעות,חשון,11.25,5735-18-3,5735/18,19836.63943990665,31.9148089572,35.0122234597,2015
2015-07-10,2015-10-07,"עמק בית שאן 11, מודיעין-מכבים-רעות",עמק בית שאן 11,5569-29-18,דירה בבית קומות,4.0,שניה,81.0,1650000,,,1999.0,,2.0,9684357396,1,556929,False,57% ב 5.9 שנים,מודיעין-מכבים-רעות,עמק בית שאן,9.66,5569-29-18,5569/29,20370.37037037037,31.9101266313,35.0033023407,2015
2015-07-09,2015-09-07,"לוע הארי 9, מודיעין-מכבים-רעות",לוע הארי 9,5656-2-1,דירת גן,5.0,קרקע וראשונה,153.45,2600000,,,1995.0,,1.0,9683599212,1,56562,False,,מודיעין-מכבים-רעות,לוע הארי,,5656-2-1,5656/2,16943.629846855656,31.90424845,35.0099135449,2015
2015-07-09,2015-09-07,"טבת 3, מודיעין-מכבים-רעות",טבת 3,5734-76-43,דירת גן,4.0,,100.0,1640000,,,2010.0,,5.0,9682914444,1,573476,False,,מודיעין-מכבים-רעות,טבת,,5734-76-43,5734/76,16400.0,31.9146168327,35.0088369572,2015
2015-07-09,2015-09-07,"יהלום 1, מודיעין-מכבים-רעות",יהלום 1,5870-86-5,דירה בבית קומות,3.0,שלישית,69.1,1575000,,,2004.0,,3.0,9682626156,1,587086,False,,מודיעין-מכבים-רעות,יהלום,,5870-86-5,5870/86,22793.05354558611,31.9028911818,34.9984018442,2015
2015-07-09,2015-09-07,"שרה אימנו 65, מודיעין-מכבים-רעות",שרה אימנו 65,5817-53-3,קוטג' טורי,5.0,מרתף וקרקע,133.23,2500000,,,2007.0,,,9683392572,1,581753,False,,מודיעין-מכבים-רעות,שרה אמנו,,5817-53-3,5817/53,18764.542520453357,31.8818412202,35.0047676603,2015
2015-07-07,2015-07-07,"כרכום 15, מודיעין-מכבים-רעות",כרכום 15,5653-23-5,דירה בבית קומות,5.0,ראשונה,102.93,1850000,,,1997.0,,4.0,9677539452,1,565323,False,122% ב 9.9 שנים,מודיעין-מכבים-רעות,כרכום,12.32,5653-23-5,5653/23,17973.37996696784,31.9055860919,35.0129283245,2015
2015-07-07,2015-07-07,"מנחם בגין 16, מודיעין-מכבים-רעות",מנחם בגין 16,5818-12-17,דירה בבית קומות,5.0,"קרקע, ראשונה, שניה",136.2,2620000,,,2013.0,,1.0,9677526936,1,581812,False,,מודיעין-מכבים-רעות,אסתר המלכה,,5818-12-17,5818/12,19236.417033773865,31.8820102279,35.014124154,2015
2015-07-07,2015-07-07,"מנחם בגין 16, מודיעין-מכבים-רעות",מנחם בגין 16,5818-12-32,דירה,4.0,,99.0,1950000,1.0,וילה יורו,2013.0,,3.0,11181257339,1,581812,False,,מודיעין-מכבים-רעות,מנחם בגין,,5818-12-32,5818/12,19696.969696969696,31.8820102279,35.014124154,2015
2015-07-07,2015-07-07,"מגדל הלבנון 17, מודיעין-מכבים-רעות",מגדל הלבנון 17,5684-75-69,דירה בבית קומות,4.0,שניה,98.95,1720000,,,2002.0,,10.0,9677387748,1,568475,False,148% ב 12.5 שנים,מודיעין-מכבים-רעות,מגדל הלבנון,11.84,5684-75-69,5684/75,17382.516422435572,31.8948223544,35.0078793475,2015
2015-07-06,2015-06-07,"מגדל המנורה 14, מודיעין-מכבים-רעות",מגדל המנורה 14,5872-19-2,דירה בבית קומות,4.5,קרקע,98.9,2350000,,,2004.0,,9.0,9675619296,1,587219,False,,מודיעין-מכבים-רעות,מגדל המנורה,,5872-19-2,5872/19,23761.37512639029,31.9017364586,34.9980567414,2015
2015-07-06,2015-06-07,"כסלו 7, מודיעין-מכבים-רעות",כסלו 7,5734-60-21,דירה בבית קומות,5.0,"קרקע, ראשונה",127.6,2200000,,,2002.0,,3.0,9675081444,1,573460,False,,מודיעין-מכבים-רעות,כסלו,,5734-60-21,5734/60,17241.37931034483,31.9137509389,35.0094611521,2015
2015-07-06,2015-06-07,"נחל זוהר 3, מודיעין-מכבים-רעות",נחל זוהר 3,5684-40-8,דירה בבית קומות,3.0,ראשונה,62.8,1370000,,,2000.0,,2.0,9674208852,1,568440,False,100% ב 7.9 שנים,מודיעין-מכבים-רעות,נחל זוהר,12.66,5684-40-8,5684/40,21815.28662420382,31.8925082683,35.0098785672,2015
2015-07-06,2015-06-07,"נחל נטפים 19, מודיעין-מכבים-רעות",נחל נטפים 19,5692-79-2,קוטג' חד משפחתי,6.0,קרקע וראשונה,133.75,2730000,,,1995.0,,2.0,9674380044,1,569279,False,,מודיעין-מכבים-רעות,נחל נטפים,,5692-79-2,5692/79,20411.21495327103,31.8953076923,35.0238067561,2015
2015-07-05,2015-05-07,"רא""ל חיים לסקוב 23, מודיעין-מכבים-רעות","רא""ל חיים לסקוב 23",5698-15-4,דירה בבית קומות,4.5,ראשונה,108.2,1570000,,,1998.0,,1.0,9671642736,1,569815,False,,מודיעין-מכבים-רעות,"רא""ל חיים לסקוב",,5698-15-4,5698/15,14510.166358595194,31.9103500216,34.9983159562,2015
2015-07-05,2015-05-07,"אדמונית 10, מודיעין-מכבים-רעות",אדמונית 10,5652-30-1,דירה בבית קומות,5.5,קרקע,139.13,2200000,,,1998.0,,4.0,9671746056,1,565230,False,,מודיעין-מכבים-רעות,אדמונית,,5652-30-1,5652/30,15812.54941421692,31.9068196622,35.0089702226,2015
2015-07-05,2015-05-07,"נחל חבר 7, מודיעין-מכבים-רעות",נחל חבר 7,5684-68-9,דירה בבית קומות,3.0,ראשונה,69.2,1430000,,,1997.0,,4.0,9672059208,1,568468,False,50% ב 5.2 שנים,מודיעין-מכבים-רעות,נחל חבר,9.62,5684-68-9,5684/68,20664.739884393064,31.893400191,35.0097341589,2015
2015-07-05,2015-05-07,"נחל צין 38, מודיעין-מכבים-רעות",נחל צין 38,5688-72-4,קוטג' חד משפחתי,6.0,שניה ושלישית,137.5,2040000,,,1995.0,,1.0,9671748156,1,568872,False,51% ב 6 שנים,מודיעין-מכבים-רעות,נחל צין,8.5,5688-72-4,5688/72,14836.363636363636,31.8944334327,35.0125947742,2015
