DEALDATE,DEALDATETIME,FULLADRESS,DISPLAYADRESS,GUSH,DEALNATUREDESCRIPTION,ASSETROOMNUM,FLOORNO,DEALNATURE,DEALAMOUNT,NEWPROJECTTEXT,PROJECTNAME,BUILDINGYEAR,YEARBUILT,BUILDINGFLOORS,KEYVALUE,TYPE,POLYGON_ID,TREND_IS_NEGATIVE,TREND_FORMAT,city_name,street,presentage per year,GUSH - Copy,Gush_Helka,Price per sqm,lat,lon,Year
2024-12-09,2024-09-12,"איתמר 9, רמת גן",איתמר 9,6206-42-9,דירה בבית קומות,3.0,תשיעית,83.0,4260000,,,2024.0,,2.0,3604358554,1,620642,False,,רמת גן,איתמר,,6206-42-9,6206/42,51325.30120481928,32.0890711312,34.8076103429,2024
2024-12-08,2024-08-12,"ברקאי 7, רמת גן",ברקאי 7,6158-342-3,,3.0,שניה,50.36,2335000,,,2002.0,,5.0,3604031028,1,6158342,False,,רמת גן,ברקאי,,6158-342-3,6158/342,46366.16362192216,32.0771436134,34.8258107086,2024
2024-12-07,2024-07-12,"עוזיאל 7, רמת גן",עוזיאל 7,6158-888-34,דירה בבית קומות,4.0,רביעית,96.0,3291000,,,2021.0,,9.0,3602390701,1,6158888,False,,רמת גן,עוזיאל,,6158-888-34,6158/888,34281.25,,,2024
2024-12-06,2024-06-12,"עוזיאל 15, רמת גן",עוזיאל 15,6158-881-35,,3.0,חמישית,68.0,2632000,1.0,,1949.0,,13.0,11181264558,1,6158881,False,,רמת גן,עוזיאל,,6158-881-35,6158/881,38705.882352941175,32.0775931226,34.8234532557,2024
2024-12-06,2024-06-12,"המקור 6, רמת גן",המקור 6,6204-302-22,,5.0,תשיעית,116.0,4306202,1.0,,1950.0,,13.0,11181267397,1,6204302,False,,רמת גן,המקור,,6204-302-22,6204/302,37122.43103448276,32.0920186527,34.8174291937,2024
2024-12-05,2024-05-12,"מתתיהו מנדל 7, רמת גן",מתתיהו מנדל 7,6183-454-155,דירה בבית קומות,4.0,שמינית,93.0,2676000,,,1993.0,,15.0,3600482936,1,6183454,False,29% ב 5.8 שנים,רמת גן,מנדל מתתיהו,5.0,6183-454-155,6183/454,28774.1935483871,32.0690980026,34.833430912,2024
2024-12-05,2024-05-12,"ארלוזורוב 13, רמת גן",ארלוזורוב 13,6127-231-14,דירה בבית קומות,2.0,שניה,45.94,1930000,,,1960.0,,2.0,3600340575,1,6127231,False,,רמת גן,ארלוזורוב,,6127-231-14,6127/231,42011.31911188507,32.0792991818,34.8132693732,2024
2024-12-05,2024-05-12,"הרא""ה 2, רמת גן","הרא""ה 2",6126-26-62,דירה בבית קומות,2.0,רביעית,57.2,2290000,,,1960.0,,11.0,3600397038,1,612626,False,52% ב 6.1 שנים,רמת גן,"הרא""ה",8.52,6126-26-62,6126/26,40034.96503496503,32.0835006449,34.8159878501,2024
2024-12-05,2024-05-12,"סן מרטין 7, רמת גן",סן מרטין 7,6143-750-26,דירה בבית קומות,3.0,קרקע,41.73,2750000,,,1950.0,,1.0,3602343344,1,6143750,False,17% ב 4.8 שנים,רמת גן,סן מרטין,3.54,6143-750-26,6143/750,65899.83225497244,32.0530534397,34.8219226772,2024
2024-12-03,2024-03-12,"הבנים 15, רמת גן",הבנים 15,6159-731-18,דירה בבית קומות,3.0,קומה ‎4‏,62.65,2100000,,,2016.0,,10.0,3598396241,1,6159731,False,50% ב 7.7 שנים,רמת גן,הבנים,6.49,6159-731-18,6159/731,33519.5530726257,32.0840360043,34.8251498453,2024
2024-12-03,2024-03-12,"מיכאל 11, רמת גן",מיכאל 11,6145-1334-14,דירה בבית קומות,4.0,ראשונה,95.0,2906000,,,2022.0,,9.0,3598556466,1,61451334,False,,רמת גן,מיכאל,,6145-1334-14,6145/1334,30589.473684210527,32.0714866129,34.8278086196,2024
2024-12-03,2024-03-12,"רש""י 12, רמת גן","רש""י 12",6204-668-12,,5.0,שניה,110.0,3500000,1.0,,,,17.0,11181267426,1,6204668,False,,רמת גן,"רש""י",,6204-668-12,6204/668,31818.18181818182,32.0907927517,34.8189108592,2024
2024-12-03,2024-03-12,,,6232-3-83,מחסנים,,רביעית,43.0,1013000,,,2024.0,,,3599315135,2,62323,False,,רמת גן,"רפאל איתן כפר אז""ר",,6232-3-83,6232/3,23558.13953488372,,,2024
2024-12-03,2024-03-12,,,6232-4-123,דירה בבית קומות,5.0,עשירית,118.0,4423000,,,2024.0,,,3598892895,2,62324,False,,רמת גן,"רפאל איתן כפר אז""ר",,6232-4-123,6232/4,37483.05084745763,,,2024
2024-12-03,2024-03-12,"ז'בוטינסקי 105, רמת גן",ז'בוטינסקי 105,6205-782-43,דירה בבית קומות,3.0,שלושים ושלוש,89.0,2930000,,,2015.0,,22.0,3598876365,1,6205782,False,,רמת גן,ז'בוטינסקי,,6205-782-43,6205/782,32921.348314606745,32.0894367231,34.8160720881,2024
2024-12-03,2024-03-12,"מנחם בגין 3, רמת גן",מנחם בגין 3,6207-877-100,דירה בבית קומות,2.0,קומה ‎20‏,41.35,1900000,,,2000.0,,24.0,3599085194,1,6207877,False,93% ב 16.1 שנים,רמת גן,בגין מנחם,5.78,6207-877-100,6207/877,45949.214026602174,32.0844858541,34.7994713944,2024
2024-12-03,2024-03-12,"הרב לנדרס 9, רמת גן",הרב לנדרס 9,6187-427-4,דירה בבית קומות,3.0,ראשונה,75.0,2068000,,,1990.0,,7.0,3598922765,1,6187427,False,,רמת גן,הרב לנדרס,,6187-427-4,6187/427,27573.33333333333,32.0699678579,34.8369545763,2024
2024-12-03,2024-03-12,"הרימון 4, רמת גן",הרימון 4,6205-175-7,דירה בבית קומות,2.0,שניה,44.74,2300000,,,1960.0,,2.0,3598342881,1,6205175,False,267% ב 17.3 שנים,רמת גן,הרימון,15.43,6205-175-7,6205/175,51408.13589628967,32.0877853195,34.808959167,2024
2024-12-03,2024-03-12,"אמנון ותמר 23, רמת גן",אמנון ותמר 23,6145-1672-2,דירה בבית קומות,4.0,שישית,110.0,1700000,,,2024.0,,2.0,3598383017,1,61451672,False,,רמת גן,אמנון ותמר,,6145-1672-2,6145/1672,15454.545454545454,32.0718006889,34.8271859974,2024
2024-12-03,2024-03-12,"אב""א אחימאיר 34, רמת גן","אב""א אחימאיר 34",6210-292-2,דירה בבית קומות,5.0,קרקע+ראשונה,121.4,6289000,,,1970.0,,,3598485909,1,6210292,False,,רמת גן,אחימאיר אבא,,6210-292-2,6210/292,51803.95387149917,32.0913030012,34.8103958745,2024
2024-12-02,2024-02-12,,,6232-1-58,,1.0,שניה,183.0,3338010,1.0,,,,,11181269925,2,62321,False,,רמת גן,"רפאל איתן כפר אז""ר",,6232-1-58,6232/1,18240.491803278688,,,2024
2024-12-02,2024-02-12,"נחמיה תמרי 2, רמת גן",נחמיה תמרי 2,6158-1093-4,דירה בבית קומות,3.0,ראשונה,46.0,2376000,,,2026.0,,2.0,3598154787,1,61581093,False,,רמת גן,תמרי נחמיה,,6158-1093-4,6158/1093,51652.17391304348,32.076225645,34.8253465723,2024
2024-12-02,2024-02-12,"הירדן 17, רמת גן",הירדן 17,6186-29-4,דירה בבית קומות,2.0,ראשונה,45.61,1900000,,,1958.0,,2.0,3597703779,1,618629,False,,רמת גן,הירדן,,6186-29-4,6186/29,41657.531243148434,32.0678601347,34.8287468682,2024
2024-12-02,2024-02-12,"שפירא 11, רמת גן",שפירא 11,6128-861-29,דירה בבית קומות,4.0,שמינית,96.45,3900000,,,2002.0,,19.0,3597512872,1,6128861,False,36% ב 6.8 שנים,רמת גן,שפירא,5.29,6128-861-29,6128/861,40435.45878693624,32.080566594,34.8052109604,2024
2024-12-02,2024-02-12,"תל חי 9, רמת גן",תל חי 9,6186-489-13,דירה בבית קומות,5.0,ראשונה,106.0,3275000,,,1973.0,2022.0,3.0,3597484626,1,6186489,False,,רמת גן,תל חי,,6186-489-13,6186/489,30896.22641509434,32.0685155913,34.8280971018,2024
2024-11-09,2024-09-11,"מצפה 11, רמת גן",מצפה 11,6128-153-5,דירה בבית קומות,3.0,ראשונה,108.0,3500000,,,1950.0,,2.0,3604420498,1,6128153,False,,רמת גן,מצפה,,6128-153-5,6128/153,32407.40740740741,32.0821731165,34.8077591334,2024
2024-11-08,2024-08-11,"ברוריה 3, רמת גן",ברוריה 3,6207-197-66,דירה בבית קומות,2.0,שניה,58.0,2570000,,,1960.0,,5.0,3603308696,1,6207197,False,,רמת גן,ברוריה,,6207-197-66,6207/197,44310.34482758621,32.0890778312,34.8033838302,2024
2024-11-08,2024-08-11,"הררי 12, רמת גן",הררי 12,6180-334-4,דירה בבית קומות,3.0,שניה,31.0,1914000,,,2025.0,,2.0,3604410928,1,6180334,False,,רמת גן,הררי,,6180-334-4,6180/334,61741.93548387097,32.0584213793,34.830868265,2024
2024-11-08,2024-08-11,"המקור 4, רמת גן",המקור 4,6204-303-13,דירה בבית קומות,3.0,שלישית,67.0,2770000,,,2028.0,,2.0,3604160919,1,6204303,False,,רמת גן,המקור,,6204-303-13,6204/303,41343.28358208955,32.0918735758,34.8174859673,2024
2024-11-08,2024-08-11,"המתמיד 16, רמת גן",המתמיד 16,6128-552-5,דירה בבית קומות,3.0,ראשונה,52.0,2000000,,,1950.0,,3.0,3603408688,1,6128552,False,25% ב 9.4 שנים,רמת גן,המתמיד,2.66,6128-552-5,6128/552,38461.53846153846,32.0827329571,34.8061273299,2024
2024-11-08,2024-08-11,"ברקאי 19, רמת גן",ברקאי 19,6158-1679-19,דירה בבית קומות,4.0,חמישית,90.0,2890000,,,2020.0,,7.0,3603571610,1,61581679,False,,רמת גן,ברקאי,,6158-1679-19,6158/1679,32111.11111111111,32.0771155138,34.8270037536,2024
2024-11-07,2024-07-11,"שפירא 8, רמת גן",שפירא 8,6128-716-1,,3.0,קומה ‎0‏,69.98,3050000,,,2019.0,,10.0,3602207885,1,6128716,False,,רמת גן,שפירא,,6128-716-1,6128/716,43583.88110888825,32.0812144706,34.8044593953,2024
2024-11-07,2024-07-11,"רש""י 12, רמת גן","רש""י 12",6204-668-45,דירה בבית קומות,2.0,חמישית,59.0,2499000,,,2022.0,,17.0,3602253357,1,6204668,False,,רמת גן,"רש""י",,6204-668-45,6204/668,42355.93220338983,32.0907927517,34.8189108592,2024
2024-11-07,2024-07-11,"הרא""ה 222, רמת גן","הרא""ה 222",6145-1216-23,דירה בבית קומות,4.0,חמישית,81.0,2700000,1.0,הרואה 222,2015.0,,4.0,3602398125,1,61451216,False,,רמת גן,"הרא""ה",,6145-1216-23,6145/1216,33333.333333333336,32.0657190284,34.8236205275,2024
2024-11-07,2024-07-11,"הרב חבה אליה 5, רמת גן",הרב חבה אליה 5,6127-558-1,דירה בבית קומות,2.0,ראשונה,58.0,2520000,,,2024.0,,3.0,3602971861,1,6127558,False,,רמת גן,הרב חבה אליהו,,6127-558-1,6127/558,43448.27586206896,32.0806340812,34.8100285179,2024
2024-11-07,2024-07-11,"עוזיאל 7, רמת גן",עוזיאל 7,6158-888-31,,4.0,רביעית,96.0,3850000,1.0,,2021.0,,9.0,11181264580,1,6158888,False,,רמת גן,עוזיאל,,6158-888-31,6158/888,40104.16666666666,,,2024
2024-11-07,2024-07-11,"עוזיאל 142, רמת גן",עוזיאל 142,6156-269-5,דירה בבית קומות,4.0,ראשונה,61.16,3606000,,,1950.0,2024.0,1.0,3602883759,1,6156269,False,,רמת גן,עוזיאל,,6156-269-5,6156/269,58960.10464355788,32.0634698851,34.8198611358,2024
2024-11-07,2024-07-11,"העמל 22, רמת גן",העמל 22,6204-687-4,דירה בבית קומות,3.0,קומה ‎1‏,62.0,2225000,,,2017.0,,14.0,3602706511,1,6204687,False,35% ב 5.5 שנים,רמת גן,העמל,6.36,6204-687-4,6204/687,35887.096774193546,32.0933115504,34.820065429,2024
2024-11-07,2024-07-11,"מצפה 7, רמת גן",מצפה 7,6128-242-11,דירה בבית קומות,4.0,שישית,90.0,3550000,,,2023.0,,5.0,3602608665,1,6128242,False,,רמת גן,מצפה,,6128-242-11,6128/242,39444.444444444445,32.0822059703,34.8073766477,2024
2024-11-04,2024-04-11,"קרסקי 13, רמת גן",קרסקי 13,6158-1196-52,דירה בבית קומות,2.0,שלישית,53.0,1900000,,,1950.0,,3.0,3599413242,1,61581196,False,,רמת גן,קרסקי,,6158-1196-52,6158/1196,35849.056603773584,32.0788277528,34.8243274712,2024
2024-11-04,2024-04-11,"יוסף הגלילי 17, רמת גן",יוסף הגלילי 17,6125-160-18,דירה בבית קומות,3.0,שלישית,90.0,2750000,,,2022.0,,6.0,3599707302,1,6125160,False,,רמת גן,יוסף הגלילי,,6125-160-18,6125/160,30555.555555555555,32.0886830606,34.8190416979,2024
2024-11-04,2024-04-11,"עוזיאל 15, רמת גן",עוזיאל 15,6158-881-47,דירה בבית קומות,5.0,תשע עשרה,125.0,4740000,,,1949.0,2025.0,13.0,3599897948,1,6158881,False,,רמת גן,עוזיאל,,6158-881-47,6158/881,37920.0,32.0775931226,34.8234532557,2024
2024-11-04,2024-04-11,"כנפי נשרים 32, רמת גן",כנפי נשרים 32,6157-115-3,דירה בבית קומות,3.0,שניה,61.0,1850000,,,1960.0,,2.0,3599426118,1,6157115,False,,רמת גן,כנפי נשרים,,6157-115-3,6157/115,30327.868852459014,32.0702137214,34.8211437529,2024
2024-11-04,2024-04-11,"עלומים 23, רמת גן",עלומים 23,6144-592-92,דירה בבית קומות,4.0,שמינית,121.0,4850000,,,2021.0,,8.0,3599860393,1,6144592,False,,רמת גן,עלומים,,6144-592-92,6144/592,40082.64462809917,32.0630024681,34.8208316539,2024
2024-11-03,2024-03-11,"מיכאל 11, רמת גן",מיכאל 11,6145-1334-12,,4.0,ראשונה,95.0,2900000,1.0,,2022.0,,9.0,11181263583,1,61451334,False,,רמת גן,מיכאל,,6145-1334-12,6145/1334,30526.315789473683,32.0714866129,34.8278086196,2024
2024-11-03,2024-03-11,"אריה בן-אליעזר 56, רמת גן",אריה בן-אליעזר 56,6181-376-53,דירה בבית קומות,4.0,ארבע עשרה,75.81,2600000,,,1970.0,,14.0,3598481124,1,6181376,False,,רמת גן,בן אליעזר אריה,,6181-376-53,6181/376,34296.266983247595,32.0617000791,34.8298343482,2024
2024-11-03,2024-03-11,"רחובות הנהר 15, רמת גן",רחובות הנהר 15,6206-48-3,דירה בבית קומות,4.0,קרקע,97.0,4149000,,,2022.0,,4.0,3598586858,1,620648,False,,רמת גן,רחובות הנהר,,6206-48-3,6206/48,42773.19587628866,,,2024
2024-11-03,2024-03-11,"רות 4, רמת גן",רות 4,6207-651-3,דירה בבית קומות,5.0,שניה,123.0,4200000,,,2024.0,,3.0,3598479935,1,6207651,False,92% ב 2 שנים,רמת גן,רות,46.0,6207-651-3,6207/651,34146.34146341463,32.0903302438,34.8052352831,2024
2024-11-03,2024-03-11,,,6232-4-114,,5.0,עשירית,118.0,4417500,1.0,,,,,11181270034,2,62324,False,,רמת גן,"רפאל איתן כפר אז""ר",,6232-4-114,6232/4,37436.4406779661,,,2024
2024-11-03,2024-03-11,"אסף 25, רמת גן",אסף 25,6206-60-5,דירה בבית קומות,4.0,שניה,87.0,3836000,,,2023.0,,2.0,3598828312,1,620660,False,,רמת גן,אסף,,6206-60-5,6206/60,44091.9540229885,32.0900895884,34.8085861543,2024
2024-11-03,2024-03-11,"ארלוזורוב 33, רמת גן",ארלוזורוב 33,6127-869-28,דירה בבית קומות,3.0,שלישית,77.8,2900000,,,1960.0,,3.0,3599157955,1,6127869,False,,רמת גן,ארלוזורוב,,6127-869-28,6127/869,37275.06426735219,32.0807110134,34.8108379943,2024
2024-11-03,2024-03-11,"הרא""ה 88, רמת גן","הרא""ה 88",6159-441-7,דירה בבית קומות,2.0,ראשונה,46.0,1850000,,,1960.0,,3.0,3598316056,1,6159441,False,,רמת גן,"הרא""ה",,6159-441-7,6159/441,40217.391304347824,32.080905438,34.8253440223,2024
2024-11-03,2024-03-11,"פנקס 4, רמת גן",פנקס 4,6186-698-30,דירה בבית קומות,4.0,קומה ‎6‏,95.95,2950000,,,2020.0,,10.0,3598373505,1,6186698,False,4% ב 0.8 שנים,רמת גן,פנקס,5.0,6186-698-30,6186/698,30745.17978113601,32.0695903489,34.8305487417,2024
2024-11-03,2024-03-11,"הפודים 4, רמת גן",הפודים 4,6204-593-108,דירה בבית קומות,4.0,עשירית,98.04,3400000,,,1993.0,,16.0,3598328236,1,6204593,False,170% ב 19.8 שנים,רמת גן,הפודים,8.59,6204-593-108,6204/593,34679.7225622195,32.0906975616,34.8171417962,2024
2024-11-02,2024-02-11,"נחמיה תמרי 2, רמת גן",נחמיה תמרי 2,6158-1093-29,,3.0,,66.0,2370000,1.0,,2026.0,,2.0,11181264100,1,61581093,False,,רמת גן,תמרי נחמיה,,6158-1093-29,6158/1093,35909.09090909091,32.076225645,34.8253465723,2024
2024-11-02,2024-02-11,"שמעון פרוג 6, רמת גן",שמעון פרוג 6,6127-131-12,דירה בבית קומות,2.0,קרקע,48.0,1900000,,,1950.0,,5.0,3597615532,1,6127131,False,,רמת גן,פרוג שמעון,,6127-131-12,6127/131,39583.333333333336,32.080334254,34.8110605687,2024
2024-11-02,2024-02-11,"רחובות הנהר 8, רמת גן",רחובות הנהר 8,6207-424-17,דירה בבית קומות,3.0,רביעית,78.0,3559000,,,2023.0,,3.0,3597439676,1,6207424,False,,רמת גן,רחובות הנהר,,6207-424-17,6207/424,45628.205128205125,32.0900198326,34.8058328456,2024
2024-11-02,2024-02-11,"שושנים 1, רמת גן",שושנים 1,6203-206-15,דירה בבית קומות,4.0,רביעית,102.0,4275000,,,1979.0,,8.0,3597398728,1,6203206,False,,רמת גן,שושנים,,6203-206-15,6203/206,41911.76470588235,32.0951247801,34.8136401533,2024
2024-11-02,2024-02-11,"אורה 6, רמת גן",אורה 6,6126-113-31,דירה בבית קומות,4.0,שביעית,90.0,3225000,,,2012.0,,9.0,3597413373,1,6126113,False,,רמת גן,אורה,,6126-113-31,6126/113,35833.333333333336,32.0803215508,34.8157238433,2024
2024-11-02,2024-02-11,"נטר 4, רמת גן",נטר 4,6144-383-6,דירה בבית קומות,4.0,ראשונה,85.0,2800000,,,2018.0,,,3597567885,1,6144383,False,,רמת גן,נטר,,6144-383-6,6144/383,32941.17647058824,32.0627710346,34.8255746895,2024
2024-11-02,2024-02-11,"יעקב כהן 4, רמת גן",יעקב כהן 4,6236-112-2,דירה בבית קומות,5.0,ראשונה + שניה,164.31,6650000,,,1970.0,,1.0,3597720048,1,6236112,False,,רמת גן,כהן יעקב,,6236-112-2,6236/112,40472.27801107663,32.056512854,34.847268448,2024
2024-11-01,2024-01-11,"ארנון 22, רמת גן",ארנון 22,6180-79-3,דירה בבית קומות,4.0,ראשונה,73.85,2520000,,,2001.0,,5.0,3596437610,1,618079,False,196% ב 22.2 שנים,רמת גן,ארנון,8.83,6180-79-3,6180/79,34123.22274881517,32.0609299201,34.8324536208,2024
2024-11-01,2024-01-11,,,6232-1-110,משרד,,ראשונה,236.0,1077000,,,2024.0,,,3597052062,2,62321,False,,רמת גן,"רפאל איתן כפר אז""ר",,6232-1-110,6232/1,4563.559322033899,,,2024
2024-11-01,2024-01-11,"רננים 11, רמת גן",רננים 11,6203-83-12,דירה בבית קומות,4.0,שלישית,79.5,3653000,,,1965.0,,3.0,3596329730,1,620383,False,,רמת גן,רננים,,6203-83-12,6203/83,45949.6855345912,32.0935390449,34.8161115176,2024
2024-11-01,2024-01-11,"כנפי נשרים 25, רמת גן",כנפי נשרים 25,6157-782-5,דירה בבית קומות,4.0,שביעית,95.0,3200000,1.0,,2015.0,,9.0,3596469945,1,6157782,False,,רמת גן,כנפי נשרים,,6157-782-5,6157/782,33684.21052631579,32.0705869434,34.8208294528,2024
2024-11-01,2024-01-11,"אנה פרנק 15, רמת גן",אנה פרנק 15,6207-132-17,דירה בבית קומות,3.0,שישית,87.0,3430000,,,2021.0,,7.0,3596516867,1,6207132,False,,רמת גן,אנה פרנק,,6207-132-17,6207/132,39425.28735632184,32.090566518,34.8036404099,2024
2024-11-01,2024-01-11,"תרצה 6, רמת גן",תרצה 6,6186-696-10,דירה בבית קומות,3.0,שישית,79.0,2590000,1.0,,2015.0,,13.0,3596469481,1,6186696,False,,רמת גן,תרצה,,6186-696-10,6186/696,32784.81012658228,32.0753713507,34.8285497421,2024
2024-10-09,2024-09-10,"ארלוזורוב 53, רמת גן",ארלוזורוב 53,6128-112-13,דירה בבית קומות,3.0,שלישית,81.0,2800000,,,1950.0,,3.0,3604398748,1,6128112,False,,רמת גן,ארלוזורוב,,6128-112-13,6128/112,34567.9012345679,32.0808085797,34.8089102381,2024
2024-10-09,2024-09-10,"שרה אהרונסון 55, רמת גן",שרה אהרונסון 55,6180-422-12,דירה בבית קומות,3.0,ראשונה,61.2,2320000,,,1960.0,,4.0,3604302091,1,6180422,False,12% ב 2.2 שנים,רמת גן,אהרונסון שרה,5.45,6180-422-12,6180/422,37908.49673202614,32.060819929,34.8279883917,2024
2024-10-08,2024-08-10,,,6125-465-15,,4.0,שביעית,119.0,3480000,1.0,,,,,11181261238,2,6125465,False,,רמת גן,הגת,,6125-465-15,6125/465,29243.697478991595,32.0848863492,34.8210099372,2024
2024-10-08,2024-08-10,"המקור 6, רמת גן",המקור 6,6204-302-32,,3.0,שלישית,68.0,2763508,1.0,,1950.0,,13.0,11181267407,1,6204302,False,,רמת גן,המקור,,6204-302-32,6204/302,40639.82352941176,32.0920186527,34.8174291937,2024
2024-10-07,2024-07-10,"כנפי נשרים 17, רמת גן",כנפי נשרים 17,6157-623-2,דירה בבית קומות,5.0,קרקע,99.77,4850000,,,2015.0,,4.0,3602837359,1,6157623,False,110% ב 10.7 שנים,רמת גן,כנפי נשרים,10.28,6157-623-2,6157/623,48611.80715645986,32.0707429738,34.8198977933,2024
2024-10-07,2024-07-10,"יכין 6, רמת גן",יכין 6,6128-391-15,דירה בבית קומות,3.0,חמישית,63.77,2850000,,,2013.0,,6.0,3602275339,1,6128391,False,,רמת גן,יכין,,6128-391-15,6128/391,44691.86137682296,32.080845699,34.8067200699,2024
2024-10-07,2024-07-10,"בר-יוחאי 10, רמת גן",בר-יוחאי 10,6145-1204-12,,4.0,,89.0,3100000,1.0,,1970.0,,3.0,11181263568,1,61451204,False,,רמת גן,בר יוחאי,,6145-1204-12,6145/1204,34831.4606741573,32.0642660472,34.8246231583,2024
2024-10-07,2024-07-10,"הרא""ה 239, רמת גן","הרא""ה 239",6145-1270-4,דירה בבית קומות,2.0,שניה,44.0,1700000,,,1970.0,,3.0,3602347868,1,61451270,False,206% ב 18.5 שנים,רמת גן,"הרא""ה",11.14,6145-1270-4,6145/1270,38636.36363636364,32.067544017,34.8244549575,2024
2024-10-07,2024-07-10,"המקור 4, רמת גן",המקור 4,6204-303-16,דירה בבית קומות,4.0,אחת עשרה,97.0,3796000,,,2028.0,,2.0,3603210386,1,6204303,False,,רמת גן,המקור,,6204-303-16,6204/303,39134.0206185567,32.0918735758,34.8174859673,2024
2024-10-07,2024-07-10,"עוזיאל 15, רמת גן",עוזיאל 15,6158-881-40,דירה בבית קומות,4.0,שלישית,91.0,3030000,,,1949.0,2025.0,13.0,3603250058,1,6158881,False,,רמת גן,עוזיאל,,6158-881-40,6158/881,33296.703296703294,32.0775931226,34.8234532557,2024
2024-10-07,2024-07-10,"תרע""ד 12, רמת גן","תרע""ד 12",6128-564-18,דירה בבית קומות,2.0,חמישית,50.0,2340000,1.0,,1960.0,2022.0,7.0,3602966351,1,6128564,False,,רמת גן,"תרע""ד",,6128-564-18,6128/564,46800.0,32.0791494272,34.8026803274,2024
2024-10-07,2024-07-10,"בית שמאי 11, רמת גן",בית שמאי 11,6159-648-12,דירה בבית קומות,3.5,שישית,82.0,2683600,,,1970.0,,6.0,3602749808,1,6159648,False,,רמת גן,בית שמאי,,6159-648-12,6159/648,32726.829268292684,32.0838650446,34.8227697311,2024
2024-10-07,2024-07-10,"הזיתים 7, רמת גן",הזיתים 7,6126-409-13,דירה בבית קומות,2.0,ראשונה,46.0,1650000,,,1950.0,,3.0,3602262695,1,6126409,False,,רמת גן,הזיתים,,6126-409-13,6126/409,35869.565217391304,32.0829291265,34.8201607308,2024
2024-10-06,2024-06-10,"יד שלום 16, רמת גן",יד שלום 16,6157-775-4,דירה בבית קומות,3.0,קומה ‎1‏,88.96,2750000,,,2018.0,,7.0,3601859508,1,6157775,False,68% ב 8.5 שנים,רמת גן,יד שלום,8.0,6157-775-4,6157/775,30912.769784172662,32.0724271104,34.8199087777,2024
2024-10-06,2024-06-10,"חירות 22, רמת גן",חירות 22,6205-478-12,דירה בבית קומות,5.0,ראשונה,113.0,3959000,,,2021.0,,6.0,3601267473,1,6205478,False,,רמת גן,חרות,,6205-478-12,6205/478,35035.398230088496,32.0898468637,34.8123195113,2024
2024-10-06,2024-06-10,"הרא""ה 185, רמת גן","הרא""ה 185",6145-349-3,דירה בבית קומות,2.0,ראשונה,41.0,1800000,,,1950.0,,3.0,3601381530,1,6145349,False,,רמת גן,"הרא""ה",,6145-349-3,6145/349,43902.439024390245,32.0720262821,34.8251508439,2024
2024-10-06,2024-06-10,"חצור 15, רמת גן",חצור 15,6158-889-38,מחסנים,,ראשונה,,166000,,,2021.0,,9.0,3602069845,1,6158889,False,,רמת גן,חצור,,6158-889-38,6158/889,,,,2024
2024-10-06,2024-06-10,"השחר 7, רמת גן",השחר 7,6158-1694-1,דירה בבית קומות,3.0,ראשונה,101.0,3650000,,,2016.0,,,3601495703,1,61581694,False,,רמת גן,השחר,,6158-1694-1,6158/1694,36138.61386138614,32.0761323254,34.819999497,2024
2024-10-06,2024-06-10,"מלכי צדק 12, רמת גן",מלכי צדק 12,6142-341-8,דירה בבית קומות,3.0,שלישית,64.37,2035000,,,1982.0,,3.0,3601366218,1,6142341,False,35% ב 5.5 שנים,רמת גן,מלכי צדק,6.36,6142-341-8,6142/341,31614.105949976696,32.0495459228,34.8191406673,2024
2024-10-06,2024-06-10,"הזיתים 27, רמת גן",הזיתים 27,6126-430-1,דירה בבית קומות,4.0,חמישית,111.0,4300000,,,2024.0,,,3601948509,1,6126430,False,,רמת גן,הזיתים,,6126-430-1,6126/430,38738.738738738735,32.0810399924,34.8195932057,2024
2024-10-05,2024-05-10,"ביאליק 66, רמת גן",ביאליק 66,6127-856-15,דירה בבית קומות,3.0,שלישית,69.0,2500000,,,1960.0,,5.0,3601174151,1,6127856,False,,רמת גן,ביאליק,,6127-856-15,6127/856,36231.884057971016,32.0851325546,34.8125163389,2024
2024-10-04,2024-04-10,"רוחמה 49, רמת גן",רוחמה 49,6157-646-7,דירה בבית קומות,4.0,שלישית,81.82,2600000,,,1990.0,,5.0,3599325691,1,6157646,False,42% ב 3.3 שנים,רמת גן,רוחמה,12.73,6157-646-7,6157/646,31777.071620630657,32.0720151174,34.8226676688,2024
2024-10-04,2024-04-10,"עלומים 23, רמת גן",עלומים 23,6144-592-91,,4.0,שמינית,121.0,4850000,1.0,עיר גני,2021.0,,8.0,11181263510,1,6144592,False,,רמת גן,עלומים,,6144-592-91,6144/592,40082.64462809917,32.0630024681,34.8208316539,2024
2024-10-04,2024-04-10,"ארלוזורוב 11, רמת גן",ארלוזורוב 11,6127-769-6,דירה בבית קומות,4.0,קומה ‎2‏,112.0,3180000,,,2019.0,,7.0,3599362985,1,6127769,False,31% ב 4.3 שנים,רמת גן,ארלוזורוב,7.21,6127-769-6,6127/769,28392.85714285714,32.0791595713,34.8135249224,2024
2024-10-04,2024-04-10,"עוזיאל 151, רמת גן",עוזיאל 151,6144-541-8,דירה בבית קומות,1.0,ראשונה,,3401000,,,1965.0,,4.0,3600441988,1,6144541,False,,רמת גן,עוזיאל,,6144-541-8,6144/541,,32.0639371272,34.8205059376,2024
2024-10-04,2024-04-10,"החולה 8, רמת גן",החולה 8,6181-712-8,דירה בבית קומות,3.0,שלישית,83.0,2550000,,,2020.0,,4.0,3599345034,1,6181712,False,,רמת גן,החולה,,6181-712-8,6181/712,30722.89156626506,32.0610731643,34.8333820583,2024
2024-10-04,2024-04-10,"הרא""ה 40, רמת גן","הרא""ה 40",6159-636-17,דירה בבית קומות,4.0,חמישית,106.0,3180000,1.0,הראה,1960.0,2018.0,3.0,3600273788,1,6159636,False,,רמת גן,"הרא""ה",,6159-636-17,6159/636,30000.0,32.0834528528,34.8218809807,2024
2024-10-04,2024-04-10,"עוזיאל 15, רמת גן",עוזיאל 15,6158-881-29,,5.0,תשע עשרה,125.0,4740000,1.0,,1949.0,,13.0,11181264552,1,6158881,False,,רמת גן,עוזיאל,,6158-881-29,6158/881,37920.0,32.0775931226,34.8234532557,2024
2024-10-04,2024-04-10,"ז'בוטינסקי 8, רמת גן",ז'בוטינסקי 8,6128-926-140,דירה בבית קומות,3.0,חמישית,83.0,3280000,,,2020.0,,44.0,3599337088,1,6128926,False,,רמת גן,ז'בוטינסקי,,6128-926-140,6128/926,39518.07228915663,32.0826629807,34.8044700429,2024
2024-10-04,2024-04-10,"ז'בוטינסקי 16, רמת גן",ז'בוטינסקי 16,6128-929-24,דירה בבית קומות,3.0,עשרים וארבע,92.0,3825000,,,2013.0,,15.0,3599360578,1,6128929,False,,רמת גן,ז'בוטינסקי,,6128-929-24,6128/929,41576.086956521736,32.0825981069,34.8054905451,2024
2024-10-03,2024-03-10,,,6232-3-84,מחסנים,,ראשונה,60.0,1289000,,,2024.0,,,3599313685,2,62323,False,,רמת גן,"רפאל איתן כפר אז""ר",,6232-3-84,6232/3,21483.33333333333,,,2024
2024-10-03,2024-03-10,"עלומים 24, רמת גן",עלומים 24,6144-540-8,דירה בבית קומות,4.0,רביעית,100.8,3440000,,,2012.0,,6.0,3598327047,1,6144540,False,,רמת גן,עלומים,,6144-540-8,6144/540,34126.98412698413,32.0639308167,34.820802559,2024
2024-10-03,2024-03-10,"עולי הגרדום 9, רמת גן",עולי הגרדום 9,6183-184-5,דירה בבית קומות,1.0,שניה,24.8,1400000,,,1950.0,,2.0,3598786146,1,6183184,False,,רמת גן,עולי הגרדום,,6183-184-5,6183/184,56451.6129032258,32.0663396238,34.8354027771,2024
2024-10-03,2024-03-10,"האגדה 4, רמת גן",האגדה 4,6158-956-3,דירה בבית קומות,2.0,ראשונה,34.0,31474000,,,1950.0,,3.0,3598271048,1,6158956,False,,רמת גן,האגדה,,6158-956-3,6158/956,925705.8823529412,32.0749486033,34.8254624945,2024
2024-10-03,2024-03-10,"ז'בוטינסקי 1, רמת גן",ז'בוטינסקי 1,6207-769-173,משרד,,ארבע עשרה,30.0,491000,,,1976.0,,23.0,3600657371,1,6207769,False,,רמת גן,ז'בוטינסקי,,6207-769-173,6207/769,16366.666666666666,32.0833649685,34.8003412005,2024
2024-10-03,2024-03-10,"מצפה 1, רמת גן",מצפה 1,6128-951-16,דירה בבית קומות,4.0,רביעית,95.0,3680000,,,2017.0,,7.0,3598603388,1,6128951,False,,רמת גן,מצפה,,6128-951-16,6128/951,38736.84210526316,32.0823735515,34.8064679874,2024
2024-10-03,2024-03-10,"רות 4, רמת גן",רות 4,6207-651-14,,5.0,,123.0,4200000,1.0,,2024.0,,3.0,11181268207,1,6207651,False,,רמת גן,רות,,6207-651-14,6207/651,34146.34146341463,32.0903302438,34.8052352831,2024
2024-10-03,2024-03-10,"ראש פינה 26, רמת גן",ראש פינה 26,6181-355-4,דירה בבית קומות,4.0,שניה,68.0,2400000,,,1970.0,,3.0,3598286157,1,6181355,False,31% ב 3.6 שנים,רמת גן,ראש פנה,8.61,6181-355-4,6181/355,35294.117647058825,32.0627996332,34.8294843177,2024
2024-10-03,2024-03-10,,,6232-1-95,משרד,,ראשונה,128.0,2488000,,,2024.0,,,3599309625,2,62321,False,,רמת גן,"רפאל איתן כפר אז""ר",,6232-1-95,6232/1,19437.5,,,2024
2024-10-02,2024-02-10,"רחובות הנהר 8, רמת גן",רחובות הנהר 8,6207-424-16,,3.0,,78.0,3359200,1.0,,2023.0,,3.0,11181268103,1,6207424,False,,רמת גן,רחובות הנהר,,6207-424-16,6207/424,43066.66666666666,32.0900198326,34.8058328456,2024
2024-10-01,2024-01-10,"הרא""ה 307, רמת גן","הרא""ה 307",6144-634-4,דירה בבית קומות,4.0,שניה,96.26,2450000,,,1950.0,,2.0,3596527133,1,6144634,False,,רמת גן,"הרא""ה",,6144-634-4,6144/634,25451.90110118429,32.0614146561,34.8212591808,2024
2024-10-01,2024-01-10,,,6232-1-112,משרד,,שלישית,236.0,3883000,,,2024.0,,,3597038461,2,62321,False,,רמת גן,"רפאל איתן כפר אז""ר",,6232-1-112,6232/1,16453.389830508473,,,2024
2024-10-01,2024-01-10,"אבא הלל 102, רמת גן",אבא הלל 102,6205-297-5,דירה בבית קומות,3.0,שניה,60.1,2300000,,,1999.0,,3.0,3596375956,1,6205297,False,,רמת גן,אבא הלל,,6205-297-5,6205/297,38269.55074875208,32.0912813546,34.8142741781,2024
2024-10-01,2024-01-10,"השר משה 24, רמת גן",השר משה 24,6145-579-25,דירה בבית קומות,4.0,חמישית,100.0,3190000,,,2024.0,,2.0,3596863040,1,6145579,False,,רמת גן,השר משה,,6145-579-25,6145/579,31900.0,32.066832747,34.8227243843,2024
2024-10-01,2024-01-10,"הרצל 26, רמת גן",הרצל 26,6126-251-1,דירה בבית קומות,3.0,קרקע,66.5,2040000,,,1950.0,,2.0,3596311373,1,6126251,False,,רמת גן,הרצל,,6126-251-1,6126/251,30676.69172932331,32.0820850542,34.8168853639,2024
2024-10-01,2024-01-10,,,6232-1-50,,1.0,ראשונה,59.0,1253983,1.0,,,,,11181269917,2,62321,False,,רמת גן,"רפאל איתן כפר אז""ר",,6232-1-50,6232/1,21253.949152542373,,,2024
2024-10-01,2024-01-10,"גרנדוס 11, רמת גן",גרנדוס 11,6157-155-4,דירה בבית קומות,3.0,ראשונה,99.0,2150000,,,1949.0,,2.0,3596442221,1,6157155,False,,רמת גן,גרנדוס,,6157-155-4,6157/155,21717.17171717172,32.0702574535,34.8191437788,2024
2024-10-01,2024-01-10,,,6232-1-51,,1.0,רביעית,236.0,3962205,1.0,,,,,11181269918,2,62321,False,,רמת גן,"רפאל איתן כפר אז""ר",,6232-1-51,6232/1,16789.004237288136,,,2024
2024-10-01,2024-01-10,"מוריה 2, רמת גן",מוריה 2,6158-697-8,דירה בבית קומות,4.0,חמישית,90.0,3150000,,,1950.0,2025.0,2.0,3596373549,1,6158697,False,,רמת גן,מוריה,,6158-697-8,6158/697,35000.0,32.073688698,34.8219648066,2024
2024-10-01,2024-01-10,,,6232-7-49,דירה בבית קומות,5.0,שש עשרה,153.0,6663000,,,2024.0,,,3596816872,2,62327,False,,רמת גן,"רפאל איתן כפר אז""ר",,6232-7-49,6232/7,43549.01960784314,,,2024
2024-10-01,2024-01-10,,,6204-61-16,דירה בבית קומות,5.0,רביעית,123.0,4056000,,,2025.0,,,3596735063,2,620461,False,,רמת גן,הפודים,,6204-61-16,6204/61,32975.60975609756,32.0923882698,34.8201778984,2024
2024-10-01,2024-01-10,"ברנשטיין פרץ 38, רמת גן",ברנשטיין פרץ 38,6179-238-1,קוטג' דו משפחתי,6.0,ק+א+ב,221.3,7300000,,,1982.0,,2.0,3596489810,1,6179238,True,-2% ב 1.9 שנים,רמת גן,ברנשטיין פרץ,-1.05,6179-238-1,6179/238,32986.89561680976,32.0553338299,34.8256018146,2024
2024-10-01,2024-01-10,"מצפה 7, רמת גן",מצפה 7,6128-242-12,דירה בבית קומות,3.0,חמישית,70.0,2675000,,,2023.0,,5.0,3596416846,1,6128242,False,,רמת גן,מצפה,,6128-242-12,6128/242,38214.28571428572,32.0822059703,34.8073766477,2024
2024-10-01,2024-01-10,"שלום עליכם 8, רמת גן",שלום עליכם 8,6142-230-11,דירה בבית קומות,4.0,שניה,77.2,2230000,,,2027.0,,5.0,3596865012,1,6142230,False,259% ב 22 שנים,רמת גן,שלום עליכם,11.77,6142-230-11,6142/230,28886.0103626943,32.0513518265,34.8167256137,2024
2024-10-01,2024-01-10,"החי""ל 5, רמת גן","החי""ל 5",6145-1621-11,דירה בבית קומות,4.0,קומה ‎5‏,79.0,3020000,,,2018.0,,9.0,3596460868,1,61451621,False,,רמת גן,"החי""ל",,6145-1621-11,6145/1621,38227.84810126582,32.0676491649,34.8222400868,2024
2024-09-19,2024-09-19,"עמינדב 1, רמת גן",עמינדב 1,6145-945-4,דירה בבית קומות,3.0,ראשונה,64.5,2575000,,,1960.0,,2.0,3604552129,1,6145945,False,89% ב 14.3 שנים,רמת גן,עמינדב,6.22,6145-945-4,6145/945,39922.48062015504,32.0691436548,34.8229016892,2024
2024-09-17,2024-09-17,"שלם 7, רמת גן",שלם 7,6142-342-18,דירה בבית קומות,5.0,חמישית+שישית,108.54,3150000,,,1992.0,,8.0,3604490620,1,6142342,False,138% ב 20.2 שנים,רמת גן,שלם,6.83,6142-342-18,6142/342,29021.55887230514,32.0526239791,34.8145580883,2024
2024-09-16,2024-09-16,,,6145-505-14,דירה בבית קומות,4.0,שניה,92.0,3000000,,,2022.0,,,3604542298,2,6145505,False,,רמת גן,חד נס,,6145-505-14,6145/505,32608.695652173912,,,2024
2024-09-15,2024-09-15,"תרע""ד 10, רמת גן","תרע""ד 10",6128-946-3,דירה בבית קומות,3.0,שישית,65.0,2645000,,,2018.0,,2.0,3604349245,1,6128946,False,,רמת גן,"תרע""ד",,6128-946-3,6128/946,40692.307692307695,32.0791313073,34.8024312248,2024
2024-09-15,2024-09-15,"הביל""ויים 44, רמת גן","הביל""ויים 44",6180-438-39,דירה בבית קומות,3.5,שביעית,44.1,2240000,,,1970.0,,9.0,3604339646,1,6180438,False,32% ב 3.5 שנים,רמת גן,הבילויים,9.14,6180-438-39,6180/438,50793.65079365079,32.0599772062,34.8255365981,2024
2024-09-13,2024-09-13,"האש""ל 19, רמת גן","האש""ל 19",6126-403-7,דירה בבית קומות,4.0,שלישית,87.0,2860000,,,2018.0,,2.0,3604442277,1,6126403,False,,רמת גן,האשל,,6126-403-7,6126/403,32873.5632183908,32.082295131,34.8184200464,2024
2024-09-12,2024-12-09,"שלומציון 6, רמת גן",שלומציון 6,6145-174-15,,4.0,חמישית,87.0,2800000,1.0,,2024.0,,7.0,11181263621,1,6145174,False,,רמת גן,שלומציון,,6145-174-15,6145/174,32183.90804597701,32.0698581071,34.8258318262,2024
2024-09-09,2024-09-09,"הרא""ה 88, רמת גן","הרא""ה 88",6159-441-8,דירה בבית קומות,2.5,ראשונה,65.0,2050000,,,1960.0,,3.0,3604238668,1,6159441,False,,רמת גן,"הרא""ה",,6159-441-8,6159/441,31538.46153846154,32.080905438,34.8253440223,2024
2024-09-07,2024-07-09,"עוזיאל 15, רמת גן",עוזיאל 15,6158-881-37,,4.0,שלישית,91.0,3030000,1.0,,1949.0,,13.0,11181264560,1,6158881,False,,רמת גן,עוזיאל,,6158-881-37,6158/881,33296.703296703294,32.0775931226,34.8234532557,2024
2024-09-07,2024-07-09,"עזריאל 14, רמת גן",עזריאל 14,6142-404-3,דירה בבית קומות,4.0,קומה ‎1‏,79.28,2400000,,,1994.0,,6.0,3602116303,1,6142404,False,,רמת גן,עזריאל,,6142-404-3,6142/404,30272.45206861756,32.0507060976,34.8186912742,2024
2024-09-07,2024-07-09,"המקור 6, רמת גן",המקור 6,6204-302-28,,4.0,אחת עשרה,97.0,3790000,1.0,,1950.0,,13.0,11181267403,1,6204302,False,,רמת גן,המקור,,6204-302-28,6204/302,39072.16494845361,32.0920186527,34.8174291937,2024
2024-09-07,2024-07-09,"הרכסים 60, רמת גן",הרכסים 60,6158-131-7,דירה בבית קומות,3.0,ראשונה,73.0,2760000,,,2023.0,,4.0,3602309559,1,6158131,False,,רמת גן,הרכסים,,6158-131-7,6158/131,37808.21917808219,32.0727644837,34.8258651439,2024
2024-09-07,2024-07-09,"התמרים 9, רמת גן",התמרים 9,6125-768-57,דירה בבית קומות,4.0,שלוש עשרה,83.3,3050000,,,2005.0,,28.0,3602112214,1,6125768,False,126% ב 17 שנים,רמת גן,התמרים,7.41,6125-768-57,6125/768,36614.64585834334,32.0892074758,34.822125758,2024
2024-09-07,2024-07-09,"בר-יוחאי 10, רמת גן",בר-יוחאי 10,6145-1204-13,דירה בבית קומות,4.0,חמישית,84.0,2810000,,,1970.0,2024.0,3.0,3602161717,1,61451204,False,,רמת גן,בר יוחאי,,6145-1204-13,6145/1204,33452.380952380954,32.0642660472,34.8246231583,2024
2024-09-07,2024-07-09,"רמז 2, רמת גן",רמז 2,6157-233-2,דירה בבית קומות,5.0,ראשונה,114.0,3000000,,,1940.0,,1.0,3602690735,1,6157233,False,,רמת גן,רמז,,6157-233-2,6157/233,26315.78947368421,32.0698712205,34.8192113004,2024
2024-09-07,2024-07-09,"הילד 1, רמת גן",הילד 1,6127-142-10,דירה בבית קומות,3.0,שלוש עשרה,79.0,2968000,,,2028.0,,6.0,3603082873,1,6127142,False,,רמת גן,הילד,,6127-142-10,6127/142,37569.62025316456,32.0870424667,34.8131075449,2024
2024-09-07,2024-07-09,"הירדן 28, רמת גן",הירדן 28,6182-348-3,דירה בבית קומות,3.0,ראשונה,51.4,1675000,,,1960.0,,3.0,3602130368,1,6182348,False,,רמת גן,הירדן,,6182-348-3,6182/348,32587.54863813229,32.0674685033,34.8282173283,2024
2024-09-06,2024-06-09,"סנהדרין 11, רמת גן",סנהדרין 11,6158-1395-1,דירה בבית קומות,3.0,ראשונה,77.24,2350000,,,1970.0,,3.0,3602087361,1,61581395,False,,רמת גן,סנהדרין,,6158-1395-1,6158/1395,30424.650440186437,32.0777603578,34.8264295001,2024
2024-09-06,2024-06-09,"גילדסגיים 4, רמת גן",גילדסגיים 4,6235-901-16,דירה בבית קומות,6.0,חמש עשרה,138.0,4182000,,,2022.0,,9.0,3601431091,1,6235901,False,,רמת גן,גילדסגיים,,6235-901-16,6235/901,30304.34782608696,32.0527854538,34.8495571119,2024
2024-09-06,2024-06-09,"הרצל 21, רמת גן",הרצל 21,6126-256-1,דירה בבית קומות,4.0,ראשונה,97.34,2535000,,,1965.0,,3.0,3601197815,1,6126256,False,111% ב 15.1 שנים,רמת גן,הרצל,7.35,6126-256-1,6126/256,26042.736798849397,32.0813087355,34.817518193,2024
2024-09-06,2024-06-09,,,6232-1-83,משרד,,חמישית,179.0,3363000,,,2024.0,,,3601507187,2,62321,False,,רמת גן,"רפאל איתן כפר אז""ר",,6232-1-83,6232/1,18787.709497206703,,,2024
2024-09-06,2024-06-09,"הרא""ה 279, רמת גן","הרא""ה 279",6144-560-14,דירה בבית קומות,5.0,חמישית,119.0,3940000,,,2027.0,,3.0,3601853099,1,6144560,False,,רמת גן,"הרא""ה",,6144-560-14,6144/560,33109.24369747899,32.0632951425,34.8236963933,2024
2024-09-06,2024-06-09,"הרא""ה 196, רמת גן","הרא""ה 196",6145-858-5,דירה בבית קומות,2.0,שניה,46.0,2260000,,,2023.0,,3.0,3601629915,1,6145858,False,256% ב 16.6 שנים,רמת גן,"הרא""ה",15.42,6145-858-5,6145/858,49130.434782608696,32.0687203251,34.8241737122,2024
2024-09-06,2024-06-09,"רש""י 12, רמת גן","רש""י 12",6204-668-9,,5.0,שישית,110.0,3600000,1.0,,,,17.0,11181267464,1,6204668,False,,רמת גן,"רש""י",,6204-668-9,6204/668,32727.272727272728,32.0907927517,34.8189108592,2024
2024-09-05,2024-05-09,"רוקח 48, רמת גן",רוקח 48,6210-81-6,דירה בבית קומות,3.0,חמישית,96.0,4950000,,,1958.0,2023.0,2.0,3600556132,1,621081,False,,רמת גן,רוקח,,6210-81-6,6210/81,51562.5,32.0916284973,34.8094932275,2024
2024-09-05,2024-05-09,"י""א באדר 11, רמת גן","י""א באדר 11",6182-452-4,דירה בבית קומות,3.0,שניה,56.25,2500000,,,1960.0,,3.0,3600366182,1,6182452,False,81% ב 12.8 שנים,רמת גן,"י""א באדר",6.33,6182-452-4,6182/452,44444.444444444445,32.0646618576,34.8279052338,2024
2024-09-05,2024-05-09,"הרצל 84, רמת גן",הרצל 84,6125-330-11,דירה בבית קומות,3.0,שניה,66.1,1835000,,,1980.0,,5.0,3600308994,1,6125330,False,,רמת גן,הרצל,,6125-330-11,6125/330,27760.96822995461,32.0872336731,34.8151199053,2024
2024-09-05,2024-05-09,,,6232-3-74,מחסנים,,שלישית,80.0,1692000,,,2024.0,,,3600940846,2,62323,False,,רמת גן,"רפאל איתן כפר אז""ר",,6232-3-74,6232/3,21150.0,,,2024
2024-09-05,2024-05-09,,,6232-7-43,דירה בבית קומות,5.0,תשיעית,118.0,4382000,,,2024.0,,,3600962625,2,62327,False,,רמת גן,"רפאל איתן כפר אז""ר",,6232-7-43,6232/7,37135.59322033898,,,2024
2024-09-05,2024-05-09,"בר-יוחאי 10, רמת גן",בר-יוחאי 10,6145-1204-3,דירה בבית קומות,4.0,שניה,84.0,2680000,,,1970.0,2024.0,3.0,3600390078,1,61451204,False,4% ב 0.3 שנים,רמת גן,בר יוחאי,13.33,6145-1204-3,6145/1204,31904.761904761905,32.0642660472,34.8246231583,2024
2024-09-05,2024-05-09,"מצפה 1, רמת גן",מצפה 1,6128-951-14,דירה בבית קומות,4.0,שלוש עשרה,93.0,3860000,,,2017.0,,7.0,3600373606,1,6128951,False,,רמת גן,מצפה,,6128-951-14,6128/951,41505.37634408602,32.0823735515,34.8064679874,2024
2024-09-04,2024-04-09,"חירות 10, רמת גן",חירות 10,6205-492-9,דירה בבית קומות,2.5,ראשונה,63.0,2170000,,,1950.0,,3.0,3599307218,1,6205492,False,,רמת גן,חרות,,6205-492-9,6205/492,34444.444444444445,32.089512626,34.8110835422,2024
2024-09-04,2024-04-09,"שמחה 5, רמת גן",שמחה 5,6128-506-7,דירה בבית קומות,3.0,שלישית,41.5,2300000,,,1960.0,,3.0,3599324502,1,6128506,False,,רמת גן,שמחה,,6128-506-7,6128/506,55421.68674698795,32.0815204041,34.8054617572,2024
2024-09-04,2024-04-09,"הרא""ה 188, רמת גן","הרא""ה 188",6145-910-1,דירה בבית קומות,3.0,ראשונה,42.3,1600000,,,1950.0,,3.0,3600165241,1,6145910,False,105% ב 15.5 שנים,רמת גן,"הרא""ה",6.77,6145-910-1,6145/910,37825.05910165485,32.0697462123,34.8244120534,2024
2024-09-04,2024-04-09,"איתמר 12, רמת גן",איתמר 12,6206-141-22,דירה בבית קומות,3.0,חמישית,63.0,3100000,,,2020.0,,5.0,3599352197,1,6206141,False,,רמת גן,איתמר,,6206-141-22,6206/141,49206.34920634921,,,2024
2024-09-04,2024-04-09,"האגדה 15, רמת גן",האגדה 15,6158-1039-7,דירה בבית קומות,4.0,ראשונה,98.0,2880000,,,2022.0,,5.0,3599495544,1,61581039,False,,רמת גן,האגדה,,6158-1039-7,6158/1039,29387.755102040817,,,2024
2024-09-04,2024-04-09,"דן שומרון 15, רמת גן",דן שומרון 15,7278-85-109,דירה בבית קומות,5.0,קומה ‎19‏,127.74,4625000,,,2019.0,,22.0,3599339292,1,727885,False,23% ב 1.1 שנים,רמת גן,דן שומרון,20.91,7278-85-109,7278/85,36206.35666196963,32.0545657849,34.8454574527,2024
2024-09-04,2024-04-09,"בר-יוחאי 8, רמת גן",בר-יוחאי 8,6145-1203-2,דירה בבית קומות,3.5,ראשונה,84.4,2420000,,,1980.0,,3.0,3599271374,1,61451203,False,,רמת גן,בר יוחאי,,6145-1203-2,6145/1203,28672.98578199052,32.0642921049,34.8244322078,2024
2024-09-01,2024-01-09,,,6232-7-35,,5.0,שש עשרה,153.0,6657500,1.0,,,,,11181270186,2,62327,False,,רמת גן,"רפאל איתן כפר אז""ר",,6232-7-35,6232/7,43513.07189542484,,,2024
2024-09-01,2024-01-09,"בן-צבי 48, רמת גן",בן-צבי 48,6180-630-2,קרקע למגורים,,-,74.43,3000000,,,,,1.0,3596996324,1,6180630,False,,רמת גן,בן צבי,,6180-630-2,6180/630,40306.328093510674,32.0563688116,34.8315397116,2024
2024-09-01,2024-01-09,"ז'בוטינסקי 125, רמת גן",ז'בוטינסקי 125,6204-113-26,דירה בבית קומות,2.0,רביעית,53.0,1500000,,,1950.0,,4.0,3596298149,1,6204113,False,,רמת גן,ז'בוטינסקי,,6204-113-26,6204/113,28301.88679245283,32.0899305328,34.8183129728,2024
2024-09-01,2024-01-09,,,6232-1-113,משרד,,ראשונה,61.0,1120000,,,2024.0,,,3597020945,2,62321,False,,רמת גן,"רפאל איתן כפר אז""ר",,6232-1-113,6232/1,18360.65573770492,,,2024
2024-09-01,2024-01-09,"הרצל 67, רמת גן",הרצל 67,6127-218-10,דירה בבית קומות,3.0,,60.0,1950000,,,1950.0,,3.0,3596440771,1,6127218,False,,רמת גן,הרצל,,6127-218-10,6127/218,32500.0,32.0857797432,34.8146088956,2024
2024-09-01,2024-01-09,"השר משה 40, רמת גן",השר משה 40,6145-585-9,דירה בבית קומות,4.0,,93.0,2980000,,,1960.0,2025.0,3.0,3596869304,1,6145585,False,,רמת גן,השר משה,,6145-585-9,6145/585,32043.010752688173,32.0664773953,34.8257095469,2024
2024-09-01,2024-01-09,"השר משה 24, רמת גן",השר משה 24,6145-579-16,,4.0,,100.0,3190000,1.0,,2024.0,,2.0,11181263720,1,6145579,False,,רמת גן,השר משה,,6145-579-16,6145/579,31900.0,32.066832747,34.8227243843,2024
2024-09-01,2024-01-09,"התקווה 10, רמת גן",התקווה 10,6205-73-2,דירה בבית קומות,2.0,קרקע,48.02,1496000,,,1950.0,,2.0,3596356555,1,620573,False,,רמת גן,התקוה,,6205-73-2,6205/73,31153.68596418159,32.0898793921,34.8131194961,2024
2024-09-01,2024-01-09,"החשמונאים 6, רמת גן",החשמונאים 6,6128-680-11,דירה בבית קומות,3.0,שלישית,77.0,2815000,,,1950.0,,3.0,3596295278,1,6128680,False,,רמת גן,החשמונאים,,6128-680-11,6128/680,36558.44155844156,32.0836053201,34.8089414386,2024
2024-09-01,2024-01-09,"מצפה 2, רמת גן",מצפה 2,6128-958-74,דירה בבית קומות,4.0,עשרים ושבע,104.0,4300000,,,2025.0,,15.0,3596849671,1,6128958,False,,רמת גן,מצפה,,6128-958-74,6128/958,41346.15384615384,32.0819509091,34.8063846824,2024
2024-08-30,2024-08-30,"סנהדרין 3, רמת גן",סנהדרין 3,6158-1605-4,דירה בבית קומות,5.0,שלישית,129.7,4050000,,,2009.0,,7.0,3603957310,1,61581605,False,129% ב 16.3 שנים,רמת גן,סנהדרין,7.91,6158-1605-4,6158/1605,31225.90593677718,32.0777587693,34.825957623,2024
2024-08-29,2024-08-29,"פנקס 16, רמת גן",פנקס 16,6186-59-6,דירה בבית קומות,3.0,שלישית,61.0,2300000,,,1968.0,,3.0,3603926483,1,618659,False,181% ב 9 שנים,רמת גן,פנקס,20.11,6186-59-6,6186/59,37704.91803278688,32.0682879835,34.830600955,2024
2024-08-27,2024-08-27,"דונש 7, רמת גן",דונש 7,6186-118-2,דירה בבית קומות,3.0,חמישית,71.0,2653000,,,2024.0,,,3604257837,1,6186118,False,,רמת גן,דונש,,6186-118-2,6186/118,37366.19718309859,32.0677626464,34.8321381323,2024
2024-08-27,2024-08-27,"הרב חבה אליה 5, רמת גן",הרב חבה אליה 5,6127-558-3,דירה בבית קומות,4.0,שניה,74.0,3570000,,,2024.0,,3.0,3604051357,1,6127558,False,,רמת גן,הרב חבה אליהו,,6127-558-3,6127/558,48243.24324324324,32.0806340812,34.8100285179,2024
2024-08-27,2024-08-27,"רש""י 12, רמת גן","רש""י 12",6204-668-37,,5.0,שמינית,110.0,3840000,1.0,,,,17.0,11181267453,1,6204668,False,,רמת גן,"רש""י",,6204-668-37,6204/668,34909.09090909091,32.0907927517,34.8189108592,2024
2024-08-27,2024-08-27,"חירות 43, רמת גן",חירות 43,6205-420-6,דירה בבית קומות,2.0,ראשונה,48.68,2100000,,,1960.0,,2.0,3603870948,1,6205420,False,254% ב 25.9 שנים,רמת גן,חרות,9.81,6205-420-6,6205/420,43138.86606409203,32.0914341596,34.8150309677,2024
2024-08-26,2024-08-26,"הרב חבה אליה 5, רמת גן",הרב חבה אליה 5,6127-558-9,דירה בבית קומות,4.0,חמישית,102.0,3650000,,,2024.0,,3.0,3604018326,1,6127558,False,,רמת גן,הרב חבה אליהו,,6127-558-9,6127/558,35784.3137254902,32.0806340812,34.8100285179,2024
2024-08-26,2024-08-26,"הדר 7, רמת גן",הדר 7,6205-663-30,דירה בבית קומות,4.0,שמינית,100.0,3750000,,,1970.0,,8.0,3603813064,1,6205663,False,,רמת גן,הדר,,6205-663-30,6205/663,37500.0,32.0877179992,34.8117726871,2024
2024-08-26,2024-08-26,"עזריאל 19, רמת גן",עזריאל 19,6142-201-8,דירה בבית קומות,2.0,שניה,38.0,1850000,,,1970.0,,2.0,3603945130,1,6142201,False,19% ב 5 שנים,רמת גן,עזריאל,3.8,6142-201-8,6142/201,48684.21052631579,32.0514084318,34.819316093,2024
2024-08-26,2024-08-26,"מצפה 10, רמת גן",מצפה 10,6128-155-4,דירה בבית קומות,4.0,שניה,85.0,2800000,,,1980.0,,4.0,3603814485,1,6128155,False,,רמת גן,מצפה,,6128-155-4,6128/155,32941.17647058824,32.0818512641,34.8075278928,2024
2024-08-25,2024-08-25,"גילדסגיים 4, רמת גן",גילדסגיים 4,6235-901-15,דירה בבית קומות,6.0,ראשונה,138.0,4125000,,,2022.0,,9.0,3603751555,1,6235901,False,,רמת גן,גילדסגיים,,6235-901-15,6235/901,29891.304347826088,32.0527854538,34.8495571119,2024
2024-08-25,2024-08-25,"רות 6, רמת גן",רות 6,6207-654-15,דירה בבית קומות,3.0,שישית,64.0,3175000,,,2023.0,,3.0,3604049211,1,6207654,False,,רמת גן,רות,,6207-654-15,6207/654,49609.375,32.09013588,34.8052472867,2024
2024-08-25,2024-08-25,"נווה יעקב 2, רמת גן",נווה יעקב 2,6145-1294-7,דירה בבית קומות,3.0,שמינית,76.0,3000000,,,1976.0,2026.0,3.0,3603906618,1,61451294,False,,רמת גן,נוה יעקב,,6145-1294-7,6145/1294,39473.68421052631,32.0655359673,34.8216996417,2024
2024-08-25,2024-08-25,"הררי 12, רמת גן",הררי 12,6180-334-58,דירה בבית קומות,3.0,שביעית,62.0,2370000,,,2025.0,,2.0,3603931239,1,6180334,False,,רמת גן,הררי,,6180-334-58,6180/334,38225.8064516129,32.0584213793,34.830868265,2024
2024-08-25,2024-08-25,,,7278-72-4,,6.0,,158.0,7496450,1.0,,,,,11181294809,2,727872,False,,רמת גן,דן שומרון,,7278-72-4,7278/72,47445.88607594937,32.0541394458,34.8455090136,2024
2024-08-25,2024-08-25,,,7278-72-3,,6.0,,158.0,7304550,1.0,,,,,11181294808,2,727872,False,,רמת גן,דן שומרון,,7278-72-3,7278/72,46231.32911392405,32.0541394458,34.8455090136,2024
2024-08-24,2024-08-24,"הררי 12, רמת גן",הררי 12,6180-334-57,,2.0,,62.0,2370000,1.0,,2025.0,,2.0,11181265772,1,6180334,False,,רמת גן,הררי,,6180-334-57,6180/334,38225.8064516129,32.0584213793,34.830868265,2024
2024-08-24,2024-08-24,,,7278-92-4,,5.0,ראשונה,140.0,5908260,1.0,,,,,11181294817,2,727892,False,,רמת גן,דן שומרון,,7278-92-4,7278/92,42201.857142857145,32.0544445952,34.84600131,2024
2024-08-24,2024-08-24,,,7278-92-3,,5.0,שניה,126.0,4864950,1.0,,,,,11181294816,2,727892,False,,רמת גן,דן שומרון,,7278-92-3,7278/92,38610.71428571428,32.0544445952,34.84600131,2024
2024-08-24,2024-08-24,"גילדסגיים 4, רמת גן",גילדסגיים 4,6235-901-13,,6.0,שתים עשרה,138.0,4125000,1.0,,2022.0,,9.0,11181270720,1,6235901,False,,רמת גן,גילדסגיים,,6235-901-13,6235/901,29891.304347826088,32.0527854538,34.8495571119,2024
2024-08-23,2024-08-23,"התמרים 14, רמת גן",התמרים 14,6125-369-48,דירה בבית קומות,2.0,שלישית,52.5,1860000,,,1950.0,,3.0,3603928600,1,6125369,False,16% ב 4.6 שנים,רמת גן,התמרים,3.48,6125-369-48,6125/369,35428.57142857143,32.0891776336,34.8213019945,2024
2024-08-23,2024-08-23,"משה שרת 21, רמת גן",משה שרת 21,6125-94-2,דירה בבית קומות,2.0,קרקע,36.0,1690000,,,1960.0,,4.0,3603762807,1,612594,False,39% ב 5.7 שנים,רמת גן,שרת משה,6.84,6125-94-2,6125/94,46944.444444444445,32.085650325,34.817854565,2024
2024-08-23,2024-08-23,"עטרות 36, רמת גן",עטרות 36,6158-694-5,דירה בבית קומות,4.0,שלישית ו-גג,109.64,3870000,,,1994.0,,3.0,3603907575,1,6158694,False,,רמת גן,עטרות,,6158-694-5,6158/694,35297.336738416634,32.0738956632,34.822373965,2024
2024-08-22,2024-08-22,"קריניצי 51, רמת גן",קריניצי 51,6126-293-46,דירה בבית קומות,3.0,ראשונה,74.0,2680000,,,2021.0,,8.0,3603849169,1,6126293,False,,רמת גן,קריניצי,,6126-293-46,6126/293,36216.21621621621,32.0831914675,34.8190007078,2024
2024-08-22,2024-08-22,"יואב 6, רמת גן",יואב 6,6206-178-3,דירה בבית קומות,4.0,שביעית,86.0,4250000,,,1960.0,2024.0,3.0,3604398980,1,6206178,False,,רמת גן,יואב,,6206-178-3,6206/178,49418.6046511628,32.089320737,34.8067236538,2024
2024-08-22,2024-08-22,,,7278-72-2,,5.0,שלישית,150.0,6916950,1.0,,,,,11181294807,2,727872,False,,רמת גן,דן שומרון,,7278-72-2,7278/72,46113.0,32.0541394458,34.8455090136,2024
2024-08-22,2024-08-22,,,7278-70-1,,6.0,,158.0,7484100,1.0,,,,,11181294806,2,727870,False,,רמת גן,חיים בר-לב,,7278-70-1,7278/70,47367.72151898734,32.0555704559,34.8461174307,2024
2024-08-21,2024-08-21,,,7278-92-2,,5.0,רביעית,126.0,4779190,1.0,,,,,11181294815,2,727892,False,,רמת גן,דן שומרון,,7278-92-2,7278/92,37930.07936507936,32.0544445952,34.84600131,2024
2024-08-21,2024-08-21,"החשמונאים 38, רמת גן",החשמונאים 38,6128-305-11,דירה בבית קומות,2.0,שלישית,46.0,2000000,,,1950.0,,3.0,3603733633,1,6128305,False,247% ב 20.3 שנים,רמת גן,החשמונאים,12.17,6128-305-11,6128/305,43478.260869565216,32.0798923411,34.8088691279,2024
2024-08-21,2024-08-21,"יד שלום 28, רמת גן",יד שלום 28,6157-669-2,דירה בבית קומות,4.0,ראשונה,89.3,3000000,,,1970.0,,3.0,3603668325,1,6157669,False,,רמת גן,יד שלום,,6157-669-2,6157/669,33594.6248600224,32.0723770172,34.8211242461,2024
2024-08-21,2024-08-21,"יד שלום 55, רמת גן",יד שלום 55,6157-643-7,דירה בבית קומות,3.0,שניה,60.0,2370000,,,2012.0,,4.0,3603647010,1,6157643,False,,רמת גן,יד שלום,,6157-643-7,6157/643,39500.0,32.0726202743,34.822983407,2024
2024-08-20,2024-08-20,"קריניצי 24, רמת גן",קריניצי 24,6126-495-13,דירה בבית קומות,3.0,שניה,67.21,2750000,,,1960.0,,2.0,3603621461,1,6126495,False,205% ב 16 שנים,רמת גן,קריניצי,12.81,6126-495-13,6126/495,40916.53027823241,32.0795425208,34.8169187877,2024
2024-08-20,2024-08-20,"מטולה 1, רמת גן",מטולה 1,6182-339-4,דירה בבית קומות,2.0,שניה,41.76,2440000,,,1960.0,2025.0,4.0,3604086998,1,6182339,False,,רמת גן,מטולה,,6182-339-4,6182/339,58429.11877394637,32.0657244017,34.8295718226,2024
2024-08-20,2024-08-20,"סן מרטין 19, רמת גן",סן מרטין 19,6143-990-11,דירה בבית קומות,4.0,שישית,106.0,4200000,,,2021.0,,4.0,3604012352,1,6143990,False,,רמת גן,סן מרטין,,6143-990-11,6143/990,39622.64150943396,32.0534817233,34.8229778185,2024
2024-08-20,2024-08-20,"יד שלום 55, רמת גן",יד שלום 55,6157-643-6,,3.0,שניה,60.0,2370000,1.0,עוזיאל 70,2012.0,,4.0,11181264004,1,6157643,False,,רמת גן,יד שלום,,6157-643-6,6157/643,39500.0,32.0726202743,34.822983407,2024
2024-08-20,2024-08-20,"יוסף הגלילי 15, רמת גן",יוסף הגלילי 15,6125-601-19,דירה בבית קומות,3.0,שלישית,59.0,2130000,,,1960.0,,4.0,3603666643,1,6125601,False,63% ב 10.6 שנים,רמת גן,יוסף הגלילי,5.94,6125-601-19,6125/601,36101.69491525424,32.0884620313,34.8189903566,2024
2024-08-19,2024-08-19,"יהודית 19, רמת גן",יהודית 19,6207-602-9,דירה בבית קומות,3.0,ראשונה,53.0,2450000,,,1970.0,,3.0,3603773769,1,6207602,False,,רמת גן,יהודית,,6207-602-9,6207/602,46226.41509433962,32.0886966101,34.8042390028,2024
2024-08-19,2024-08-19,"ארלוזורוב 54, רמת גן",ארלוזורוב 54,6128-191-16,דירה בבית קומות,3.0,ראשונה,61.4,2400000,,,1950.0,,3.0,3603728355,1,6128191,False,241% ב 17 שנים,רמת גן,ארלוזורוב,14.18,6128-191-16,6128/191,39087.94788273616,32.0817658856,34.8094489818,2024
2024-08-19,2024-08-19,"יהל""ם (יהודה לייב מוצקין) 3, רמת גן","יהל""ם (יהודה לייב מוצקין) 3",6125-228-9,דירה בבית קומות,1.5,,22.0,1560000,,,1950.0,,3.0,3604376969,1,6125228,False,,רמת גן,"יהל""ם",,6125-228-9,6125/228,70909.09090909091,32.0852113009,34.8192388691,2024
2024-08-19,2024-08-19,"יהל""ם (יהודה לייב מוצקין) 3, רמת גן","יהל""ם (יהודה לייב מוצקין) 3",6125-228-9,דירה בבית קומות,1.5,,22.0,1560000,,,1950.0,,3.0,3604376969,1,6125228,False,,רמת גן,יהלום,,6125-228-9,6125/228,70909.09090909091,32.0852113009,34.8192388691,2024
2024-08-19,2024-08-19,"עוזיאל 7, רמת גן",עוזיאל 7,6158-888-33,דירה בבית קומות,5.0,תשיעית,147.0,5516000,,,2021.0,,9.0,3603993705,1,6158888,False,,רמת גן,עוזיאל,,6158-888-33,6158/888,37523.80952380953,,,2024
2024-08-18,2024-08-18,"הילד 1, רמת גן",הילד 1,6127-142-11,דירה בבית קומות,3.0,שלושים,79.0,3466000,,,2028.0,,6.0,3604315982,1,6127142,False,,רמת גן,הילד,,6127-142-11,6127/142,43873.417721518985,32.0870424667,34.8131075449,2024
2024-08-18,2024-08-18,"תרע""ד 2, רמת גן","תרע""ד 2",6128-135-2,דירה בבית קומות,4.0,ראשונה,95.0,7603000,,,1950.0,2024.0,3.0,3604396631,1,6128135,False,,רמת גן,"תרע""ד",,6128-135-2,6128/135,80031.57894736843,32.0790733399,34.8015264014,2024
2024-08-18,2024-08-18,"הפודים 50, רמת גן",הפודים 50,6204-472-8,,4.0,קומה ‎2‏,89.75,3150000,,,2019.0,,10.0,3603494847,1,6204472,False,34% ב 3 שנים,רמת גן,הפודים,11.33,6204-472-8,6204/472,35097.4930362117,32.0932892897,34.8217647494,2024
2024-08-18,2024-08-18,"תרע""ד 12, רמת גן","תרע""ד 12",6128-564-17,דירה בבית קומות,2.0,שלישית,50.0,2260000,,,1960.0,2022.0,7.0,3603921408,1,6128564,False,,רמת גן,"תרע""ד",,6128-564-17,6128/564,45200.0,32.0791494272,34.8026803274,2024
2024-08-18,2024-08-18,"יוסף הגלילי 9, רמת גן",יוסף הגלילי 9,6125-120-3,דירה בבית קומות,2.5,קרקע,60.0,2280000,,,1950.0,,3.0,3603577120,1,6125120,False,,רמת גן,יוסף הגלילי,,6125-120-3,6125/120,38000.0,32.0878421284,34.8192043213,2024
2024-08-18,2024-08-18,"תרע""ד 2, רמת גן","תרע""ד 2",6128-135-9,דירה בבית קומות,4.0,שלישית,67.0,4050000,,,1950.0,2024.0,3.0,3604395877,1,6128135,False,211% ב 13.2 שנים,רמת גן,"תרע""ד",15.98,6128-135-9,6128/135,60447.76119402985,32.0790733399,34.8015264014,2024
2024-08-18,2024-08-18,"היד החזקה 7, רמת גן",היד החזקה 7,6145-1554-3,דירה בבית קומות,4.0,ראשונה,92.03,2650000,,,1994.0,,3.0,3603580745,1,61451554,False,116% ב 20.7 שנים,רמת גן,היד החזקה,5.6,6145-1554-3,6145/1554,28794.958165815493,32.06496986,34.8247224905,2024
2024-08-18,2024-08-18,"חיבת ציון 27, רמת גן",חיבת ציון 27,6159-543-20,דירה בבית קומות,3.0,ראשונה,90.0,3280000,,,2020.0,,5.0,3603728819,1,6159543,False,,רמת גן,חיבת ציון,,6159-543-20,6159/543,36444.444444444445,32.0795080294,34.823208651,2024
2024-08-17,2024-08-17,"תרע""ד 12, רמת גן","תרע""ד 12",6128-564-15,,2.0,שלישית,50.0,2260000,1.0,,1960.0,,7.0,11181262444,1,6128564,False,,רמת גן,"תרע""ד",,6128-564-15,6128/564,45200.0,32.0791494272,34.8026803274,2024
2024-08-15,2024-08-15,"אבא הלל 46, רמת גן",אבא הלל 46,6205-584-16,דירה בבית קומות,5.0,חמש עשרה,127.0,5228000,,,1960.0,2024.0,3.0,3604268567,1,6205584,False,,רמת גן,אבא הלל,,6205-584-16,6205/584,41165.35433070866,32.0889085737,34.8088349072,2024
2024-08-15,2024-08-15,"התיכון 10, רמת גן",התיכון 10,6145-1105-12,דירה בבית קומות,4.0,רביעית,89.92,2700000,,,2010.0,,7.0,3603655681,1,61451105,False,27% ב 6.7 שנים,רמת גן,התיכון,4.03,6145-1105-12,6145/1105,30026.690391459077,32.0724015795,34.8244672746,2024
2024-08-15,2024-08-15,"דונש 7, רמת גן",דונש 7,6186-118-3,דירה בבית קומות,3.0,רביעית,71.0,2640000,,,2024.0,,,3604256880,1,6186118,False,,רמת גן,דונש,,6186-118-3,6186/118,37183.09859154929,32.0677626464,34.8321381323,2024
2024-08-15,2024-08-15,"ביאליק 80, רמת גן",ביאליק 80,6205-531-15,דירה בבית קומות,2.0,שניה,50.76,2000000,,,1950.0,,4.0,3604346374,1,6205531,False,,רמת גן,ביאליק,,6205-531-15,6205/531,39401.10323089047,32.0862609156,34.8103722483,2024
2024-08-15,2024-08-15,"הילד 1, רמת גן",הילד 1,6127-142-12,דירה בבית קומות,3.0,עשרים ושבע,79.0,3403000,,,2028.0,,6.0,3604226488,1,6127142,False,,רמת גן,הילד,,6127-142-12,6127/142,43075.94936708861,32.0870424667,34.8131075449,2024
2024-08-15,2024-08-15,"המבדיל 14, רמת גן",המבדיל 14,6204-550-22,דירה בבית קומות,3.0,שלישית,57.78,2650000,,,1965.0,,3.0,3603474286,1,6204550,False,237% ב 23.8 שנים,רמת גן,המבדיל,9.96,6204-550-22,6204/550,45863.62062997577,32.0913306327,34.8166182787,2024
2024-08-14,2024-08-14,"תרע""ד 6, רמת גן","תרע""ד 6",6128-568-3,,4.0,שמינית,78.0,3390000,1.0,,,,3.0,11181262452,1,6128568,False,,רמת גן,"תרע""ד",,6128-568-3,6128/568,43461.53846153846,32.0790904667,34.801948076,2024
2024-08-14,2024-08-14,"הגיבורים 1, רמת גן",הגיבורים 1,6125-617-1,דירה בבית קומות,5.0,ראשונה,123.0,4725000,,,2023.0,,3.0,3603741289,1,6125617,False,,רמת גן,הגבורים,,6125-617-1,6125/617,38414.634146341465,32.0870205516,34.8174233361,2024
2024-08-09,2024-09-08,"הבילויים 3, רמת גן",הבילויים 3,6144-712-3,דירה בבית קומות,4.0,ראשונה,95.78,2000000,,,1970.0,,7.0,3604322188,1,6144712,False,,רמת גן,הבילויים,,6144-712-3,6144/712,20881.18605136772,32.0608997771,34.8218672845,2024
2024-08-08,2024-08-08,"בת-שוע 8, רמת גן",בת-שוע 8,6145-183-3,דירה בבית קומות,2.0,שניה,52.04,2816000,,,2022.0,,3.0,3603997301,1,6145183,False,,רמת גן,בת שוע,,6145-183-3,6145/183,54112.221368178325,32.0696806201,34.8265087301,2024
2024-08-08,2024-08-08,"בת-שוע 8, רמת גן",בת-שוע 8,6145-183-1,דירה בבית קומות,2.0,ראשונה,52.04,2700000,,,2022.0,,3.0,3603452275,1,6145183,False,134% ב 11.2 שנים,רמת גן,בת שוע,11.96,6145-183-1,6145/183,51883.16679477325,32.0696806201,34.8265087301,2024
2024-08-08,2024-08-08,"הרכסים 13, רמת גן",הרכסים 13,6158-1302-1,דירה בבית קומות,4.0,ראשונה,98.84,2995000,,,1960.0,,2.0,3604078617,1,61581302,False,,רמת גן,הרכסים,,6158-1302-1,6158/1302,30301.49736948604,32.0732316906,34.8198169078,2024
2024-08-08,2024-08-08,"ביאליק 77, רמת גן",ביאליק 77,6127-891-76,דירה בבית קומות,3.0,חמישית,65.0,2670000,,,1970.0,,12.0,3603940606,1,6127891,False,36% ב 2.6 שנים,רמת גן,ביאליק,13.85,6127-891-76,6127/891,41076.92307692308,32.0852140675,34.8108384264,2024
2024-08-08,2024-08-08,"השוטרת 16, רמת גן",השוטרת 16,6127-348-26,דירה בבית קומות,3.0,ראשונה,64.0,3275000,,,2019.0,,6.0,3603242924,1,6127348,False,,רמת גן,השוטרת,,6127-348-26,6127/348,51171.875,32.0810869165,34.8135169367,2024
2024-08-08,2024-08-08,"פני הגבעה 27, רמת גן",פני הגבעה 27,6205-751-16,דירה בבית קומות,3.5,שישית,71.0,3285000,1.0,פני הגבעה,2018.0,,6.0,3603291470,1,6205751,False,,רמת גן,פני הגבעה,,6205-751-16,6205/751,46267.605633802814,32.0874495554,34.8105613165,2024
2024-08-07,2024-07-08,"הרא""ה 279, רמת גן","הרא""ה 279",6144-560-13,דירה בבית קומות,4.0,שמינית,91.0,3457000,,,2027.0,,3.0,3602984998,1,6144560,False,,רמת גן,"הרא""ה",,6144-560-13,6144/560,37989.01098901099,32.0632951425,34.8236963933,2024
2024-08-07,2024-07-08,"הירדן 28, רמת גן",הירדן 28,6182-348-1,דירה בבית קומות,2.0,ראשונה,39.1,1775000,,,1960.0,,3.0,3602094930,1,6182348,False,225% ב 19.9 שנים,רמת גן,הירדן,11.31,6182-348-1,6182/348,45396.41943734016,32.0674685033,34.8282173283,2024
2024-08-07,2024-07-08,"קריניצי 56, רמת גן",קריניצי 56,6126-528-2,דירה בבית קומות,3.0,ראשונה,82.73,3100000,,,2023.0,,3.0,3602753665,1,6126528,False,,רמת גן,קריניצי,,6126-528-2,6126/528,37471.29215520367,32.0823687673,34.81946157,2024
2024-08-07,2024-07-08,"רש""י 12, רמת גן","רש""י 12",6204-668-8,,5.0,שישית,112.0,3800000,1.0,,,,17.0,11181267463,1,6204668,False,,רמת גן,"רש""י",,6204-668-8,6204/668,33928.57142857143,32.0907927517,34.8189108592,2024
2024-08-07,2024-07-08,"אורי ניסן 5, רמת גן",אורי ניסן 5,6159-453-4,דירה בבית קומות,3.0,קרקע,59.0,2225000,,,1960.0,,3.0,3602252661,1,6159453,False,27% ב 2.4 שנים,רמת גן,אורי ניסן,11.25,6159-453-4,6159/453,37711.86440677966,32.0798540122,34.824879499,2024
2024-08-07,2024-07-08,"הילד 1, רמת גן",הילד 1,6127-142-9,דירה בבית קומות,3.0,עשרים וארבע,79.0,3371000,,,2028.0,,6.0,3603089572,1,6127142,False,,רמת גן,הילד,,6127-142-9,6127/142,42670.88607594937,32.0870424667,34.8131075449,2024
2024-08-07,2024-07-08,,,6232-1-82,משרד,,שלישית,56.0,983000,,,2024.0,,,3602938308,2,62321,False,,רמת גן,"רפאל איתן כפר אז""ר",,6232-1-82,6232/1,17553.571428571428,,,2024
2024-08-07,2024-07-08,"הרכסים 60, רמת גן",הרכסים 60,6158-131-6,,3.0,ראשונה,73.0,2760000,1.0,,2023.0,,4.0,11181264181,1,6158131,False,,רמת גן,הרכסים,,6158-131-6,6158/131,37808.21917808219,32.0727644837,34.8258651439,2024
2024-08-07,2024-07-08,"נתן 18, רמת גן",נתן 18,6126-132-7,דירה בבית קומות,3.0,שלישית,90.0,1534000,,,1950.0,,3.0,3603038590,1,6126132,False,,רמת גן,נתן,,6126-132-7,6126/132,17044.444444444445,32.0821616902,34.817187778,2024
2024-08-07,2024-07-08,"בר-יוחאי 10, רמת גן",בר-יוחאי 10,6145-1204-11,,4.0,,84.0,2810000,1.0,,1970.0,,3.0,11181263567,1,61451204,False,,רמת גן,בר יוחאי,,6145-1204-11,6145/1204,33452.380952380954,32.0642660472,34.8246231583,2024
2024-08-07,2024-07-08,"רות 12, רמת גן",רות 12,6207-49-5,דירה בבית קומות,2.0,ראשונה,47.0,1666000,,,2021.0,,4.0,3602413901,1,620749,False,,רמת גן,רות,,6207-49-5,6207/49,35446.8085106383,,,2024
2024-08-06,2024-06-08,,,6232-1-79,,1.0,חמישית,180.0,3357445,1.0,,,,,11181269948,2,62321,False,,רמת גן,"רפאל איתן כפר אז""ר",,6232-1-79,6232/1,18652.472222222223,,,2024
2024-08-06,2024-06-08,,,6232-1-76,,1.0,חמישית,75.0,1886164,1.0,,,,,11181269945,2,62321,False,,רמת גן,"רפאל איתן כפר אז""ר",,6232-1-76,6232/1,25148.853333333333,,,2024
2024-08-06,2024-06-08,,,6232-1-77,,1.0,חמישית,118.0,2162414,1.0,,,,,11181269946,2,62321,False,,רמת גן,"רפאל איתן כפר אז""ר",,6232-1-77,6232/1,18325.542372881355,,,2024
2024-08-06,2024-06-08,,,6232-1-78,,1.0,חמישית,143.0,3114264,1.0,,,,,11181269947,2,62321,False,,רמת גן,"רפאל איתן כפר אז""ר",,6232-1-78,6232/1,21778.06993006993,,,2024
2024-08-06,2024-06-08,,,6232-1-80,,1.0,חמישית,160.0,4133963,1.0,,,,,11181269950,2,62321,False,,רמת גן,"רפאל איתן כפר אז""ר",,6232-1-80,6232/1,25837.26875,,,2024
2024-08-06,2024-06-08,"גילדסגיים 4, רמת גן",גילדסגיים 4,6235-901-12,,6.0,חמש עשרה,138.0,4182000,1.0,,2022.0,,9.0,11181270719,1,6235901,False,,רמת גן,גילדסגיים,,6235-901-12,6235/901,30304.34782608696,32.0527854538,34.8495571119,2024
2024-08-05,2024-05-08,,,6232-3-17,,1.0,שלישית,81.0,1686286,1.0,,,,,11181269961,2,62323,False,,רמת גן,"רפאל איתן כפר אז""ר",,6232-3-17,6232/3,20818.345679012345,,,2024
2024-08-05,2024-05-08,"סן מרטין 19, רמת גן",סן מרטין 19,6143-990-14,דירה בבית קומות,4.0,חמישית,109.0,4150000,,,2021.0,,4.0,3600716241,1,6143990,False,,רמת גן,סן מרטין,,6143-990-14,6143/990,38073.394495412846,32.0534817233,34.8229778185,2024
2024-08-05,2024-05-08,"דוד 8, רמת גן",דוד 8,6126-94-3,דירה בבית קומות,3.0,שניה,54.52,2600000,,,1960.0,,4.0,3600429141,1,612694,False,,רמת גן,דוד,,6126-94-3,6126/94,47688.92149669846,32.0832026058,34.8169731482,2024
2024-08-05,2024-05-08,"רות 5, רמת גן",רות 5,6207-42-4,דירה בבית קומות,9.0,שניה,99.0,4359000,,,2023.0,,3.0,3600404491,1,620742,False,86% ב 0.7 שנים,רמת גן,רות,122.86,6207-42-4,6207/42,44030.30303030303,32.0901343572,34.8056484035,2024
2024-08-05,2024-05-08,"הירדן 20, רמת גן",הירדן 20,6186-360-6,דירה בבית קומות,3.0,שניה,51.84,2100000,,,1960.0,,3.0,3600424066,1,6186360,False,98% ב 11.5 שנים,רמת גן,הירדן,8.52,6186-360-6,6186/360,40509.259259259255,32.06815598,34.8282923707,2024
2024-08-05,2024-05-08,"עוזיאל 27, רמת גן",עוזיאל 27,6158-1348-12,דירה בבית קומות,3.0,שלישית,51.8,2250000,,,1960.0,,4.0,3600410175,1,61581348,False,181% ב 14.9 שנים,רמת גן,עוזיאל,12.15,6158-1348-12,6158/1348,43436.29343629344,32.0763550153,34.8234521288,2024
2024-08-05,2024-05-08,"הגפן 20, רמת גן",הגפן 20,6205-59-5,דירה בבית קומות,2.0,ראשונה,58.0,2300000,,,1950.0,,2.0,3600252038,1,620559,False,,רמת גן,הגפן,,6205-59-5,6205/59,39655.1724137931,32.0893066398,34.8128258491,2024
2024-08-05,2024-05-08,,,6232-7-40,,5.0,תשיעית,118.0,4375500,1.0,,,,,11181270192,2,62327,False,,רמת גן,"רפאל איתן כפר אז""ר",,6232-7-40,6232/7,37080.50847457627,,,2024
2024-08-05,2024-05-08,"שמעון פרוג 3, רמת גן",שמעון פרוג 3,6127-987-4,דירה בבית קומות,2.0,ראשונה,57.0,2540000,,,2022.0,,2.0,3600341561,1,6127987,False,,רמת גן,פרוג שמעון,,6127-987-4,6127/987,44561.40350877193,32.0803427703,34.8119819545,2024
2024-08-05,2024-05-08,"רש""י 15, רמת גן","רש""י 15",6204-418-8,דירה בבית קומות,2.5,ראשונה,55.7,1870000,,,1960.0,,4.0,3602092581,1,6204418,False,10% ב 7.4 שנים,רמת גן,"רש""י",1.35,6204-418-8,6204/418,33572.71095152603,32.0912405085,34.8180944763,2024
2024-08-05,2024-05-08,"בר-יוחאי 10, רמת גן",בר-יוחאי 10,6145-1204-9,,4.0,,84.0,2680000,1.0,,1970.0,,3.0,11181263570,1,61451204,False,,רמת גן,בר יוחאי,,6145-1204-9,6145/1204,31904.761904761905,32.0642660472,34.8246231583,2024
2024-08-05,2024-05-08,"השושן 10, רמת גן",השושן 10,6145-811-2,דירה בבית קומות,4.0,ראשונה,73.0,2434000,,,1960.0,,3.0,3600658067,1,6145811,False,,רמת גן,השושן,,6145-811-2,6145/811,33342.46575342466,32.0712843354,34.8260727842,2024
2024-08-05,2024-05-08,"סטרומה 3, רמת גן",סטרומה 3,6205-753-7,דירה בבית קומות,3.0,ראשונה,82.0,3150000,,,2018.0,,4.0,3600953780,1,6205753,False,,רמת גן,סטרומה,,6205-753-7,6205/753,38414.634146341465,32.0912812131,34.815856718,2024
2024-08-05,2024-05-08,"רוקח 48, רמת גן",רוקח 48,6210-81-5,,3.0,שלישית,96.0,4950000,1.0,,1958.0,,2.0,11181268349,1,621081,False,,רמת גן,רוקח,,6210-81-5,6210/81,51562.5,32.0916284973,34.8094932275,2024
2024-08-05,2024-05-08,,,6232-1-86,מחסנים,,ראשונה,,193000,,,2024.0,,,3600906858,2,62321,False,,רמת גן,"רפאל איתן כפר אז""ר",,6232-1-86,6232/1,,,,2024
2024-08-05,2024-05-08,"אבני החושן 2, רמת גן",אבני החושן 2,6187-520-135,דירה בבית קומות,4.0,חמש עשרה,97.49,2386000,,,2006.0,,20.0,3600315200,1,6187520,False,24% ב 11.5 שנים,רמת גן,אבני החושן,2.09,6187-520-135,6187/520,24474.305056928915,32.0713092575,34.8333551388,2024
2024-08-04,2024-04-08,"רחובות הנהר 15, רמת גן",רחובות הנהר 15,6206-48-5,דירה בבית קומות,3.0,שניה,45.2,3109000,,,2022.0,,4.0,3599383082,1,620648,False,237% ב 1.9 שנים,רמת גן,רחובות הנהר,124.74,6206-48-5,6206/48,68783.18584070796,,,2024
2024-08-04,2024-04-08,"האם 23, רמת גן",האם 23,6180-307-6,דירה בבית קומות,2.0,ראשונה,40.52,1249000,,,1960.0,,2.0,3599380443,1,6180307,False,,רמת גן,האם,,6180-307-6,6180/307,30824.28430404738,32.0594766692,34.8311541963,2024
2024-08-04,2024-04-08,"מטולה 1, רמת גן",מטולה 1,6182-339-19,דירה בבית קומות,2.0,רביעית,41.76,1256000,,,1960.0,,4.0,3600309458,1,6182339,False,,רמת גן,מטולה,,6182-339-19,6182/339,30076.62835249042,32.0657244017,34.8295718226,2024
2024-08-04,2024-04-08,"שלם 27, רמת גן",שלם 27,6142-127-2,דירה בבית קומות,3.0,ראשונה,56.0,2775000,,,1960.0,,2.0,3599253162,1,6142127,False,,רמת גן,שלם,,6142-127-2,6142/127,49553.57142857143,32.0506108791,34.8151135898,2024
2024-08-04,2024-04-08,"חיבת ציון 44, רמת גן",חיבת ציון 44,6158-18-63,דירה בבית קומות,2.0,שניה,54.0,1830000,,,1950.0,,3.0,3599295995,1,615818,False,,רמת גן,חיבת ציון,,6158-18-63,6158/18,33888.88888888889,32.07909683,34.8243503547,2024
2024-08-04,2024-04-08,"דוד בן-גוריון 102, רמת גן",דוד בן-גוריון 102,6125-493-1,דירה בבית קומות,2.0,קרקע,46.0,1360000,,,1950.0,,2.0,3599329258,1,6125493,False,,רמת גן,בן גוריון דוד,,6125-493-1,6125/493,29565.217391304348,32.084423041,34.8215395945,2024
2024-08-04,2024-04-08,"שלום עליכם 8, רמת גן",שלום עליכם 8,6142-230-15,דירה בבית קומות,4.0,רביעית,77.2,2705000,,,2027.0,,5.0,3600136009,1,6142230,False,,רמת גן,שלום עליכם,,6142-230-15,6142/230,35038.86010362694,32.0513518265,34.8167256137,2024
2024-08-02,2024-02-08,"רד""ק 8, רמת גן","רד""ק 8",6159-348-2,דירה בבית קומות,2.0,קרקע,53.0,2150000,,,2016.0,,7.0,3597349457,1,6159348,False,72% ב 10.2 שנים,רמת גן,"רד""ק",7.06,6159-348-2,6159/348,40566.03773584906,32.0841157089,34.8237214877,2024
2024-08-02,2024-02-08,"החץ 2, רמת גן",החץ 2,6159-601-4,דירה בבית קומות,3.0,שניה,73.3,2190000,,,1960.0,,3.0,3597430077,1,6159601,False,214% ב 23.5 שנים,רמת גן,החץ,9.11,6159-601-4,6159/601,29877.216916780355,32.0820416819,34.8208044688,2024
2024-08-02,2024-02-08,"אמנון ותמר 7, רמת גן",אמנון ותמר 7,6145-1645-10,דירה בבית קומות,3.0,שלישית,110.0,2170000,,,2016.0,,10.0,3598113433,1,61451645,True,-6% ב 3.5 שנים,רמת גן,אמנון ותמר,-1.71,6145-1645-10,6145/1645,19727.272727272728,32.0725131162,34.8257972494,2024
2024-08-02,2024-02-08,,,6232-7-46,דירה בבית קומות,5.0,שניה,118.0,4268000,,,2024.0,,,3598007902,2,62327,False,,רמת גן,"רפאל איתן כפר אז""ר",,6232-7-46,6232/7,36169.49152542373,,,2024
2024-08-02,2024-02-08,"אביגיל 7, רמת גן",אביגיל 7,6207-26-8,דירה בבית קומות,4.0,שלישית,111.0,3860000,,,1960.0,2023.0,3.0,3598201448,1,620726,False,103% ב 2.2 שנים,רמת גן,אביגיל,46.82,6207-26-8,6207/26,34774.77477477478,,,2024
2024-08-02,2024-02-08,"ירושלים 93, רמת גן",ירושלים 93,6186-292-19,דירה בבית קומות,2.0,רביעית,42.0,1780000,,,1950.0,,4.0,3597480334,1,6186292,False,22% ב 3 שנים,רמת גן,ירושלים,7.33,6186-292-19,6186/292,42380.95238095238,32.0753082769,34.8311508751,2024
2024-08-02,2024-02-08,"מירקין 2, רמת גן",מירקין 2,6126-554-17,דירה בבית קומות,4.0,חמישית,90.0,2550000,,,1970.0,,9.0,3597547121,1,6126554,False,,רמת גן,מירקין,,6126-554-17,6126/554,28333.33333333333,32.0835881962,34.8164572202,2024
2024-08-02,2024-02-08,"נחמיה תמרי 2, רמת גן",נחמיה תמרי 2,6158-1093-30,דירה בבית קומות,5.0,שמינית,109.0,4496000,,,2026.0,,2.0,3598244745,1,61581093,False,,רמת גן,תמרי נחמיה,,6158-1093-30,6158/1093,41247.706422018346,32.076225645,34.8253465723,2024
2024-08-02,2024-02-08,"הזיתים 14, רמת גן",הזיתים 14,6126-528-5,דירה בבית קומות,3.0,שלישית,82.73,2650000,,,2023.0,,3.0,3597663817,1,6126528,True,-26% ב 1.4 שנים,רמת גן,הזיתים,-18.57,6126-528-5,6126/528,32031.911035899917,32.0823687673,34.81946157,2024
2024-08-01,2024-01-08,"ארנון 3, רמת גן",ארנון 3,6180-176-42,דירה בבית קומות,3.0,ראשונה,84.0,2250000,,,2021.0,,7.0,3597154229,1,6180176,False,,רמת גן,ארנון,,6180-176-42,6180/176,26785.714285714286,32.0604823912,34.8288846876,2024
2024-08-01,2024-01-08,"בועז 14, רמת גן",בועז 14,6128-211-24,דירה בבית קומות,3.0,חמישית,70.0,2840000,,,2022.0,,6.0,3596639131,1,6128211,False,,רמת גן,בועז,,6128-211-24,6128/211,40571.42857142857,32.0800663596,34.8081528322,2024
2024-08-01,2024-01-08,,,6232-1-49,,1.0,ראשונה,61.0,1304807,1.0,,,,,11181269915,2,62321,False,,רמת גן,"רפאל איתן כפר אז""ר",,6232-1-49,6232/1,21390.27868852459,,,2024
2024-08-01,2024-01-08,"חיים בר-לב 21, רמת גן",חיים בר-לב 21,7277-41-15,דירה בבית קומות,4.0,קומה ‎1‏,85.3,3550000,,,2014.0,,3.0,3596380219,1,727741,False,,רמת גן,חיים בר-לב,,7277-41-15,7277/41,41617.819460726845,32.0575619253,34.8454758468,2024
2024-08-01,2024-01-08,"יכין 6, רמת גן",יכין 6,6128-391-3,דירה בבית קומות,3.0,ראשונה,63.77,2750000,,,2013.0,,6.0,3596390775,1,6128391,False,,רמת גן,יכין,,6128-391-3,6128/391,43123.72588991689,32.080845699,34.8067200699,2024
2024-08-01,2024-01-08,"מצפה 1, רמת גן",מצפה 1,6128-951-11,,4.0,עשרים ושבע,105.0,4300000,1.0,,2017.0,,7.0,11181262659,1,6128951,False,,רמת גן,מצפה,,6128-951-11,6128/951,40952.38095238096,32.0823735515,34.8064679874,2024
2024-08-01,2024-01-08,"יוסף הגלילי 3, רמת גן",יוסף הגלילי 3,6125-247-6,דירה בבית קומות,2.0,ראשונה,48.8,2070000,,,1950.0,,3.0,3596370910,1,6125247,False,61% ב 10 שנים,רמת גן,יוסף הגלילי,6.1,6125-247-6,6125/247,42418.03278688525,32.0872679688,34.8194775793,2024
2024-07-31,2024-07-31,"הרא""ה 279, רמת גן","הרא""ה 279",6144-560-4,דירה בבית קומות,4.0,שניה,94.0,3280000,,,2027.0,,3.0,3603148181,1,6144560,False,173% ב 9.2 שנים,רמת גן,"הרא""ה",18.8,6144-560-4,6144/560,34893.617021276594,32.0632951425,34.8236963933,2024
2024-07-31,2024-07-31,"רחובות הנהר 14, רמת גן",רחובות הנהר 14,6207-32-10,דירה בבית קומות,4.0,חמישית,95.0,4100000,,,2024.0,,3.0,3603361360,1,620732,False,,רמת גן,רחובות הנהר,,6207-32-10,6207/32,43157.89473684211,32.0892324025,34.8057922878,2024
2024-07-31,2024-07-31,"רוקח 50, רמת גן",רוקח 50,6210-80-2,דירה בבית קומות,3.0,ראשונה,99.0,4200000,,,2023.0,,3.0,3603407267,1,621080,True,-30% ב 1.1 שנים,רמת גן,רוקח,-27.27,6210-80-2,6210/80,42424.24242424242,32.0918064115,34.8094505816,2024
2024-07-31,2024-07-31,"עוזיאל 64, רמת גן",עוזיאל 64,6158-774-19,דירה בבית קומות,3.0,שניה,53.0,1900000,,,1950.0,,3.0,3603145774,1,6158774,False,41% ב 6.5 שנים,רמת גן,עוזיאל,6.31,6158-774-19,6158/774,35849.056603773584,32.0733179553,34.8230729864,2024
2024-07-31,2024-07-31,"שמעון פרוג 5, רמת גן",שמעון פרוג 5,6127-818-4,דירה בבית קומות,3.0,ראשונה,50.0,2850000,,,2024.0,,2.0,3603865206,1,6127818,False,,רמת גן,פרוג שמעון,,6127-818-4,6127/818,57000.0,32.0801588248,34.8119942355,2024
2024-07-31,2024-07-31,"הררי 12, רמת גן",הררי 12,6180-334-59,דירה בבית קומות,3.0,שמינית,62.0,2380000,,,2025.0,,2.0,3603439080,1,6180334,False,,רמת גן,הררי,,6180-334-59,6180/334,38387.096774193546,32.0584213793,34.830868265,2024
2024-07-31,2024-07-31,"בועז 14, רמת גן",בועז 14,6128-211-17,,4.0,תשיעית,112.0,5425000,1.0,,2022.0,,6.0,11181261999,1,6128211,False,,רמת גן,בועז,,6128-211-17,6128/211,48437.5,32.0800663596,34.8081528322,2024
2024-07-31,2024-07-31,"יונה 31, רמת גן",יונה 31,6158-1134-7,דירה בבית קומות,4.5,שלישית,102.0,3200000,,,1968.0,2027.0,3.0,3602965365,1,61581134,False,,רמת גן,יונה,,6158-1134-7,6158/1134,31372.549019607843,32.0785755685,34.8268564283,2024
2024-07-31,2024-07-31,"יוהנה 4, רמת גן",יוהנה 4,6125-235-8,דירה בבית קומות,3.0,שניה,49.0,2250000,,,1950.0,,1.0,3602958927,1,6125235,False,50% ב 5.5 שנים,רמת גן,אל על,9.09,6125-235-8,6125/235,45918.36734693877,32.088461261,34.8163107024,2024
2024-07-31,2024-07-31,"קריניצי 16, רמת גן",קריניצי 16,6126-81-24,דירה בבית קומות,2.0,שלישית,57.7,1750000,,,1955.0,,4.0,3602952953,1,612681,False,,רמת גן,קריניצי,,6126-81-24,6126/81,30329.289428076256,32.0793090201,34.8163157468,2024
2024-07-30,2024-07-30,"הררי 12, רמת גן",הררי 12,6180-334-55,,2.0,,62.0,2380000,1.0,,2025.0,,2.0,11181265771,1,6180334,False,,רמת גן,הררי,,6180-334-55,6180/334,38387.096774193546,32.0584213793,34.830868265,2024
2024-07-30,2024-07-30,"רוקח 50, רמת גן",רוקח 50,6210-80-6,,3.0,,99.0,4200000,1.0,,2023.0,,3.0,11181268347,1,621080,False,,רמת גן,רוקח,,6210-80-6,6210/80,42424.24242424242,32.0918064115,34.8094505816,2024
2024-07-30,2024-07-30,"אגמון 5, רמת גן",אגמון 5,6176-504-11,דירה בבית קומות,4.0,שלישית,80.5,3200000,,,1970.0,,3.0,3603232368,1,6176504,False,23% ב 3.4 שנים,רמת גן,אגמון,6.76,6176-504-11,6176/504,39751.55279503106,32.0491389393,34.8353917995,2024
2024-07-30,2024-07-30,"רש""י 12, רמת גן","רש""י 12",6204-668-43,דירה בבית קומות,2.0,שביעית,51.0,2350000,,,2022.0,,17.0,3603014694,1,6204668,False,,רמת גן,"רש""י",,6204-668-43,6204/668,46078.43137254902,32.0907927517,34.8189108592,2024
2024-07-29,2024-07-29,"רש""י 12, רמת גן","רש""י 12",6204-668-41,,5.0,עשירית,110.0,3830000,1.0,,,,17.0,11181267458,1,6204668,False,,רמת גן,"רש""י",,6204-668-41,6204/668,34818.181818181816,32.0907927517,34.8189108592,2024
2024-07-29,2024-07-29,"רש""י 12, רמת גן","רש""י 12",6204-668-42,,2.0,שביעית,52.0,2350000,1.0,,,,17.0,11181267459,1,6204668,False,,רמת גן,"רש""י",,6204-668-42,6204/668,45192.307692307695,32.0907927517,34.8189108592,2024
2024-07-29,2024-07-29,"רחובות הנהר 5, רמת גן",רחובות הנהר 5,6206-151-35,דירה בבית קומות,5.0,חמישית,133.0,5750000,,,2023.0,,1.0,3602812767,1,6206151,False,,רמת גן,רחובות הנהר,,6206-151-35,6206/151,43233.08270676692,32.0905646864,34.8063067768,2024
2024-07-29,2024-07-29,"עוזיאל 15, רמת גן",עוזיאל 15,6158-881-39,דירה בבית קומות,4.0,שישית,91.0,3095000,,,1949.0,2025.0,13.0,3603848937,1,6158881,False,,רמת גן,עוזיאל,,6158-881-39,6158/881,34010.98901098901,32.0775931226,34.8234532557,2024
2024-07-29,2024-07-29,"מתתיהו מנדל 5, רמת גן",מתתיהו מנדל 5,6183-454-96,דירה בבית קומות,5.0,תשיעית,106.0,3200000,,,1994.0,,16.0,3602840752,1,6183454,False,147% ב 18.3 שנים,רמת גן,מנדל מתתיהו,8.03,6183-454-96,6183/454,30188.67924528302,32.0690980026,34.833430912,2024
2024-07-29,2024-07-29,"גרנדוס 25, רמת גן",גרנדוס 25,6157-162-3,דירה בבית קומות,2.0,שניה,48.0,2400000,,,1950.0,,1.0,3602846668,1,6157162,False,,רמת גן,גרנדוס,,6157-162-3,6157/162,50000.0,32.0699486058,34.8208707288,2024
2024-07-29,2024-07-29,"בועז 10, רמת גן",בועז 10,6128-684-11,דירה בבית קומות,3.0,שלישית,63.03,2855000,,,1950.0,,3.0,3602834256,1,6128684,False,,רמת גן,בועז,,6128-684-11,6128/684,45295.89084562907,32.080015059,34.8076238597,2024
2024-07-28,2024-07-28,"עוזיאל 15, רמת גן",עוזיאל 15,6158-881-38,,4.0,שישית,91.0,3095000,1.0,,1949.0,,13.0,11181264561,1,6158881,False,,רמת גן,עוזיאל,,6158-881-38,6158/881,34010.98901098901,32.0775931226,34.8234532557,2024
2024-07-28,2024-07-28,"גרשום 7, רמת גן",גרשום 7,6186-348-26,דירה בבית קומות,3.0,,70.0,3040000,,,2019.0,,7.0,3603351297,1,6186348,False,,רמת גן,גרשום,,6186-348-26,6186/348,43428.57142857143,32.0693625301,34.8295936846,2024
2024-07-28,2024-07-28,"רש""י 12, רמת גן","רש""י 12",6204-668-44,דירה בבית קומות,2.0,שלישית,56.0,2350000,,,2022.0,,17.0,3602898172,1,6204668,False,,רמת גן,"רש""י",,6204-668-44,6204/668,41964.28571428572,32.0907927517,34.8189108592,2024
2024-07-28,2024-07-28,"נחמיה תמרי 15, רמת גן",נחמיה תמרי 15,6158-487-5,דירה בבית קומות,2.5,ראשונה,42.0,1900000,,,1950.0,,2.0,3602797194,1,6158487,False,70% ב 9.8 שנים,רמת גן,תמרי נחמיה,7.14,6158-487-5,6158/487,45238.09523809524,32.0764931628,34.8267114626,2024
2024-07-28,2024-07-28,"הקונגרס 30, רמת גן",הקונגרס 30,6181-249-2,דירה בבית קומות,2.0,קרקע,54.85,1750000,,,1980.0,,1.0,3604056171,1,6181249,False,,רמת גן,הקונגרס,,6181-249-2,6181/249,31905.195989061074,32.0620339827,34.8270421181,2024
2024-07-27,2024-07-27,"רש""י 12, רמת גן","רש""י 12",6204-668-36,,2.0,שלישית,56.0,2350000,1.0,,,,17.0,11181267452,1,6204668,False,,רמת גן,"רש""י",,6204-668-36,6204/668,41964.28571428572,32.0907927517,34.8189108592,2024
2024-07-27,2024-07-27,"המקור 6, רמת גן",המקור 6,6204-302-30,,3.0,שניה,67.0,2805200,1.0,,1950.0,,13.0,11181267405,1,6204302,False,,רמת גן,המקור,,6204-302-30,6204/302,41868.65671641791,32.0920186527,34.8174291937,2024
2024-07-26,2024-07-26,"גדעון 36, רמת גן",גדעון 36,6157-497-73,דירה בבית קומות,3.5,ראשונה,72.8,2675000,,,1960.0,,9.0,3602742181,1,6157497,False,,רמת גן,גדעון,,6157-497-73,6157/497,36744.50549450549,32.0658463881,34.816235763,2024
2024-07-26,2024-07-26,"שילה 3, רמת גן",שילה 3,6126-654-2,דירה בבית קומות,5.0,שביעית,114.0,3930000,,,2022.0,,2.0,3602843855,1,6126654,False,,רמת גן,שילה,,6126-654-2,6126/654,34473.68421052631,32.082518061,34.8156552671,2024
2024-07-25,2024-07-25,"חיים בר-לב 9, רמת גן",חיים בר-לב 9,7277-47-13,דירה בבית קומות,5.0,שישית,115.0,4400000,,,2016.0,,8.0,3602723737,1,727747,False,,רמת גן,חיים בר-לב,,7277-47-13,7277/47,38260.86956521739,32.0560967283,34.8456058928,2024
2024-07-25,2024-07-25,"אבני החושן 8, רמת גן",אבני החושן 8,6187-524-100,דירה בבית קומות,5.0,ראשונה,115.0,3200000,,,2013.0,,20.0,3602727826,1,6187524,False,,רמת גן,אבני החושן,,6187-524-100,6187/524,27826.08695652174,32.0709286258,34.8348584485,2024
2024-07-25,2024-07-25,"המקור 4, רמת גן",המקור 4,6204-303-10,דירה בבית קומות,3.0,שניה,48.48,2811000,,,2028.0,,2.0,3603688857,1,6204303,False,,רמת גן,המקור,,6204-303-10,6204/303,57982.67326732674,32.0918735758,34.8174859673,2024
2024-07-25,2024-07-25,,,6125-465-16,דירה בבית קומות,4.0,שביעית,119.0,3480000,,,2024.0,,,3603339813,2,6125465,False,,רמת גן,הגת,,6125-465-16,6125/465,29243.697478991595,32.0848863492,34.8210099372,2024
2024-07-25,2024-07-25,"הרב לנדרס 6, רמת גן",הרב לנדרס 6,6187-377-3,דירה בבית קומות,4.0,ראשונה,89.4,2500000,,,1970.0,,7.0,3603530488,1,6187377,False,150% ב 15.9 שנים,רמת גן,הרב לנדרס,9.43,6187-377-3,6187/377,27964.205816554808,32.0700141055,34.838654761,2024
2024-07-25,2024-07-25,"מטולה 15, רמת גן",מטולה 15,6182-515-15,דירה בבית קומות,5.0,ראשונה,134.0,3300000,,,2020.0,,3.0,3603294863,1,6182515,False,,רמת גן,מטולה,,6182-515-15,6182/515,24626.86567164179,32.0642203946,34.8293662289,2024
2024-07-25,2024-07-25,"המתמיד 40, רמת גן",המתמיד 40,6128-575-16,דירה בבית קומות,2.5,שניה,55.0,2350000,,,1950.0,,2.0,3603011591,1,6128575,False,11% ב 3 שנים,רמת גן,המתמיד,3.67,6128-575-16,6128/575,42727.27272727273,32.0798813566,34.8058821263,2024
2024-07-24,2024-07-24,"שאר ישוב 14, רמת גן",שאר ישוב 14,6181-407-4,דירה בבית קומות,5.0,שניה,109.0,2440000,,,1994.0,,5.0,3602654079,1,6181407,False,,רמת גן,שאר ישוב,,6181-407-4,6181/407,22385.32110091743,32.0623528949,34.8301764049,2024
2024-07-24,2024-07-24,"לח""י 11, רמת גן","לח""י 11",6183-196-5,דירה בבית קומות,4.0,שניה,95.0,2400000,,,1950.0,,2.0,3602657936,1,6183196,False,,רמת גן,"לח""י",,6183-196-5,6183/196,25263.157894736843,32.0661755332,34.8347357538,2024
2024-07-24,2024-07-24,"הדר 9, רמת גן",הדר 9,6205-664-4,דירה בבית קומות,4.0,ראשונה,81.8,2920000,,,1970.0,,8.0,3602737367,1,6205664,False,212% ב 18.5 שנים,רמת גן,הדר,11.46,6205-664-4,6205/664,35696.82151589242,32.0878701098,34.8120221991,2024
2024-07-24,2024-07-24,"אחד העם 14, רמת גן",אחד העם 14,6141-139-33,דירה בבית קומות,5.0,שלישית,118.0,3700000,,,2017.0,,20.0,6208790550,1,6141139,False,,רמת גן,אחד העם,,6141-139-33,6141/139,31355.93220338983,32.0478082079,34.8169712607,2024
2024-07-24,2024-07-24,"המבדיל 12, רמת גן",המבדיל 12,6204-593-4,דירה בבית קומות,4.0,שניה,93.58,2900000,,,1990.0,,10.0,3602920647,1,6204593,False,,רמת גן,המבדיל,,6204-593-4,6204/593,30989.527676854028,32.0906975616,34.8171417962,2024
2024-07-23,2024-07-23,"היוגב 8, רמת גן",היוגב 8,6204-190-4,דירה בבית קומות,3.0,ראשונה,60.0,2650000,,,1970.0,,3.0,3602633315,1,6204190,False,56% ב 6.4 שנים,רמת גן,היוגב,8.75,6204-190-4,6204/190,44166.66666666666,32.0939064379,34.8197256078,2024
2024-07-23,2024-07-23,"רש""י 12, רמת גן","רש""י 12",6204-668-30,,5.0,שביעית,112.0,3860000,1.0,,,,17.0,11181267446,1,6204668,False,,רמת גן,"רש""י",,6204-668-30,6204/668,34464.28571428572,32.0907927517,34.8189108592,2024
2024-07-23,2024-07-23,"חצור 15, רמת גן",חצור 15,6158-889-42,דירה בבית קומות,5.0,,146.0,4976000,,,2021.0,,9.0,3602698884,1,6158889,False,,רמת גן,חצור,,6158-889-42,6158/889,34082.191780821915,,,2024
2024-07-22,2024-07-22,"המתמיד 5, רמת גן",המתמיד 5,6128-562-12,דירה בבית קומות,4.0,ראשונה,98.0,3750000,,,1960.0,2016.0,7.0,3603480985,1,6128562,False,,רמת גן,המתמיד,,6128-562-12,6128/562,38265.30612244898,32.0827551506,34.8081231136,2024
2024-07-22,2024-07-22,"מנחם בגין 3, רמת גן",מנחם בגין 3,6207-877-169,דירה בבית קומות,2.0,קומה ‎26‏,65.2,2500000,,,2000.0,,24.0,3602572995,1,6207877,False,40% ב 5.5 שנים,רמת גן,בגין מנחם,7.27,6207-877-169,6207/877,38343.558282208585,32.0844858541,34.7994713944,2024
2024-07-22,2024-07-22,"התפוצות 35, רמת גן",התפוצות 35,6183-388-5,דירה בבית קומות,3.0,שניה,62.4,2200000,,,1998.0,,3.0,3602589728,1,6183388,False,,רמת גן,התפוצות,,6183-388-5,6183/388,35256.41025641026,32.0662067225,34.8373327147,2024
2024-07-22,2024-07-22,"בני משה 7, רמת גן",בני משה 7,6159-577-4,,5.0,שניה,112.7,4400000,,,1960.0,,2.0,3602951010,1,6159577,False,10% ב 1.7 שנים,רמת גן,בני משה,5.88,6159-577-4,6159/577,39041.70363797693,32.0810996227,34.8217557057,2024
2024-07-22,2024-07-22,"נורדאו 18, רמת גן",נורדאו 18,6127-498-23,דירה בבית קומות,4.0,תשיעית,87.0,3850000,,,2024.0,,9.0,3603639383,1,6127498,False,,רמת גן,נורדאו,,6127-498-23,6127/498,44252.87356321839,32.0833188355,34.8115110225,2024
2024-07-22,2024-07-22,"חצור 15, רמת גן",חצור 15,6158-889-40,,5.0,,146.0,4970000,1.0,,2021.0,,9.0,11181264591,1,6158889,False,,רמת גן,חצור,,6158-889-40,6158/889,34041.09589041096,,,2024
2024-07-22,2024-07-22,"החייל האלמוני 6, רמת גן",החייל האלמוני 6,6125-336-13,דירה בבית קומות,2.0,קרקע,62.0,2400000,,,1954.0,,2.0,3602583522,1,6125336,False,33% ב 6 שנים,רמת גן,החייל האלמוני,5.5,6125-336-13,6125/336,38709.67741935484,32.0859169103,34.8169791744,2024
2024-07-22,2024-07-22,"כנפי נשרים 2, רמת גן",כנפי נשרים 2,6157-142-5,דירה בבית קומות,2.0,ראשונה,50.0,2250000,,,1960.0,,3.0,3602717995,1,6157142,False,60% ב 4.7 שנים,רמת גן,כנפי נשרים,12.77,6157-142-5,6157/142,45000.0,32.0707437505,34.8180183072,2024
2024-07-21,2024-07-21,"רש""י 12, רמת גן","רש""י 12",6204-668-28,,5.0,עשרים ואחת,112.0,4270000,1.0,,,,17.0,11181267443,1,6204668,False,,רמת גן,"רש""י",,6204-668-28,6204/668,38125.0,32.0907927517,34.8189108592,2024
2024-07-21,2024-07-21,"הזיתים 12, רמת גן",הזיתים 12,6126-332-1,דירה בבית קומות,4.0,ראשונה,69.33,3325000,,,2023.0,,2.0,3602971107,1,6126332,False,,רמת גן,הזיתים,,6126-332-1,6126/332,47959.03649213904,32.0825083206,34.8196510519,2024
2024-07-21,2024-07-21,"רש""י 12, רמת גן","רש""י 12",6204-668-29,,5.0,עשרים,112.0,4229000,1.0,,,,17.0,11181267444,1,6204668,False,,רמת גן,"רש""י",,6204-668-29,6204/668,37758.92857142857,32.0907927517,34.8189108592,2024
2024-07-20,2024-07-20,"הזיתים 12, רמת גן",הזיתים 12,6126-332-13,,4.0,,83.0,3325000,1.0,,2023.0,,2.0,11181261559,1,6126332,False,,רמת גן,הזיתים,,6126-332-13,6126/332,40060.24096385542,32.0825083206,34.8196510519,2024
2024-07-19,2024-07-19,"הירדן 4, רמת גן",הירדן 4,6186-354-7,דירה בבית קומות,2.5,ראשונה,58.0,1960000,,,1960.0,,4.0,3602492404,1,6186354,False,,רמת גן,הירדן,,6186-354-7,6186/354,33793.10344827586,32.0698163537,34.8284629745,2024
2024-07-19,2024-07-19,"מלכי צדק 12, רמת גן",מלכי צדק 12,6142-341-2,דירה בבית קומות,2.0,קרקע,42.94,2145000,,,1982.0,,3.0,3602694070,1,6142341,False,,רמת גן,מלכי צדק,,6142-341-2,6142/341,49953.42338146251,32.0495459228,34.8191406673,2024
2024-07-18,2024-07-18,"ז'בוטינסקי 84, רמת גן",ז'בוטינסקי 84,6127-921-6,דירה בבית קומות,4.0,שניה,80.0,1434000,,,1970.0,,6.0,3602725187,1,6127921,False,,רמת גן,ז'בוטינסקי,,6127-921-6,6127/921,17925.0,32.0876014138,34.8141732938,2024
2024-07-18,2024-07-18,"העמל 22, רמת גן",העמל 22,6204-687-7,דירה בבית קומות,3.0,קומה ‎1‏,92.0,3000000,,,2017.0,,14.0,3602738788,1,6204687,False,,רמת גן,העמל,,6204-687-7,6204/687,32608.695652173912,32.0933115504,34.820065429,2024
2024-07-18,2024-07-18,"הביל""ויים 37, רמת גן","הביל""ויים 37",6180-426-81,דירה בבית קומות,3.0,חמישית,75.0,2210000,,,1960.0,,4.0,3602680904,1,6180426,False,48% ב 7.8 שנים,רמת גן,הבילויים,6.15,6180-426-81,6180/426,29466.666666666668,32.0605703316,34.8258606138,2024
2024-07-18,2024-07-18,"המקור 4, רמת גן",המקור 4,6204-303-15,דירה בבית קומות,5.0,עשירית,116.0,4011000,,,2028.0,,2.0,3603440269,1,6204303,False,,רמת גן,המקור,,6204-303-15,6204/303,34577.58620689655,32.0918735758,34.8174859673,2024
2024-07-17,2024-07-17,"יד שלום 55, רמת גן",יד שלום 55,6157-643-8,דירה בבית קומות,3.0,ראשונה,60.0,2200000,,,2012.0,,4.0,3602408913,1,6157643,False,,רמת גן,יד שלום,,6157-643-8,6157/643,36666.66666666666,32.0726202743,34.822983407,2024
2024-07-17,2024-07-17,"עוזיאל 151, רמת גן",עוזיאל 151,6144-541-7,דירה בבית קומות,4.0,שביעית,101.0,3306000,,,1965.0,2025.0,4.0,3603035719,1,6144541,False,,רמת גן,עוזיאל,,6144-541-7,6144/541,32732.67326732673,32.0639371272,34.8205059376,2024
2024-07-17,2024-07-17,"המקור 6, רמת גן",המקור 6,6204-302-29,,5.0,עשירית,116.0,4004945,1.0,,1950.0,,13.0,11181267404,1,6204302,False,,רמת גן,המקור,,6204-302-29,6204/302,34525.387931034486,32.0920186527,34.8174291937,2024
2024-07-17,2024-07-17,"הירדן 77, רמת גן",הירדן 77,6181-372-6,דירה בבית קומות,4.0,שלישית,74.94,2650000,,,1970.0,,10.0,3602699058,1,6181372,False,,רמת גן,הירדן,,6181-372-6,6181/372,35361.622631438484,32.0619766445,34.8286802524,2024
2024-07-17,2024-07-17,"האש""ל 6, רמת גן","האש""ל 6",6126-643-18,,3.0,קומה ‎4‏,88.5,3350000,,,2017.0,,10.0,3602509108,1,6126643,False,52% ב 5 שנים,רמת גן,האשל,10.4,6126-643-18,6126/643,37853.10734463277,32.0834124919,34.8182305025,2024
2024-07-17,2024-07-17,"אמיר 5, רמת גן",אמיר 5,6145-73-5,דירה בבית קומות,3.0,שלישית,49.35,2275000,,,1970.0,,3.0,3602533265,1,614573,False,44% ב 5.1 שנים,רמת גן,אמיר,8.63,6145-73-5,6145/73,46099.29078014184,32.0698084496,34.8255124363,2024
2024-07-16,2024-07-16,"אלכסנדר 5, רמת גן",אלכסנדר 5,6126-619-3,דירה בבית קומות,4.0,שניה,88.67,2810000,,,1987.0,,3.0,3602364340,1,6126619,False,,רמת גן,אלכסנדר,,6126-619-3,6126/619,31690.537949701134,32.0799150069,34.8155184537,2024
2024-07-16,2024-07-16,"עוזיאל 151, רמת גן",עוזיאל 151,6144-541-6,,4.0,שביעית,101.0,3300000,1.0,,1965.0,,4.0,11181263463,1,6144541,False,,רמת גן,עוזיאל,,6144-541-6,6144/541,32673.26732673267,32.0639371272,34.8205059376,2024
2024-07-16,2024-07-16,"השר משה 24, רמת גן",השר משה 24,6145-579-22,דירה בבית קומות,4.0,שביעית,100.0,3260000,,,2024.0,,2.0,3602822250,1,6145579,False,,רמת גן,השר משה,,6145-579-22,6145/579,32600.0,32.066832747,34.8227243843,2024
2024-07-16,2024-07-16,"ביאליק 113, רמת גן",ביאליק 113,6207-498-5,דירה בבית קומות,3.0,שלישית,58.19,2580000,,,1970.0,,6.0,3602912991,1,6207498,False,98% ב 10 שנים,רמת גן,ביאליק,9.8,6207-498-5,6207/498,44337.51503694793,32.0878817674,34.805114689,2024
2024-07-16,2024-07-16,"אצ""ל 9, רמת גן","אצ""ל 9",6182-431-19,דירה בבית קומות,4.0,חמישית,82.5,2660000,,,1974.0,,7.0,3602388758,1,6182431,False,97% ב 13.6 שנים,רמת גן,"אצ""ל",7.13,6182-431-19,6182/431,32242.424242424244,32.0665206786,34.8307728449,2024
2024-07-16,2024-07-16,"חד נס 27, רמת גן",חד נס 27,6145-1351-13,דירה בבית קומות,4.0,חמישית,88.0,2900000,,,1965.0,2024.0,3.0,3602982359,1,61451351,False,,רמת גן,חד נס,,6145-1351-13,6145/1351,32954.545454545456,32.0660212418,34.8248078511,2024
2024-07-15,2024-07-15,"השר משה 24, רמת גן",השר משה 24,6145-579-21,,4.0,,100.0,3260000,1.0,,2024.0,,2.0,11181263724,1,6145579,False,,רמת גן,השר משה,,6145-579-21,6145/579,32600.0,32.066832747,34.8227243843,2024
2024-07-15,2024-07-15,"איתמר 9, רמת גן",איתמר 9,6206-42-10,דירה בבית קומות,4.0,שישית,99.0,4290000,,,2024.0,,2.0,3602413379,1,620642,False,,רמת גן,איתמר,,6206-42-10,6206/42,43333.333333333336,32.0890711312,34.8076103429,2024
2024-07-15,2024-07-15,,,6232-3-67,משרד,,שניה,43.0,869000,,,2024.0,,,3603320180,2,62323,False,,רמת גן,"רפאל איתן כפר אז""ר",,6232-3-67,6232/3,20209.3023255814,,,2024
2024-07-15,2024-07-15,"חד נס 27, רמת גן",חד נס 27,6145-1351-12,,4.0,,88.0,2900000,1.0,,1965.0,,3.0,11181263586,1,61451351,False,,רמת גן,חד נס,,6145-1351-12,6145/1351,32954.545454545456,32.0660212418,34.8248078511,2024
2024-07-14,2024-07-14,,,6232-6-2,דירה בבית קומות,5.0,שלישית,118.0,4154000,,,2024.0,,,3603255336,2,62326,False,,רמת גן,"רפאל איתן כפר אז""ר",,6232-6-2,6232/6,35203.38983050847,,,2024
2024-07-14,2024-07-14,"יהודה הנשיא 9, רמת גן",יהודה הנשיא 9,6158-1124-7,דירה בבית קומות,2.0,ראשונה,45.0,1760000,,,1955.0,,2.0,3602310545,1,61581124,False,,רמת גן,יהודה הנשיא,,6158-1124-7,6158/1124,39111.11111111111,32.0784521497,34.8265045573,2024
2024-07-14,2024-07-14,"מאיר אבנר 7, רמת גן",מאיר אבנר 7,6181-719-4,דירה בבית קומות,3.0,ראשונה,74.0,2790000,,,2020.0,,3.0,3602372054,1,6181719,False,,רמת גן,אבנר מאיר,,6181-719-4,6181/719,37702.7027027027,32.0628231054,34.8278591652,2024
2024-07-14,2024-07-14,"חיבת ציון 42, רמת גן",חיבת ציון 42,6158-18-76,דירה בבית קומות,2.0,שלישית,52.0,1810000,,,1950.0,,3.0,3602295668,1,615818,False,,רמת גן,חיבת ציון,,6158-18-76,6158/18,34807.692307692305,32.07909683,34.8243503547,2024
2024-07-14,2024-07-14,"ארלוזורוב 53, רמת גן",ארלוזורוב 53,6128-112-11,דירה בבית קומות,3.0,שלישית,83.0,3100000,,,1950.0,,3.0,3602355727,1,6128112,False,,רמת גן,ארלוזורוב,,6128-112-11,6128/112,37349.39759036145,32.0808085797,34.8089102381,2024
2024-07-14,2024-07-14,"דב 28, רמת גן",דב 28,6128-794-3,מחסנים,,ראשונה,52.0,3645000,,,2021.0,,3.0,3603345323,1,6128794,False,14% ב 2.2 שנים,רמת גן,דב,6.36,6128-794-3,6128/794,70096.15384615384,32.0806764165,34.8042013609,2024
2024-07-14,2024-07-14,,,6232-3-32,,1.0,שניה,44.0,1011242,1.0,,,,,11181269978,2,62323,False,,רמת גן,"רפאל איתן כפר אז""ר",,6232-3-32,6232/3,22982.772727272728,,,2024
2024-07-14,2024-07-14,"דב 28, רמת גן",דב 28,6128-794-8,מחסנים,1.0,שלישית,52.0,3684000,,,2021.0,,3.0,3603346019,1,6128794,False,,רמת גן,דב,,6128-794-8,6128/794,70846.15384615384,32.0806764165,34.8042013609,2024
2024-07-13,2024-07-13,,,6232-4-121,,5.0,שלישית,118.0,4147500,1.0,,,,,11181270042,2,62324,False,,רמת גן,"רפאל איתן כפר אז""ר",,6232-4-121,6232/4,35148.30508474576,,,2024
2024-07-08,2024-08-07,"אצ""ל 9, רמת גן","אצ""ל 9",6182-431-23,דירה בבית קומות,3.5,שישית,82.5,2420000,,,1974.0,,7.0,3603238864,1,6182431,False,154% ב 17.1 שנים,רמת גן,"אצ""ל",9.01,6182-431-23,6182/431,29333.33333333333,32.0665206786,34.8307728449,2024
2024-07-07,2024-07-07,,,6232-1-81,,1.0,שלישית,42.0,976950,1.0,,,,,11181269951,2,62321,False,,רמת גן,"רפאל איתן כפר אז""ר",,6232-1-81,6232/1,23260.714285714286,,,2024
2024-07-07,2024-07-07,"תרע""ד 18, רמת גן","תרע""ד 18",6128-128-1,דירה בבית קומות,3.0,קרקע,61.83,3650000,,,1950.0,,2.0,3602869462,1,6128128,False,231% ב 16.3 שנים,רמת גן,"תרע""ד",14.17,6128-128-1,6128/128,59032.83195859615,32.0792101672,34.8032027607,2024
2024-07-07,2024-07-07,"מנחם בגין 3, רמת גן",מנחם בגין 3,6207-877-64,דירה בבית קומות,2.0,קומה ‎17‏,41.35,2015000,,,2000.0,,24.0,3602130600,1,6207877,False,67% ב 12.4 שנים,רמת גן,בגין מנחם,5.4,6207-877-64,6207/877,48730.350665054415,32.0844858541,34.7994713944,2024
2024-07-07,2024-07-07,"הילד 5, רמת גן",הילד 5,6127-736-7,,2.0,שניה,53.5,2230000,,,1960.0,,4.0,3602029187,1,6127736,False,,רמת גן,הילד,,6127-736-7,6127/736,41682.2429906542,32.0866949318,34.8136155859,2024
2024-07-07,2024-07-07,"אריה בן אליעזר 65, רמת גן",אריה בן אליעזר 65,6181-364-30,דירה בבית קומות,3.0,שמינית,71.54,2330000,,,1970.0,,10.0,3602034407,1,6181364,False,223% ב 20.4 שנים,רמת גן,בן אליעזר אריה,10.93,6181-364-30,6181/364,32569.192060385794,32.0612033198,34.8298305653,2024
2024-07-06,2024-06-07,"הרב לנדרס 20, רמת גן",הרב לנדרס 20,6187-381-25,דירה בבית קומות,3.0,רביעית,66.59,2100000,,,1970.0,,5.0,3601220029,1,6187381,False,247% ב 21.1 שנים,רמת גן,הרב לנדרס,11.71,6187-381-25,6187/381,31536.26670671272,32.0706132026,34.8367421071,2024
2024-07-06,2024-06-07,"רש""י 33, רמת גן","רש""י 33",6204-403-44,דירה בבית קומות,1.0,קרקע,24.2,1450000,,,1960.0,,4.0,3601182764,1,6204403,False,184% ב 15.3 שנים,רמת גן,"רש""י",12.03,6204-403-44,6204/403,59917.35537190083,32.0929465661,34.8171309534,2024
2024-07-06,2024-06-07,"דבורה הנביאה 16, רמת גן",דבורה הנביאה 16,6145-268-5,דירה בבית קומות,4.0,שניה,90.62,3050000,,,1995.0,,3.0,3601168119,1,6145268,False,,רמת גן,דבורה הנביאה,,6145-268-5,6145/268,33657.029353343634,32.0687388905,34.8255482088,2024
2024-07-05,2024-05-07,"סן מרטין 19, רמת גן",סן מרטין 19,6143-990-2,,4.0,חמישית,109.0,4150000,1.0,,,,4.0,11181263445,1,6143990,False,,רמת גן,סן מרטין,,6143-990-2,6143/990,38073.394495412846,32.0534817233,34.8229778185,2024
2024-07-05,2024-05-07,"חצור 15, רמת גן",חצור 15,6158-889-45,דירה בבית קומות,3.0,ראשונה,75.0,2646000,,,2021.0,,9.0,3600640319,1,6158889,False,,רמת גן,חצור,,6158-889-45,6158/889,35280.0,,,2024
2024-07-05,2024-05-07,"בניהו 24, רמת גן",בניהו 24,6142-236-3,דירה בבית קומות,3.0,שניה,56.0,1970000,,,1970.0,,3.0,3600478412,1,6142236,False,31% ב 5.6 שנים,רמת גן,בניהו,5.54,6142-236-3,6142/236,35178.57142857143,32.0501248091,34.8152810985,2024
2024-07-05,2024-05-07,"החשמונאים 18, רמת גן",החשמונאים 18,6128-906-32,דירה בבית קומות,3.0,אחת עשרה,75.0,3700000,1.0,,2014.0,,9.0,3600531482,1,6128906,False,,רמת גן,החשמונאים,,6128-906-32,6128/906,49333.333333333336,32.0820319783,34.8095213147,2024
2024-07-05,2024-05-07,"פבריגט 4, רמת גן",פבריגט 4,6157-184-6,דירה בבית קומות,3.0,ראשונה,35.52,2060000,,,1950.0,,2.0,3600238872,1,6157184,False,32% ב 2.8 שנים,רמת גן,פבריגט,11.43,6157-184-6,6157/184,57995.49549549549,32.0680706983,34.8173100506,2024
2024-07-05,2024-05-07,"סוקולוב 2, רמת גן",סוקולוב 2,6204-660-29,דירה בבית קומות,4.0,שמינית,104.09,3150000,,,2008.0,,25.0,3600264711,1,6204660,False,47% ב 8.7 שנים,רמת גן,סוקולוב,5.4,6204-660-29,6204/660,30262.273032952253,32.0908920657,34.8207160633,2024
2024-07-04,2024-04-07,"אסף 17, רמת גן",אסף 17,6206-56-14,דירה בבית קומות,3.0,שלישית,67.0,3146000,,,2026.0,,4.0,3599640283,1,620656,False,,רמת גן,אסף,,6206-56-14,6206/56,46955.22388059701,32.0896776267,34.8078900673,2024
2024-07-04,2024-04-07,"רוחמה 36, רמת גן",רוחמה 36,6157-684-7,דירה בבית קומות,4.0,שניה,90.0,3175000,,,2023.0,,3.0,3599893859,1,6157684,False,,רמת גן,רוחמה,,6157-684-7,6157/684,35277.77777777778,32.0717464089,34.8214300806,2024
2024-07-04,2024-04-07,"חד נס 39, רמת גן",חד נס 39,6145-1345-5,דירה בבית קומות,4.0,שניה,66.05,3150000,,,1965.0,2024.0,3.0,3599567551,1,61451345,False,,רמת גן,חד נס,,6145-1345-5,6145/1345,47691.14307342922,32.0658573572,34.8261355061,2024
2024-07-03,2024-03-07,"יונה 17, רמת גן",יונה 17,6159-418-1,דירה בבית קומות,3.0,ראשונה,78.0,6518000,,,2006.0,,1.0,3599006488,1,6159418,False,,רמת גן,יונה,,6159-418-1,6159/418,83564.10256410256,32.0797230001,34.8265197109,2024
2024-07-03,2024-03-07,"ארלוזורוב 8, רמת גן",ארלוזורוב 8,6127-293-16,דירה בבית קומות,3.0,ראשונה,95.0,1800000,,,1950.0,,2.0,3598234682,1,6127293,False,,רמת גן,ארלוזורוב,,6127-293-16,6127/293,18947.36842105263,32.0794036243,34.8140746526,2024
2024-07-03,2024-03-07,,,6232-1-96,דירה בבית קומות,1.0,שניה,61.0,1296000,,,2024.0,,,3599197395,2,62321,False,,רמת גן,"רפאל איתן כפר אז""ר",,6232-1-96,6232/1,21245.90163934426,,,2024
2024-07-03,2024-03-07,"המבדיל 6, רמת גן",המבדיל 6,6204-592-25,דירה בבית קומות,5.0,שמינית,103.0,3292000,,,1995.0,,9.0,3598265538,1,6204592,False,,רמת גן,המבדיל,,6204-592-25,6204/592,31961.165048543688,32.0900828343,34.8171642967,2024
2024-07-03,2024-03-07,,,6232-6-9,דירה בבית קומות,5.0,תשיעית,130.0,4303000,,,2024.0,,,3599193335,2,62326,False,,רמת גן,"רפאל איתן כפר אז""ר",,6232-6-9,6232/6,33100.0,,,2024
2024-07-03,2024-03-07,"נתן 3, רמת גן",נתן 3,6126-155-6,דירה בבית קומות,3.0,חמישית,62.0,2556000,,,1970.0,2023.0,2.0,3598307211,1,6126155,False,,רמת גן,נתן,,6126-155-6,6126/155,41225.8064516129,,,2024
2024-07-03,2024-03-07,"מאיר אבנר 4, רמת גן",מאיר אבנר 4,6182-24-17,דירה בבית קומות,3.5,שמינית,88.0,2750000,,,2021.0,,5.0,3598425415,1,618224,False,,רמת גן,אבנר מאיר,,6182-24-17,6182/24,31250.0,32.0632463329,34.8275077901,2024
2024-07-03,2024-03-07,"בועז 14, רמת גן",בועז 14,6128-211-22,דירה בבית קומות,3.0,ראשונה,71.0,3000000,,,2022.0,,6.0,3598558902,1,6128211,False,,רמת גן,בועז,,6128-211-22,6128/211,42253.52112676056,32.0800663596,34.8081528322,2024
2024-07-02,2024-02-07,"החולה 8, רמת גן",החולה 8,6181-712-7,דירה בבית קומות,4.0,חמישית,116.0,2000000,,,2020.0,,4.0,3597718163,1,6181712,False,,רמת גן,החולה,,6181-712-7,6181/712,17241.379310344826,32.0610731643,34.8333820583,2024
2024-07-02,2024-02-07,"אבטליון 11, רמת גן",אבטליון 11,6125-571-8,דירה בבית קומות,2.0,ראשונה,23.0,1237000,,,1950.0,,3.0,3597580355,1,6125571,False,37% ב 10.5 שנים,רמת גן,אבטליון,3.52,6125-571-8,6125/571,53782.608695652176,32.0854117428,34.8165975002,2024
2024-07-02,2024-02-07,"עמינדב 1, רמת גן",עמינדב 1,6145-945-3,דירה בבית קומות,3.0,ראשונה,63.0,1500000,,,1960.0,,2.0,3598329454,1,6145945,False,,רמת גן,עמינדב,,6145-945-3,6145/945,23809.52380952381,32.0691436548,34.8229016892,2024
2024-07-02,2024-02-07,,,6204-61-1,דירה בבית קומות,5.0,ראשונה,123.0,3856000,,,2025.0,,,3597451392,2,620461,False,,רמת גן,הפודים,,6204-61-1,6204/61,31349.59349593496,32.0923882698,34.8201778984,2024
2024-07-02,2024-02-07,"אבטליון 19, רמת גן",אבטליון 19,6125-482-7,דירה בבית קומות,4.0,שניה,78.2,2500000,,,1965.0,,3.0,3597536826,1,6125482,False,187% ב 24.5 שנים,רמת גן,אבטליון,7.63,6125-482-7,6125/482,31969.3094629156,32.0843491791,34.8164873205,2024
2024-07-02,2024-02-07,"יד שלום 16, רמת גן",יד שלום 16,6157-775-13,דירה בבית קומות,3.0,קומה ‎4‏,88.96,2820000,,,2018.0,,7.0,3597358070,1,6157775,False,60% ב 8 שנים,רמת גן,יד שלום,7.5,6157-775-13,6157/775,31699.640287769787,32.0724271104,34.8199087777,2024
2024-07-02,2024-02-07,"ה' באייר 902, רמת גן",ה' באייר 902,6178-120-1,,5.0,שלוש עשרה,114.0,3600000,1.0,,,,1.0,11181265457,1,6178120,False,,רמת גן,"ה באייר כפר אז""ר",,6178-120-1,6178/120,31578.947368421053,32.0585278065,34.8373897518,2024
2024-07-02,2024-02-07,,,6232-1-105,משרד,,ראשונה,81.0,1821000,,,2024.0,,,3598136865,2,62321,False,,רמת גן,"רפאל איתן כפר אז""ר",,6232-1-105,6232/1,22481.48148148148,,,2024
2024-07-02,2024-02-07,"ירושלים 19, רמת גן",ירושלים 19,6158-1648-23,דירה בבית קומות,3.0,קומה ‎5‏,75.93,2615000,,,2015.0,,10.0,3597464297,1,61581648,False,,רמת גן,ירושלים,,6158-1648-23,6158/1648,34439.61543526933,32.0750011821,34.8212841203,2024
2024-07-02,2024-02-07,"משה שרת 6, רמת גן",משה שרת 6,6125-581-6,,3.0,,57.0,3598000,1.0,,,,4.0,11181261270,1,6125581,False,,רמת גן,שרת משה,,6125-581-6,6125/581,63122.80701754386,,,2024
2024-07-02,2024-02-07,"נחמיה תמרי 2, רמת גן",נחמיה תמרי 2,6158-1093-28,,4.0,,109.0,4490000,1.0,,2026.0,,2.0,11181264099,1,61581093,False,,רמת גן,תמרי נחמיה,,6158-1093-28,6158/1093,41192.66055045871,32.076225645,34.8253465723,2024
2024-07-02,2024-02-07,"הרצל 82, רמת גן",הרצל 82,6125-333-4,דירה בבית קומות,2.0,שניה,61.0,1748000,,,1950.0,,3.0,3598138315,1,6125333,False,,רמת גן,הרצל,,6125-333-4,6125/333,28655.737704918032,32.087067085,34.8151964696,2024
2024-07-02,2024-02-07,,,6232-3-94,משרד,,שניה,67.0,1553000,,,2024.0,,,3597832249,2,62323,False,,רמת גן,"רפאל איתן כפר אז""ר",,6232-3-94,6232/3,23179.10447761194,,,2024
2024-07-02,2024-02-07,"הרצל 82, רמת גן",הרצל 82,6125-333-5,דירה בבית קומות,2.0,שניה,61.0,1750000,,,1950.0,,3.0,3598142607,1,6125333,False,,רמת גן,הרצל,,6125-333-5,6125/333,28688.524590163932,32.087067085,34.8151964696,2024
2024-07-01,2024-01-07,"השוטרת 3, רמת גן",השוטרת 3,6127-506-5,דירה בבית קומות,2.0,שניה,57.2,2340000,,,2004.0,,5.0,3596213005,1,6127506,False,34% ב 4.8 שנים,רמת גן,השוטרת,7.08,6127-506-5,6127/506,40909.0909090909,32.0807578085,34.8145038921,2024
2024-07-01,2024-01-07,"יד שלום 55, רמת גן",יד שלום 55,6157-643-11,דירה בבית קומות,3.0,שניה,60.0,2390000,,,2012.0,,4.0,3596328831,1,6157643,False,,רמת גן,יד שלום,,6157-643-11,6157/643,39833.333333333336,32.0726202743,34.822983407,2024
2024-07-01,2024-01-07,"ירושלים 102, רמת גן",ירושלים 102,6186-483-1,דירה בבית קומות,3.5,ראשונה,59.0,2190000,,,1980.0,,3.0,3596191226,1,6186483,False,,רמת גן,ירושלים,,6186-483-1,6186/483,37118.64406779661,32.0745952061,34.8314710893,2024
2024-07-01,2024-01-07,"רות 12, רמת גן",רות 12,6207-49-12,,3.0,שלישית,56.0,2850000,,,2021.0,,4.0,3597239170,1,620749,False,,רמת גן,רות,,6207-49-12,6207/49,50892.857142857145,,,2024
2024-07-01,2024-01-07,"בועז 14, רמת גן",בועז 14,6128-211-11,,3.0,חמישית,71.0,2840000,1.0,,2022.0,,6.0,11181261993,1,6128211,False,,רמת גן,בועז,,6128-211-11,6128/211,40000.0,32.0800663596,34.8081528322,2024
2024-07-01,2024-01-07,"גדעון 36, רמת גן",גדעון 36,6157-497-97,דירה בבית קומות,4.0,שביעית,72.8,2733000,,,1960.0,,9.0,3596583596,1,6157497,False,,רמת גן,גדעון,,6157-497-97,6157/497,37541.2087912088,32.0658463881,34.816235763,2024
2024-07-01,2024-01-07,,,6232-6-15,דירה בבית קומות,5.0,רביעית,118.0,4178000,,,2024.0,,,3596638609,2,62326,False,,רמת גן,"רפאל איתן כפר אז""ר",,6232-6-15,6232/6,35406.779661016946,,,2024
2024-07-01,2024-01-07,,,6232-1-114,משרד,,שניה,58.0,1088000,,,2024.0,,,3597003052,2,62321,False,,רמת גן,"רפאל איתן כפר אז""ר",,6232-1-114,6232/1,18758.62068965517,,,2024
2024-07-01,2024-01-07,"ארנון 3, רמת גן",ארנון 3,6180-176-41,,3.0,,84.0,2250000,1.0,,2021.0,,7.0,11181265761,1,6180176,False,,רמת גן,ארנון,,6180-176-41,6180/176,26785.714285714286,32.0604823912,34.8288846876,2024
2024-06-30,2024-06-30,"סן מרטין 19, רמת גן",סן מרטין 19,6143-990-13,דירה בבית קומות,3.0,שביעית,95.0,3400000,,,2024.0,,4.0,3602525348,1,6143990,False,,רמת גן,סן מרטין,,6143-990-13,6143/990,35789.47368421053,32.0534817233,34.8229778185,2024
2024-06-30,2024-06-30,"אהרונסון שרה 4, רמת גן",אהרונסון שרה 4,6144-711-14,דירה בבית קומות,4.0,רביעית,93.01,2550000,,,1970.0,,7.0,3601889900,1,6144711,False,23% ב 2.5 שנים,רמת גן,אהרונסון שרה,9.2,6144-711-14,6144/711,27416.40683797441,32.0611354465,34.8222239896,2024
2024-06-30,2024-06-30,"חרוזים 8, רמת גן",חרוזים 8,6207-756-7,,4.0,שניה,107.0,4241000,,,1960.0,,7.0,3602866069,1,6207756,False,,רמת גן,חרוזים,,6207-756-7,6207/756,39635.51401869159,32.091593242,34.80287034,2024
2024-06-30,2024-06-30,"רש""י 12, רמת גן","רש""י 12",6204-668-46,דירה בבית קומות,2.0,שישית,51.0,2300000,,,2022.0,,17.0,3601862901,1,6204668,False,,רמת גן,"רש""י",,6204-668-46,6204/668,45098.03921568627,32.0907927517,34.8189108592,2024
2024-06-30,2024-06-30,"הטייסים 3, רמת גן",הטייסים 3,6142-89-25,דירה בבית קומות,4.0,עשרים ושלוש,93.0,4105000,,,2022.0,,2.0,3602307674,1,614289,False,,רמת גן,הטייסים,,6142-89-25,6142/89,44139.78494623656,32.0522614976,34.8136094452,2024
2024-06-30,2024-06-30,"הרכסים 60, רמת גן",הרכסים 60,6158-131-8,דירה בבית קומות,3.0,שלישית,68.0,2670000,,,2023.0,,4.0,3601972956,1,6158131,False,,רמת גן,הרכסים,,6158-131-8,6158/131,39264.705882352944,32.0727644837,34.8258651439,2024
2024-06-30,2024-06-30,"עוזיאל 7, רמת גן",עוזיאל 7,6158-888-35,דירה בבית קומות,5.0,תשיעית,137.0,5206000,,,2021.0,,9.0,3601964807,1,6158888,False,,רמת גן,עוזיאל,,6158-888-35,6158/888,38000.0,,,2024
2024-06-29,2024-06-29,"סן מרטין 19, רמת גן",סן מרטין 19,6143-990-10,,3.0,שביעית,83.0,3400000,1.0,,,,4.0,11181263444,1,6143990,False,,רמת גן,סן מרטין,,6143-990-10,6143/990,40963.85542168675,32.0534817233,34.8229778185,2024
2024-06-29,2024-06-29,,,6232-3-63,,1.0,רביעית,103.0,1874925,1.0,,,,,11181270012,2,62323,False,,רמת גן,"רפאל איתן כפר אז""ר",,6232-3-63,6232/3,18203.155339805824,,,2024
2024-06-29,2024-06-29,"רש""י 12, רמת גן","רש""י 12",6204-668-40,,2.0,שישית,52.0,2300000,1.0,,,,17.0,11181267457,1,6204668,False,,רמת גן,"רש""י",,6204-668-40,6204/668,44230.769230769234,32.0907927517,34.8189108592,2024
