DEALDATE,DEALDATETIME,FULLADRESS,DISPLAYADRESS,GUSH,DEALNATUREDESCRIPTION,ASSETROOMNUM,FLOORNO,DEALNATURE,DEALAMOUNT,NEWPROJECTTEXT,PROJECTNAME,BUILDINGYEAR,YEARBUILT,BUILDINGFLOORS,KEYVALUE,TYPE,POLYGON_ID,TREND_IS_NEGATIVE,TREND_FORMAT,city_name,street,presentage per year,GUSH - Copy,Gush_Helka,Price per sqm,lat,lon,Year
2012-12-31,2012-12-31,"יחיאל פלדי 11, רחובות",יחיאל פלדי 11,3694-315-19,דירה בבית קומות,4.0,חמישית,88.2,1370000,,,2002.0,,11.0,9495320604,1,3694315,False,,רחובות,פלדי יחיאל,,3694-315-19,3694/315,15532.879818594103,31.8993976611,34.822364499,2012
2012-12-31,2012-12-31,"הר הצופים 31, רחובות",הר הצופים 31,5713-87-65,דירה בבית קומות,4.0,ראשונה,89.3,1280000,,,2007.0,,7.0,9492845040,1,571387,False,37% ב 4.2 שנים,רחובות,הר הצופים,8.81,5713-87-65,5713/87,14333.70660694289,31.895377348,34.7820499418,2012
2012-12-31,2012-12-31,"אברהם ישראל פשרני 10, רחובות",אברהם ישראל פשרני 10,3699-400-29,דירה בבית קומות,5.0,שמינית,120.3,1700000,,,1997.0,,8.0,9492488292,1,3699400,False,,רחובות,פרשני אברהם,,3699-400-29,3699/400,14131.338320864506,31.8879527904,34.8250144849,2012
2012-12-31,2012-12-31,"הר הצופים 11, רחובות",הר הצופים 11,5714-108-73,דירה בבית קומות,5.0,שישית,150.5,1701000,,,2010.0,,6.0,9495739932,1,5714108,False,,רחובות,הר הצופים,,5714-108-73,5714/108,11302.32558139535,31.8928235153,34.7797606994,2012
2012-12-31,2012-12-31,"גורדון 2, רחובות",גורדון 2,3703-1394-55,דירה בבית קומות,5.0,שתים עשרה,121.7,1670000,,,2012.0,,19.0,9493556940,1,37031394,False,,רחובות,גורדון,,3703-1394-55,3703/1394,13722.26787181594,31.9011251208,34.8099768873,2012
2012-12-31,2012-12-31,"עזרא 56, רחובות",עזרא 56,3705-244-10,דירה בבית קומות,3.0,שניה,63.75,800000,,,1970.0,,4.0,9492956004,1,3705244,False,26% ב 3.4 שנים,רחובות,עזרא,7.65,3705-244-10,3705/244,12549.019607843138,31.8921386107,34.8180754621,2012
2012-12-30,2012-12-30,"הר הצופים 29, רחובות",הר הצופים 29,5713-86-88,דירה בבית קומות,4.0,שישית,88.3,1270000,,,2002.0,,7.0,9493557612,1,571386,False,90% ב 7.5 שנים,רחובות,הר הצופים,12.0,5713-86-88,5713/86,14382.785956964894,31.8945212177,34.7817849526,2012
2012-12-30,2012-12-30,"מקס ואמפרו שיין 5, רחובות",מקס ואמפרו שיין 5,3697-495-143,דירה בבית קומות,4.0,שתים עשרה,120.19,1563000,,,2012.0,,12.0,9492928200,1,3697495,False,,רחובות,מקס ואמפרו שיין,,3697-495-143,3697/495,13004.409684665943,31.880038574,34.806826046,2012
2012-12-30,2012-12-30,"חס""ם 15, רחובות","חס""ם 15",3705-564-23,דירה בבית קומות,4.0,רביעית,79.5,730000,,,1970.0,,4.0,9492115416,1,3705564,False,,רחובות,"חס""מ",,3705-564-23,3705/564,9182.389937106918,31.8904133296,34.8202967214,2012
2012-12-30,2012-12-30,"גורדון 2, רחובות",גורדון 2,3703-1394-61,דירה בבית קומות,5.0,שלוש עשרה,121.7,1690000,,,2012.0,,19.0,9492599088,1,37031394,False,,רחובות,גורדון,,3703-1394-61,3703/1394,13886.606409202956,31.9011251208,34.8099768873,2012
2012-12-30,2012-12-30,"כרמל 16, רחובות",כרמל 16,5908-76-126,דירה בבית קומות,4.0,,100.0,1581000,,,2013.0,,22.0,9495398892,1,590876,False,,רחובות,כרמל,,5908-76-126,5908/76,15810.0,31.9064675792,34.8234770113,2012
2012-12-30,2012-12-30,"הרצל 175, רחובות",הרצל 175,3703-76-42,דירה בבית קומות,3.5,שניה,81.0,972000,,,1970.0,,5.0,9493304604,1,370376,False,,רחובות,הרצל,,3703-76-42,3703/76,12000.0,31.8979261661,34.8101491055,2012
2012-12-30,2012-12-30,"אליעזר בן יהודה 16, רחובות",אליעזר בן יהודה 16,3703-859-9,דירה בבית קומות,4.0,שניה,91.0,1080000,,,1974.0,,7.0,9492432684,1,3703859,False,,רחובות,בן יהודה אליעזר,,3703-859-9,3703/859,11868.131868131868,31.902299187,34.8110372927,2012
2012-12-29,2012-12-29,"כרמל 16, רחובות",כרמל 16,5908-76-88,דירה,4.0,תשע עשרה,103.0,1555000,1.0,אחוזות הנשיא,2013.0,,22.0,11181258393,1,590876,False,,רחובות,כרמל,,5908-76-88,5908/76,15097.087378640776,31.9064675792,34.8234770113,2012
2012-12-28,2012-12-28,"יעקב 32, רחובות",יעקב 32,3704-717-84,דירה בבית קומות,3.0,אחת עשרה,70.62,1120000,,,1998.0,,17.0,9493053192,1,3704717,True,-25% ב 1.8 שנים,רחובות,יעקב,-13.89,3704-717-84,3704/717,15859.529878221469,31.8958397711,34.8138432787,2012
2012-12-27,2012-12-27,"אהרון שקולניק 1, רחובות",אהרון שקולניק 1,3704-650-19,דירה בבית קומות,4.5,חמישית,112.67,1160000,,,1975.0,,8.0,9494403828,1,3704650,False,5% ב 2.5 שנים,רחובות,שקולניק אהרן,2.0,3704-650-19,3704/650,10295.553385994495,31.8948432519,34.8185663178,2012
2012-12-27,2012-12-27,"הרשזון 72, רחובות",הרשזון 72,3701-897-6,דירה בבית קומות,5.0,שלישית,118.84,1512000,,,2014.0,,6.0,9493082256,1,3701897,False,,רחובות,הרשנזון,,3701-897-6,3701/897,12722.988892628744,31.8903898813,34.8114555218,2012
2012-12-27,2012-12-27,"גורודיסקי 4, רחובות",גורודיסקי 4,3704-774-15,דירה בבית קומות,5.0,רביעית,109.9,1650000,,,2013.0,,9.0,9493607508,1,3704774,False,,רחובות,גורודיסקי,,3704-774-15,3704/774,15013.648771610557,31.8967550678,34.817322126,2012
2012-12-26,2012-12-26,"אחד העם 7, רחובות",אחד העם 7,3703-249-5,דירה בבית קומות,5.0,ראשונה,180.0,1660000,,,1987.0,,4.0,9435378204,1,3703249,False,,רחובות,אחד העם,,3703-249-5,3703/249,9222.222222222224,31.8969699547,34.8117690845,2012
2012-12-26,2012-12-26,"כרמל 9, רחובות",כרמל 9,5908-68-20,דירה בבית קומות,4.0,שבע עשרה,120.0,2150000,,,2004.0,,1.0,9435444060,1,590868,False,,רחובות,כרמל,,5908-68-20,5908/68,17916.666666666668,31.9065686384,34.8224119038,2012
2012-12-26,2012-12-26,"מקס ואמפרו שיין 4, רחובות",מקס ואמפרו שיין 4,3697-537-241,דירה בבית קומות,5.0,חמש עשרה,128.0,1791000,,,2007.0,,15.0,9492270648,1,3697537,False,,רחובות,מקס ואמפרו שיין,,3697-537-241,3697/537,13992.1875,31.8788033963,34.8081239127,2012
2012-12-26,2012-12-26,"גורדון 2, רחובות",גורדון 2,3703-1394-77,דירה בבית קומות,4.0,שש עשרה,102.2,1560000,,,2012.0,,19.0,9492308196,1,37031394,False,,רחובות,גורדון,,3703-1394-77,3703/1394,15264.187866927592,31.9011251208,34.8099768873,2012
2012-12-26,2012-12-26,"גורדון 2, רחובות",גורדון 2,3703-1394-41,דירה בבית קומות,5.0,תשיעית,121.7,1635000,,,2012.0,,19.0,9492326172,1,37031394,False,,רחובות,גורדון,,3703-1394-41,3703/1394,13434.67543138866,31.9011251208,34.8099768873,2012
2012-12-26,2012-12-26,"יבנה 66, רחובות",יבנה 66,3702-416-10,דירה בבית קומות,4.0,חמישית,107.3,1350000,,,2011.0,,6.0,9492006636,1,3702416,False,,רחובות,יבנה,,3702-416-10,3702/416,12581.547064305683,31.9024096026,34.807228666,2012
2012-12-26,2012-12-26,"פינס 25, רחובות",פינס 25,3702-20-12,דירה בבית קומות,4.0,שניה,77.22,1150000,,,1969.0,,3.0,9494574348,1,370220,False,,רחובות,פינס,,3702-20-12,3702/20,14892.514892514891,31.8969415699,34.8050598498,2012
2012-12-25,2012-12-25,"מקס ואמפרו שיין 4, רחובות",מקס ואמפרו שיין 4,3697-537-242,דירה בבית קומות,5.0,אחת עשרה,130.0,1634000,,,2007.0,,15.0,9492930384,1,3697537,False,,רחובות,מקס ואמפרו שיין,,3697-537-242,3697/537,12569.23076923077,31.8788033963,34.8081239127,2012
2012-12-25,2012-12-25,"גורדון 2, רחובות",גורדון 2,3703-1394-60,דירה בבית קומות,5.0,שלוש עשרה,121.7,1690000,,,2012.0,,19.0,9492326844,1,37031394,False,,רחובות,גורדון,,3703-1394-60,3703/1394,13886.606409202956,31.9011251208,34.8099768873,2012
2012-12-24,2012-12-24,"בארי 6, רחובות",בארי 6,3648-202-4,דירה בבית קומות,3.0,ראשונה,52.7,700000,,,1970.0,,3.0,9435371988,1,3648202,False,,רחובות,בארי,,3648-202-4,3648/202,13282.732447817836,31.8983281854,34.8003540792,2012
2012-12-24,2012-12-24,"אליעזר יעקבסון 11, רחובות",אליעזר יעקבסון 11,3704-613-23,דירה בבית קומות,3.0,שישית,62.0,920000,,,1970.0,,7.0,9435419112,1,3704613,False,73% ב 7.5 שנים,רחובות,אליעזר יעקבסון,9.73,3704-613-23,3704/613,14838.709677419354,31.8936171575,34.8172160004,2012
2012-12-23,2012-12-23,"מנוחה ונחלה 6, רחובות",מנוחה ונחלה 6,3704-631-13,דירה בבית קומות,3.0,שניה,63.0,855000,,,1970.0,,5.0,9435076056,1,3704631,False,,רחובות,מנוחה ונחלה,,3704-631-13,3704/631,13571.42857142857,31.8930799108,34.8186037503,2012
2012-12-23,2012-12-23,"הרשזון 34, רחובות",הרשזון 34,3701-869-3,דירה בבית קומות,4.0,ראשונה,106.6,1140000,,,2008.0,,5.0,9492377412,1,3701869,False,,רחובות,הרשנזון,,3701-869-3,3701/869,10694.183864915572,31.8883713738,34.8080926557,2012
2012-12-23,2012-12-23,"שמשון צור 1, רחובות",שמשון צור 1,3679-122-23,דירה בבית קומות,4.0,שישית,110.75,1202000,,,2012.0,,9.0,9435652632,1,3679122,False,,רחובות,צור שמשון,,3679-122-23,3679/122,10853.273137697515,31.8854656867,34.7906324307,2012
2012-12-23,2012-12-23,"הרשזון 34, רחובות",הרשזון 34,3701-869-5,דירה בבית קומות,4.0,שניה,106.6,1190000,,,2008.0,,5.0,9492378084,1,3701869,False,,רחובות,הרשנזון,,3701-869-5,3701/869,11163.227016885554,31.8883713738,34.8080926557,2012
2012-12-23,2012-12-23,"גורדון 2, רחובות",גורדון 2,3703-1394-67,דירה בבית קומות,4.0,ארבע עשרה,102.2,1520000,,,2012.0,,19.0,9435532008,1,37031394,False,,רחובות,גורדון,,3703-1394-67,3703/1394,14872.79843444227,31.9011251208,34.8099768873,2012
2012-12-21,2012-12-21,"יוסף קרוננברג 13, רחובות",יוסף קרוננברג 13,3697-419-93,דירה בבית קומות,5.5,שביעית,132.75,1325000,,,1996.0,,,9434979708,1,3697419,False,,רחובות,קרוננברג יוסף,,3697-419-93,3697/419,9981.167608286252,31.8779675293,34.8154646426,2012
2012-12-21,2012-12-21,"אהרוני ישראל 14, רחובות",אהרוני ישראל 14,3703-914-9,דירה בבית קומות,3.0,שניה,77.72,926000,,,1950.0,,3.0,9435530076,1,3703914,False,11% ב 1.1 שנים,רחובות,אהרוני ישראל,10.0,3703-914-9,3703/914,11914.565105506948,31.9002563027,34.8132234483,2012
2012-12-20,2012-12-20,"יד ושם 1, רחובות",יד ושם 1,3656-135-1,דירה בבית קומות,3.0,ראשונה,70.0,1650000,,,1955.0,,2.0,9434961732,1,3656135,False,,רחובות,יד ושם,,3656-135-1,3656/135,23571.42857142857,31.890326313,34.7935883056,2012
2012-12-20,2012-12-20,"הר הצופים 29, רחובות",הר הצופים 29,5713-86-5,דירה בבית קומות,4.0,ראשונה,92.4,1250000,,,2003.0,,7.0,9492385728,1,571386,False,68% ב 6.5 שנים,רחובות,הר הצופים,10.46,5713-86-5,5713/86,13528.138528138526,31.8945212177,34.7817849526,2012
2012-12-20,2012-12-20,"אחד העם 15, רחובות",אחד העם 15,3703-174-29,דירה בבית קומות,2.0,ראשונה,47.15,412000,,,1960.0,,3.0,9435098988,1,3703174,False,,רחובות,אחד העם,,3703-174-29,3703/174,8738.069989395546,31.8976132832,34.8115922801,2012
2012-12-20,2012-12-20,"ברגמן 2, רחובות",ברגמן 2,3695-183-11,חנות,,שלישית,130.48,1131000,,,1994.0,,6.0,9435509916,1,3695183,False,,רחובות,ברגמן,,3695-183-11,3695/183,8667.995095033722,31.9115359505,34.8093836083,2012
2012-12-20,2012-12-20,"הקטיף 6, רחובות",הקטיף 6,3646-56-1,קוטג' דו משפחתי,5.0,קרקע וראשונה,167.8,2725000,,,2009.0,,2.0,9435079500,1,364656,False,35% ב 3.5 שנים,רחובות,הקטיף,10.0,3646-56-1,3646/56,16239.570917759236,31.9058171591,34.7939307829,2012
2012-12-19,2012-12-19,"פרופ' מישל רבל 3, רחובות",פרופ' מישל רבל 3,3694-414-26,דירה בבית קומות,5.0,קומה ‎7‏,145.0,1660000,,,2011.0,,10.0,9492551964,1,3694414,False,,רחובות,פרופ' רבל מישל,,3694-414-26,3694/414,11448.275862068966,31.9002715491,34.8242391106,2012
2012-12-19,2012-12-19,"יהואש 2, רחובות",יהואש 2,3702-371-5,דירה בבית קומות,3.0,ראשונה,68.5,1040000,,,1970.0,,4.0,9434766936,1,3702371,False,72% ב 10.7 שנים,רחובות,יהואש,6.73,3702-371-5,3702/371,15182.481751824818,31.8944527456,34.8053625229,2012
2012-12-19,2012-12-19,"דוד אלעזר 15, רחובות",דוד אלעזר 15,5811-25-12,דירה בבית קומות,3.0,רביעית,48.3,580000,,,1960.0,,4.0,9434842452,1,581125,False,126% ב 5.6 שנים,רחובות,דוד אלעזר,22.5,5811-25-12,5811/25,12008.281573498964,31.8937905822,34.7760742932,2012
2012-12-19,2012-12-19,"פרופ' יהודית בירק 1, רחובות",פרופ' יהודית בירק 1,3694-391-3,דירה בבית קומות,4.0,רביעית,115.0,1642000,,,2015.0,,7.0,9492502908,1,3694391,False,,רחובות,פרופ' בירק יהודית,,3694-391-3,3694/391,14278.260869565218,31.9013093461,34.820164307,2012
2012-12-19,2012-12-19,"חן 30, רחובות",חן 30,3702-308-11,דירה בבית קומות,3.5,שלישית,76.19,950000,,,1967.0,,3.0,9434850768,1,3702308,False,,רחובות,חן,,3702-308-11,3702/308,12468.827930174564,31.8988352779,34.8040197491,2012
2012-12-18,2012-12-18,"חזון איש 10, רחובות",חזון איש 10,5478-25-45,דירה בבית קומות,4.0,רביעית,103.05,1205000,,,2011.0,,6.0,9493956108,1,547825,False,,רחובות,חזון איש,,5478-25-45,5478/25,11693.352741387676,31.8817935534,34.7914703227,2012
2012-12-18,2012-12-18,"יעקב סעדיה שרעבי 1, רחובות",יעקב סעדיה שרעבי 1,3659-2-13,דירה בבית קומות,5.0,שניה,150.0,1020000,,,2000.0,,2.0,9434640684,1,36592,False,,רחובות,שרעבי יעקב סעדיה,,3659-2-13,3659/2,6800.0,31.8812542762,34.8032296822,2012
2012-12-18,2012-12-18,"אהרון שקולניק 5, רחובות",אהרון שקולניק 5,3704-652-29,דירה בבית קומות,5.0,שמינית,179.66,1500000,,,1980.0,,8.0,9492110628,1,3704652,False,,רחובות,שקולניק אהרן,,3704-652-29,3704/652,8349.103862852055,31.8950809049,34.8197652334,2012
2012-12-18,2012-12-18,"פרופ' יהודית בירק 1, רחובות",פרופ' יהודית בירק 1,3694-391-2,דירה בבית קומות,4.0,ראשונה,103.0,1513000,,,2015.0,,7.0,9492506940,1,3694391,False,,רחובות,פרופ' בירק יהודית,,3694-391-2,3694/391,14689.320388349515,31.9013093461,34.820164307,2012
2012-12-18,2012-12-18,"ויצמן 35, רחובות",ויצמן 35,3703-773-21,דירה בבית קומות,4.0,שניה,86.25,1160000,,,1970.0,,5.0,9434917968,1,3703773,False,63% ב 10 שנים,רחובות,ויצמן,6.3,3703-773-21,3703/773,13449.27536231884,31.9002258622,34.8145328694,2012
2012-12-18,2012-12-18,"שמשון צור 1, רחובות",שמשון צור 1,3679-122-9,דירה בבית קומות,4.0,שניה,118.95,1170000,,,2012.0,,9.0,9435312936,1,3679122,False,,רחובות,צור שמשון,,3679-122-9,3679/122,9836.065573770493,31.8854656867,34.7906324307,2012
2012-12-18,2012-12-18,"הר הצופים 11, רחובות",הר הצופים 11,5714-108-46,דירה בבית קומות,4.0,חמישית,95.1,1346000,,,2011.0,,7.0,9492697536,1,5714108,False,,רחובות,הר הצופים,,5714-108-46,5714/108,14153.522607781284,31.8928235153,34.7797606994,2012
2012-12-18,2012-12-18,"הר הצופים 3, רחובות",הר הצופים 3,5713-92-116,דירה בבית קומות,4.0,חמש עשרה,91.0,1340000,,,2000.0,,16.0,9435017172,1,571392,False,89% ב 10.4 שנים,רחובות,הר הצופים,8.56,5713-92-116,5713/92,14725.274725274723,31.8965230096,34.7807444395,2012
2012-12-18,2012-12-18,"גלוסקין 29, רחובות",גלוסקין 29,3702-181-4,דירה בבית קומות,4.0,ראשונה,88.0,1200000,,,1970.0,,5.0,9492673932,1,3702181,False,,רחובות,גלוסקין,,3702-181-4,3702/181,13636.363636363636,31.9009869367,34.8078184074,2012
2012-12-17,2012-12-17,"הקבוצים 12, רחובות",הקבוצים 12,3698-310-12,דירה בבית קומות,2.5,שניה,49.0,610000,,,1970.0,,4.0,9435421128,1,3698310,False,8% ב 2.1 שנים,רחובות,הקבוצים,3.81,3698-310-12,3698/310,12448.979591836734,31.8836253983,34.822228206,2012
2012-12-17,2012-12-17,"גורדון 45, רחובות",גורדון 45,3703-1052-7,דירה בבית קומות,3.0,שלישית,82.1,1080000,,,1965.0,,3.0,9434627076,1,37031052,False,11% ב 0.4 שנים,רחובות,גורדון,27.5,3703-1052-7,3703/1052,13154.68940316687,31.9027566857,34.8140361138,2012
2012-12-17,2012-12-17,"חכם אברהם עפג'ין 11, רחובות",חכם אברהם עפג'ין 11,3699-336-23,דירה בבית קומות,4.5,שישית,103.2,1150000,,,1998.0,,9.0,9434687304,1,3699336,False,,רחובות,חכם עפג'ין אברהם,,3699-336-23,3699/336,11143.410852713178,31.8881574225,34.8237722446,2012
2012-12-17,2012-12-17,"טובה וטוביה מילר 7, רחובות",טובה וטוביה מילר 7,3703-441-9,דירה בבית קומות,4.0,שלישית,98.0,999000,,,1980.0,,6.0,9492510384,1,3703441,False,,רחובות,מילר טובה וטוביה,,3703-441-9,3703/441,10193.877551020409,31.9007338362,34.8166299772,2012
2012-12-17,2012-12-17,"נורדאו 16, רחובות",נורדאו 16,3704-726-3,דירה בבית קומות,3.0,ראשונה,53.83,840000,,,1950.0,,2.0,9435062868,1,3704726,False,127% ב 4.9 שנים,רחובות,נורדאו,25.92,3704-726-3,3704/726,15604.681404421326,31.8937283365,34.8156587166,2012
2012-12-16,2012-12-16,"ש' בן-ציון 30, רחובות",ש' בן-ציון 30,3702-403-6,דירה בבית קומות,4.0,שלישית,111.53,1450000,,,1990.0,,4.0,9434745516,1,3702403,False,,רחובות,ש בן ציון,,3702-403-6,3702/403,13000.986281717924,31.8987311232,34.8066524681,2012
2012-12-16,2012-12-16,"מנחם מששוילי 1, רחובות",מנחם מששוילי 1,4536-85-8,דירה בבית קומות,4.0,שניה,85.0,1160000,,,1993.0,,5.0,9434476548,1,453685,False,16% ב 2 שנים,רחובות,מששוילי מנחם,8.0,4536-85-8,4536/85,13647.058823529413,31.8840557725,34.8072191363,2012
2012-12-16,2012-12-16,"רמב""ם 100, רחובות","רמב""ם 100",3701-40-1,דירה בבית קומות,4.0,קרקע,108.54,1050000,,,1990.0,,2.0,9435191136,1,370140,False,,רחובות,"רמב""ם",,3701-40-1,3701/40,9673.852957435049,31.8885235511,34.8124128829,2012
2012-12-16,2012-12-16,"יוסף אהרונוביץ 17, רחובות",יוסף אהרונוביץ 17,3648-82-2,קוטג' דו משפחתי,3.0,ראשונה,60.0,1965000,,,1950.0,,1.0,9494421804,1,364882,False,70% ב 11.9 שנים,רחובות,אהרונוביץ יוסף,5.88,3648-82-2,3648/82,32750.0,31.9012056552,34.8010937086,2012
2012-12-16,2012-12-16,"יוסף קרוננברג 13, רחובות",יוסף קרוננברג 13,3697-419-68,דירה בבית קומות,4.5,ראשונה,108.1,1300000,,,1998.0,,,9434719056,1,3697419,False,,רחובות,קרוננברג יוסף,,3697-419-68,3697/419,12025.9019426457,31.8779675293,34.8154646426,2012
2012-12-16,2012-12-16,"אנילביץ 15, רחובות",אנילביץ 15,3656-134-1,דירה בבית קומות,4.0,ראשונה,80.0,1400000,,,1950.0,,2.0,9434464116,1,3656134,False,,רחובות,אנילביץ,,3656-134-1,3656/134,17500.0,31.8904253155,34.7929814372,2012
2012-12-15,2012-12-15,"סעדיה גאון 43, רחובות",סעדיה גאון 43,3701-44-16,דירה בבית קומות,4.0,שלישית,103.0,1225000,,,2011.0,,5.0,9493724604,1,370144,False,,רחובות,סעדיה גאון,,3701-44-16,3701/44,11893.203883495144,,,2012
2012-12-14,2012-12-14,"יעקב 23, רחובות",יעקב 23,3703-1074-3,דירה בבית קומות,5.0,שניה,123.82,1550000,,,2010.0,,8.0,9434377512,1,37031074,False,,רחובות,יעקב,,3703-1074-3,3703/1074,12518.171539331288,31.8968880095,34.8144093032,2012
2012-12-14,2012-12-14,"ההסתדרות 32, רחובות",ההסתדרות 32,3698-135-6,דירה בבית קומות,2.0,שניה,38.0,790000,,,1950.0,,2.0,9434905536,1,3698135,False,83% ב 3.3 שנים,רחובות,ההסתדרות,25.15,3698-135-6,3698/135,20789.473684210527,31.8810365349,34.8240559567,2012
2012-12-14,2012-12-14,"הילל יעקב 6, רחובות",הילל יעקב 6,3656-426-1,דירה בבית קומות,2.5,קרקע,42.2,770000,,,1970.0,,2.0,9434552064,1,3656426,False,,רחובות,הלל יעקב,,3656-426-1,3656/426,18246.44549763033,31.891286934,34.7950201365,2012
2012-12-14,2012-12-14,"יעקב 41, רחובות",יעקב 41,3703-216-26,דירה בבית קומות,4.5,שלישית,97.78,900000,,,1970.0,,4.0,9434714268,1,3703216,False,,רחובות,יעקב,,3703-216-26,3703/216,9204.336265084885,31.8973465864,34.8161472169,2012
2012-12-13,2012-12-13,"אורי כהן 1, רחובות",אורי כהן 1,3699-282-7,דירה בבית קומות,3.0,קומה ‎2‏,70.8,1075000,,,1998.0,,7.0,9435573588,1,3699282,False,75% ב 9 שנים,רחובות,כהן אורי,8.33,3699-282-7,3699/282,15183.61581920904,31.8902319797,34.8293047098,2012
2012-12-13,2012-12-13,"רוז'נסקי 23, רחובות",רוז'נסקי 23,3655-437-7,דירה בבית קומות,3.5,שניה,69.89,900000,,,1989.0,,5.0,9435566616,1,3655437,False,0% ב 2.5 שנים,רחובות,רוז'נסקי,0.0,3655-437-7,3655/437,12877.378738016883,31.8968206023,34.8003310633,2012
2012-12-13,2012-12-13,"בתיה מקוב 27, רחובות",בתיה מקוב 27,3704-701-8,דירה בבית קומות,3.0,שלישית,69.6,845000,,,2023.0,,4.0,9434464704,1,3704701,False,,רחובות,מקוב בתיה,,3704-701-8,3704/701,12140.80459770115,31.8917739828,34.8114278836,2012
2012-12-13,2012-12-13,"מורדי הגטאות 20, רחובות",מורדי הגטאות 20,3702-33-6,דירה בבית קומות,5.0,שלישית,139.0,1780000,,,2010.0,,5.0,9435447504,1,370233,False,1% ב 1.6 שנים,רחובות,מורדי הגטאות,0.62,3702-33-6,3702/33,12805.755395683453,31.8979078777,34.8069843166,2012
2012-12-13,2012-12-13,"כרמל 21, רחובות",כרמל 21,5908-73-52,דירה בבית קומות,4.0,ארבע עשרה,101.68,1440000,,,2012.0,,18.0,9434902008,1,590873,False,,רחובות,כרמל,,5908-73-52,5908/73,14162.077104642014,31.9083495555,34.8224889862,2012
2012-12-13,2012-12-13,"יעקב 26, רחובות",יעקב 26,3704-363-52,דירה בבית קומות,3.5,רביעית,94.2,1000000,,,1970.0,,8.0,9434680332,1,3704363,False,,רחובות,יעקב,,3704-363-52,3704/363,10615.711252653928,31.8957871131,34.8131331636,2012
2012-12-13,2012-12-13,"נתן אלתרמן 2, רחובות",נתן אלתרמן 2,3697-509-35,דירה בבית קומות,4.0,קומה ‎9‏,107.95,1250000,,,2014.0,,21.0,9492473004,1,3697509,False,,רחובות,אלתרמן נתן,,3697-509-35,3697/509,11579.434923575727,31.882269961,34.8110426593,2012
2012-12-12,2012-12-12,"לח""י 6, רחובות","לח""י 6",3698-382-1,דירה בבית קומות,4.5,ראשונה,107.4,1360000,,,2000.0,,9.0,9434379528,1,3698382,False,,רחובות,"לח""י",,3698-382-1,3698/382,12662.942271880818,31.8871267468,34.8233172027,2012
2012-12-12,2012-12-12,"שמחה וילקומיץ 22, רחובות",שמחה וילקומיץ 22,3703-14-26,דירה בבית קומות,3.0,שניה,75.4,880000,,,1975.0,,5.0,9434164068,1,370314,False,77% ב 6.3 שנים,רחובות,וילקומיץ שמחה,12.22,3703-14-26,3703/14,11671.087533156498,31.8945449863,34.8070486015,2012
2012-12-11,2012-11-12,"קלמן ביאלר 1, רחובות",קלמן ביאלר 1,3697-420-76,דירה בבית קומות,5.5,רביעית,122.85,1520000,,,1999.0,,9.0,9431904972,1,3697420,False,,רחובות,ביאלר קלמן,,3697-420-76,3697/420,12372.812372812374,31.8779721816,34.816668072,2012
2012-12-11,2012-11-12,"אהרון שקולניק 2, רחובות",אהרון שקולניק 2,3704-655-16,דירה בבית קומות,4.0,רביעית,99.07,1065000,,,1980.0,,9.0,9431329152,1,3704655,False,92% ב 9.2 שנים,רחובות,שקולניק אהרן,10.0,3704-655-16,3704/655,10749.974765317453,31.8945418805,34.8188598191,2012
2012-12-11,2012-11-12,"כרמל 21, רחובות",כרמל 21,5908-73-25,דירה בבית קומות,4.0,שביעית,99.24,1430000,,,2012.0,,18.0,9431358048,1,590873,False,,רחובות,כרמל,,5908-73-25,5908/73,14409.512293430069,31.9083495555,34.8224889862,2012
2012-12-11,2012-11-12,"שטינברג 1, רחובות",שטינברג 1,3705-567-21,דירה בבית קומות,3.0,שלישית,57.5,660000,,,1970.0,,4.0,9431687412,1,3705567,False,,רחובות,שטינברג,,3705-567-21,3705/567,11478.260869565218,31.8915788159,34.8196899741,2012
2012-12-11,2012-11-12,"יהודה הלוי 32, רחובות",יהודה הלוי 32,3697-40-2,קוטג' חד משפחתי,6.0,ראשונה,140.0,1665000,,,1950.0,,1.0,9432360840,1,369740,False,,רחובות,יהודה הלוי,,3697-40-2,3697/40,11892.857142857143,31.8858242282,34.8137129361,2012
2012-12-11,2012-11-12,"גבריאלוב 2, רחובות",גבריאלוב 2,3653-116-18,דירה בבית קומות,3.0,שלישית,57.3,470000,,,1970.0,,3.0,9492650496,1,3653116,False,118% ב 4.5 שנים,רחובות,גבריאלוב,26.22,3653-116-18,3653/116,8202.443280977313,31.8858429057,34.7891143293,2012
2012-12-11,2012-11-12,"הנשיא הראשון 32, רחובות",הנשיא הראשון 32,3703-1413-8,דירה בבית קומות,5.0,רביעית,131.52,1640000,,,2012.0,,6.0,9431848944,1,37031413,False,,רחובות,הנשיא הראשון,,3703-1413-8,3703/1413,12469.586374695862,31.9033072435,34.8120226668,2012
2012-12-10,2012-10-12,"כרמל 1, רחובות",כרמל 1,5908-65-167,דירה בבית קומות,3.0,שישית,73.1,1312000,,,2001.0,,27.0,9429747600,1,590865,False,,רחובות,כרמל,,5908-65-167,5908/65,17948.016415868675,31.9062852036,34.8209528234,2012
2012-12-10,2012-10-12,"חיים ילין 16, רחובות",חיים ילין 16,4536-108-1,קוטג' דו משפחתי,5.0,,198.0,4980000,,,2003.0,,,9428874420,1,4536108,False,,רחובות,ילין חיים,,4536-108-1,4536/108,25151.515151515152,31.882288008,34.807013024,2012
2012-12-09,2012-09-12,"ציפורה טוב 3, רחובות",ציפורה טוב 3,3648-307-42,דירה בבית קומות,4.0,אחת עשרה,93.35,1380000,,,2006.0,,18.0,9427583340,1,3648307,False,62% ב 5.3 שנים,רחובות,טוב צפורה,11.7,3648-307-42,3648/307,14783.074450990896,31.9002907087,34.7996892275,2012
2012-12-09,2012-09-12,"האמוראים 6, רחובות",האמוראים 6,3705-700-6,דירה בבית קומות,4.0,ראשונה,69.9,750000,,,1970.0,,3.0,9427866000,1,3705700,False,,רחובות,האמוראים,,3705-700-6,3705/700,10729.61373390558,31.8845046222,34.817289983,2012
2012-12-09,2012-09-12,"מנוחה ונחלה 25, רחובות",מנוחה ונחלה 25,3704-79-18,דירה בבית קומות,3.0,רביעית,60.0,730000,,,1975.0,,4.0,9427214076,1,370479,False,68% ב 14.5 שנים,רחובות,מנוחה ונחלה,4.69,3704-79-18,3704/79,12166.666666666666,31.8949459193,34.8170761495,2012
2012-12-09,2012-09-12,"גורודיסקי 34, רחובות",גורודיסקי 34,3700-39-3,דירה בבית קומות,3.0,ראשונה,56.38,900000,,,1970.0,,3.0,9427780152,1,370039,True,-2% ב 1.3 שנים,רחובות,גורודיסקי,-1.54,3700-39-3,3700/39,15963.10748492373,31.8977604975,34.8217319405,2012
2012-12-08,2012-08-12,"דובנוב 6, רחובות",דובנוב 6,3679-82-26,דירה בבית קומות,5.0,שישית,133.7,1225000,,,2011.0,,9.0,9425801028,1,367982,False,,רחובות,דובנוב,,3679-82-26,3679/82,9162.303664921466,31.8868199998,34.7912236235,2012
2012-12-08,2012-08-12,"יהודה הלוי 30, רחובות",יהודה הלוי 30,3697-41-10,דירה בבית קומות,3.0,שניה,80.0,845000,,,1970.0,,3.0,9426622128,1,369741,False,110% ב 7.5 שנים,רחובות,יהודה הלוי,14.67,3697-41-10,3697/41,10562.5,31.8857443841,34.8135683395,2012
2012-12-08,2012-08-12,"השופטים 6, רחובות",השופטים 6,3701-650-3,דירה בבית קומות,3.0,ראשונה,59.28,750000,,,1960.0,,3.0,9425263092,1,3701650,False,,רחובות,השופטים,,3701-650-3,3701/650,12651.821862348175,31.8928775049,34.8101198374,2012
2012-12-08,2012-08-12,"שמחה הולצברג 3, רחובות",שמחה הולצברג 3,3697-549-19,דירה בבית קומות,3.0,,82.0,1070000,,,2004.0,,9.0,9424444092,1,3697549,False,,רחובות,הולצברג שמחה,,3697-549-19,3697/549,13048.780487804876,31.8794887592,34.8146980583,2012
2012-12-08,2012-08-12,"סטולבוב 2, רחובות",סטולבוב 2,3653-86-17,דירה בבית קומות,2.0,ראשונה,45.6,580000,,,1960.0,,4.0,9424683996,1,365386,False,16% ב 1.5 שנים,רחובות,סטולבוב,10.67,3653-86-17,3653/86,12719.298245614034,31.8884158291,34.7896547992,2012
2012-12-08,2012-08-12,"עזרא 32, רחובות",עזרא 32,3705-696-23,דירה בבית קומות,6.0,שביעית,168.11,1805000,,,2009.0,,7.0,9424336740,1,3705696,False,9% ב 1 שנים,רחובות,עזרא,9.0,3705-696-23,3705/696,10737.017429064304,31.891528888,34.8157174161,2012
2012-12-08,2012-08-12,"אביבה ומתתיהו לוסטרניק 60, רחובות",אביבה ומתתיהו לוסטרניק 60,3699-424-2,קוטג' דו משפחתי,7.0,,223.0,5120000,,,2005.0,,,9424992864,1,3699424,False,,רחובות,לוסטרניק אביבה ומתת,,3699-424-2,3699/424,22959.64125560538,31.8866775151,34.8288426426,2012
2012-12-07,2012-07-12,"לח""י 10, רחובות","לח""י 10",3698-384-16,דירה בבית קומות,3.5,רביעית,84.5,1129000,,,2001.0,,9.0,9422138460,1,3698384,False,,רחובות,"לח""י",,3698-384-16,3698/384,13360.94674556213,31.8877988731,34.8230600107,2012
2012-12-07,2012-07-12,"נתן אלתרמן 2, רחובות",נתן אלתרמן 2,3697-509-31,דירה בבית קומות,4.0,קומה ‎8‏,107.95,1230000,,,2014.0,,21.0,9424478700,1,3697509,False,,רחובות,אלתרמן נתן,,3697-509-31,3697/509,11394.163964798518,31.882269961,34.8110426593,2012
2012-12-07,2012-07-12,"יוסף קרוננברג 9, רחובות",יוסף קרוננברג 9,3697-419-12,דירה בבית קומות,5.5,שלישית,128.2,1450000,,,2000.0,,,9422287476,1,3697419,False,,רחובות,קרוננברג יוסף,,3697-419-12,3697/419,11310.452418096726,31.8779675293,34.8154646426,2012
2012-12-07,2012-07-12,"דובנוב 1, רחובות",דובנוב 1,3656-382-1,קוטג' דו משפחתי,5.0,- -,140.0,1750000,,,1958.0,,1.0,9506871528,1,3656382,False,,רחובות,דובנוב,,3656-382-1,3656/382,12500.0,31.8878116032,34.7905492263,2012
2012-12-06,2012-06-12,"ברקת 11, רחובות",ברקת 11,3700-479-4,דירה בבית קומות,5.0,קרקע ראשונה ושניה,139.91,1680000,,,1990.0,,,9422329728,1,3700479,False,,רחובות,ברקת,,3700-479-4,3700/479,12007.719248088057,31.897188003,34.8255886349,2012
2012-12-06,2012-06-12,"רמז 70, רחובות",רמז 70,3702-103-3,דירה בבית קומות,5.0,שניה,105.75,1250000,,,1989.0,,3.0,9420026868,1,3702103,False,,רחובות,רמז,,3702-103-3,3702/103,11820.33096926714,31.8957191664,34.8048310048,2012
2012-12-06,2012-06-12,"פינסקר 6, רחובות",פינסקר 6,3694-42-7,דירה בבית קומות,3.0,שניה,58.08,910000,,,1970.0,,4.0,9419806452,1,369442,False,,רחובות,פינסקר,,3694-42-7,3694/42,15668.044077134986,31.9047668018,34.8130000017,2012
2012-12-05,2012-05-12,"כרמל 16, רחובות",כרמל 16,5908-76-79,דירה,4.0,שש עשרה,100.0,1492000,1.0,אחוזות הנשיא,2013.0,,22.0,11181258384,1,590876,False,,רחובות,כרמל,,5908-76-79,5908/76,14920.0,31.9064675792,34.8234770113,2012
2012-12-05,2012-05-12,"המוכתר 5, רחובות",המוכתר 5,3658-6-4,קוטג' טורי,4.0,קרקע + ראשונה,100.0,2050000,,,1994.0,,,9418337880,1,36586,False,2% ב 0.4 שנים,רחובות,המוכתר,5.0,3658-6-4,3658/6,20500.0,31.8898288485,34.8045532011,2012
2012-12-03,2012-03-12,"יבנה 68, רחובות",יבנה 68,3702-189-16,דירה בבית קומות,2.0,שלישית,47.46,730000,,,1965.0,,3.0,9413862696,1,3702189,False,,רחובות,יבנה,,3702-189-16,3702/189,15381.373788453437,31.9025244988,34.8073639532,2012
2012-12-03,2012-03-12,"הרצל 29, רחובות",הרצל 29,3697-288-31,דירה בבית קומות,4.0,שמינית,86.0,870000,,,1980.0,,8.0,9413521740,1,3697288,False,,רחובות,הרצל,,3697-288-31,3697/288,10116.279069767445,31.8834111094,34.8160906437,2012
2012-12-03,2012-03-12,"סעדיה גאון 43, רחובות",סעדיה גאון 43,3701-44-4,דירה בבית קומות,4.0,ראשונה,103.0,1150000,,,2011.0,,5.0,9415358904,1,370144,False,,רחובות,סעדיה גאון,,3701-44-4,3701/44,11165.04854368932,,,2012
2012-12-03,2012-03-12,"השקד 107, רחובות",השקד 107,3653-53-24,דירה בבית קומות,4.0,שניה,71.1,575000,,,1970.0,,4.0,9413443452,1,365353,False,72% ב 9.4 שנים,רחובות,השקד,7.66,3653-53-24,3653/53,8087.2011251758095,31.888449405,34.7857221386,2012
2012-12-03,2012-03-12,"כרמל 9, רחובות",כרמל 9,5908-68-24,דירה בבית קומות,5.0,חמישית,100.0,1520000,,,2005.0,,1.0,9413645640,1,590868,False,,רחובות,כרמל,,5908-68-24,5908/68,15200.0,31.9065686384,34.8224119038,2012
2012-12-03,2012-03-12,"הרשזון 51, רחובות",הרשזון 51,3704-790-2,דירה בבית קומות,5.0,קומה ‎1‏,118.4,1450000,,,2011.0,,6.0,9414536292,1,3704790,False,,רחובות,הרשנזון,,3704-790-2,3704/790,12246.621621621622,31.8910235712,34.8115912094,2012
2012-12-03,2012-03-12,"יעקב 27, רחובות",יעקב 27,3703-1207-2,דירה בבית קומות,4.0,ראשונה,91.54,1000000,,,1988.0,,5.0,9413834220,1,37031207,False,,רחובות,יעקב,,3703-1207-2,3703/1207,10924.186148131965,31.8969762061,34.8149997241,2012
2012-12-03,2012-03-12,"חזון איש 26, רחובות",חזון איש 26,5478-21-55,דירה בבית קומות,5.0,שישית,129.8,1300000,,,2013.0,,9.0,9414805764,1,547821,False,,רחובות,חזון איש,,5478-21-55,5478/21,10015.408320493065,31.8829861234,34.7943061592,2012
2012-12-03,2012-03-12,"משה מזרחי 15, רחובות",משה מזרחי 15,3697-123-16,דירה,4.0,,100.0,1120000,1.0,משה מזרחי,2012.0,,5.0,11181226358,1,3697123,False,,רחובות,מזרחי משה,,3697-123-16,3697/123,11200.0,31.8838156552,34.8139624765,2012
2012-12-03,2012-03-12,"רופין 39, רחובות",רופין 39,3647-114-3,דירה בבית קומות,5.0,ראשונה,109.87,1350000,,,1997.0,,5.0,9413593728,1,3647114,False,,רחובות,רופין,,3647-114-3,3647/114,12287.248566487668,31.9037176207,34.8069977816,2012
2012-12-02,2012-02-12,"משה מזרחי 10, רחובות",משה מזרחי 10,3697-277-3,דירה בבית קומות,3.0,ראשונה,51.6,660000,,,1970.0,,4.0,9411753120,1,3697277,False,,רחובות,מזרחי משה,,3697-277-3,3697/277,12790.697674418603,31.8828343864,34.8132558436,2012
2012-12-02,2012-02-12,"כרמל 16, רחובות",כרמל 16,5908-76-77,דירה,4.0,שמונה עשרה,110.0,1620000,1.0,אחוזות הנשיא,2013.0,,22.0,11181258382,1,590876,False,,רחובות,כרמל,,5908-76-77,5908/76,14727.272727272728,31.9064675792,34.8234770113,2012
2012-12-02,2012-02-12,"כרמל 16, רחובות",כרמל 16,5908-76-137,דירה בבית קומות,4.0,,100.0,1602000,,,2013.0,,22.0,9413172468,1,590876,False,,רחובות,כרמל,,5908-76-137,5908/76,16020.0,31.9064675792,34.8234770113,2012
2012-12-02,2012-02-12,"ששת הימים 37, רחובות",ששת הימים 37,4545-38-17,דירה בבית קומות,3.0,רביעית,66.0,450000,,,1984.0,,4.0,9414309576,1,454538,False,,רחובות,ששת הימים,,4545-38-17,4545/38,6818.181818181818,31.8810491813,34.7883081726,2012
2012-12-01,2012-01-12,"עזרא 36, רחובות",עזרא 36,3705-649-1,דירה בבית קומות,3.0,קומה ‎1‏,74.8,780000,,,1970.0,,6.0,9411153696,1,3705649,False,,רחובות,עזרא,,3705-649-1,3705/649,10427.807486631016,31.8917333935,34.8160927228,2012
2012-11-30,2012-11-30,"חיים קאופמן 1, רחובות",חיים קאופמן 1,3698-469-1,דירה בבית קומות,4.0,שלישית,110.0,1254000,,,2014.0,,5.0,9434445552,1,3698469,False,,רחובות,קאופמן חיים,,3698-469-1,3698/469,11400.0,31.8844476954,34.8193798611,2012
2012-11-30,2012-11-30,"כובשי החרמון 13, רחובות",כובשי החרמון 13,3705-483-10,דירה בבית קומות,4.0,שלישית,96.95,1290000,,,2006.0,,4.0,9493037232,1,3705483,False,,רחובות,כובשי החרמון,,3705-483-10,3705/483,13305.82774626096,31.8883644047,34.8175580654,2012
2012-11-30,2012-11-30,"ששת הימים 96, רחובות",ששת הימים 96,3656-336-1,קוטג' דו משפחתי,3.0,-----,47.5,1770000,,,1950.0,,1.0,9433493160,1,3656336,False,22% ב 0.5 שנים,רחובות,ששת הימים,44.0,3656-336-1,3656/336,37263.15789473684,31.8895063535,34.7906558465,2012
2012-11-30,2012-11-30,"משה פורר 10, רחובות",משה פורר 10,3699-249-112,דירה בבית קומות,4.0,שביעית,103.45,1230000,,,1996.0,,15.0,9433721808,1,3699249,False,73% ב 7.2 שנים,רחובות,פורר משה,10.14,3699-249-112,3699/249,11889.801836636056,31.888461774,34.8308497869,2012
2012-11-29,2012-11-29,"פרופ' אפרים קציר 26, רחובות",פרופ' אפרים קציר 26,3694-521-6,דירה בבית קומות,5.0,שניה,123.0,1674000,,,2012.0,,2.0,9434460588,1,3694521,False,,רחובות,פרופ' קציר אפרים,,3694-521-6,3694/521,13609.756097560976,31.9049866348,34.8213612966,2012
2012-11-29,2012-11-29,"סיטקוב 3, רחובות",סיטקוב 3,3703-1117-8,דירה בבית קומות,3.5,שניה,81.6,1030000,,,1970.0,,4.0,9433214532,1,37031117,False,,רחובות,סיטקוב,,3703-1117-8,3703/1117,12622.549019607844,31.9009866586,34.8133415392,2012
2012-11-29,2012-11-29,"גורדון 2, רחובות",גורדון 2,3703-1394-78,דירה בבית קומות,3.0,שבע עשרה,68.35,1300000,,,2012.0,,19.0,9433662924,1,37031394,False,,רחובות,גורדון,,3703-1394-78,3703/1394,19019.75128017557,31.9011251208,34.8099768873,2012
2012-11-29,2012-11-29,"הנשיא הראשון 32, רחובות",הנשיא הראשון 32,3703-1413-10,דירה בבית קומות,5.0,חמישית,131.52,1700000,,,2012.0,,6.0,9433480728,1,37031413,False,,רחובות,הנשיא הראשון,,3703-1413-10,3703/1413,12925.790754257909,31.9033072435,34.8120226668,2012
2012-11-29,2012-11-29,"טלר 7, רחובות",טלר 7,3703-1422-8,דירת גג,6.0,"שישית, שביעית",216.25,2600000,,,2011.0,,6.0,9433210416,1,37031422,False,,רחובות,טלר,,3703-1422-8,3703/1422,12023.121387283238,31.8952561316,34.8080204687,2012
2012-11-29,2012-11-29,"יוסף קרוננברג 9, רחובות",יוסף קרוננברג 9,3697-419-32,דירת גג,5.5,שמינית,156.05,2000000,,,2002.0,,,9434466720,1,3697419,False,,רחובות,קרוננברג יוסף,,3697-419-32,3697/419,12816.404998397948,31.8779675293,34.8154646426,2012
2012-11-28,2012-11-28,"לח""י 55, רחובות","לח""י 55",3705-559-9,דירה בבית קומות,3.0,שלישית,64.0,760000,,,1970.0,,4.0,9433217388,1,3705559,False,35% ב 2.8 שנים,רחובות,"לח""י",12.5,3705-559-9,3705/559,11875.0,31.8914934713,34.8220513555,2012
2012-11-28,2012-11-28,"חזון איש 10, רחובות",חזון איש 10,5478-25-26,דירה בבית קומות,4.0,קרקע,103.53,1355000,,,2011.0,,6.0,9492463344,1,547825,False,,רחובות,חזון איש,,5478-25-26,5478/25,13087.993818216944,31.8817935534,34.7914703227,2012
2012-11-28,2012-11-28,"אבן עזרא 18, רחובות",אבן עזרא 18,3697-233-2,דירה בבית קומות,3.0,ראשונה,54.0,790000,,,1970.0,,3.0,9494227680,1,3697233,False,88% ב 12.9 שנים,רחובות,אבן עזרא,6.82,3697-233-2,3697/233,14629.62962962963,31.8843420614,34.8125398712,2012
2012-11-27,2012-11-27,"ויצמן 13, רחובות",ויצמן 13,3703-1107-15,דירה בבית קומות,4.0,שלישית,102.46,1170000,,,1970.0,,5.0,9434129964,1,37031107,False,,רחובות,ויצמן,,3703-1107-15,3703/1107,11419.090376732383,31.8996464778,34.8120444127,2012
2012-11-27,2012-11-27,"שמחה וילקומיץ 12, רחובות",שמחה וילקומיץ 12,3703-1360-3,דירה בבית קומות,3.0,שניה,70.0,800000,,,1995.0,,1.0,9434703264,1,37031360,False,,רחובות,וילקומיץ שמחה,,3703-1360-3,3703/1360,11428.57142857143,31.894059712,34.8059281689,2012
2012-11-27,2012-11-27,"קובנר 4, רחובות",קובנר 4,3659-20-5,דירה בבית קומות,3.0,שניה,62.0,628000,,,1970.0,,4.0,9434245128,1,365920,False,,רחובות,קובנר,,3659-20-5,3659/20,10129.032258064515,31.8821317234,34.8043402994,2012
2012-11-27,2012-11-27,"גורדון 21, רחובות",גורדון 21,3703-315-10,דירה בבית קומות,4.0,רביעית,89.69,1260000,,,1970.0,,5.0,9433067196,1,3703315,False,87% ב 8.3 שנים,רחובות,גורדון,10.48,3703-315-10,3703/315,14048.388895083064,31.902078652,34.8116691175,2012
2012-11-27,2012-11-27,"גורדון 2, רחובות",גורדון 2,3703-1394-52,דירה בבית קומות,4.0,אחת עשרה,102.2,1475000,,,2012.0,,19.0,9433701816,1,37031394,False,,רחובות,גורדון,,3703-1394-52,3703/1394,14432.485322896282,31.9011251208,34.8099768873,2012
2012-11-26,2012-11-26,"הר הצופים 31, רחובות",הר הצופים 31,5713-87-105,דירה בבית קומות,4.0,רביעית,87.5,1335000,,,2007.0,,7.0,9433682412,1,571387,False,71% ב 5.3 שנים,רחובות,הר הצופים,13.4,5713-87-105,5713/87,15257.142857142857,31.895377348,34.7820499418,2012
2012-11-26,2012-11-26,"חזון איש 26, רחובות",חזון איש 26,5478-21-66,דירה בבית קומות,4.0,"תשיעית, עשירית",105.1,1330000,,,2013.0,,9.0,9434073936,1,547821,False,,רחובות,חזון איש,,5478-21-66,5478/21,12654.614652711703,31.8829861234,34.7943061592,2012
2012-11-25,2012-11-25,"כובשי החרמון 19, רחובות",כובשי החרמון 19,3705-479-28,דירה בבית קומות,4.0,שביעית,89.9,1080000,,,1990.0,,8.0,9433080300,1,3705479,False,44% ב 4.6 שנים,רחובות,כובשי החרמון,9.57,3705-479-28,3705/479,12013.348164627365,31.8888727416,34.8181771707,2012
2012-11-25,2012-11-25,"גורדון 17, רחובות",גורדון 17,3703-100-1,דירה בבית קומות,5.0,קרקע,95.0,1220000,,,1970.0,2010.0,4.0,9433076856,1,3703100,False,,רחובות,גורדון,,3703-100-1,3703/100,12842.105263157897,31.9020045823,34.8113090537,2012
2012-11-25,2012-11-25,"גבריאלוב 14, רחובות",גבריאלוב 14,3653-93-28,דירה בבית קומות,2.0,שניה,46.2,400000,,,1970.0,,4.0,9492413532,1,365393,False,,רחובות,גבריאלוב,,3653-93-28,3653/93,8658.008658008657,31.886633256,34.7882782397,2012
2012-11-25,2012-11-25,"כוכבי דוד 13, רחובות",כוכבי דוד 13,3655-294-2,קוטג' דו משפחתי,3.0,ראשונה,54.6,1579000,,,1997.0,,1.0,9492764064,1,3655294,False,,רחובות,כוכבי דוד,,3655-294-2,3655/294,28919.41391941392,31.895346257,34.7998996957,2012
2012-11-25,2012-11-25,"העלייה 11, רחובות",העלייה 11,3659-37-3,דירה בבית קומות,3.0,ראשונה,67.5,600000,,,1970.0,,4.0,9432478776,1,365937,False,,רחובות,העליה,,3659-37-3,3659/37,8888.888888888889,31.8832477973,34.8044224255,2012
2012-11-25,2012-11-25,"טובה וטוביה מילר 11, רחובות",טובה וטוביה מילר 11,3703-155-11,דירה בבית קומות,4.0,רביעית,85.96,1185000,,,1970.0,,4.0,9433131540,1,3703155,False,49% ב 4.9 שנים,רחובות,מילר טובה וטוביה,10.0,3703-155-11,3703/155,13785.481619357844,31.9008390374,34.8171463413,2012
2012-11-23,2012-11-23,"חיים אליעזר מילצ'ן 6, רחובות",חיים אליעזר מילצ'ן 6,3697-296-18,דירה בבית קומות,3.0,ראשונה,69.8,560000,,,1975.0,,4.0,9433065012,1,3697296,False,,רחובות,מילצן חיים אליעזר,,3697-296-18,3697/296,8022.922636103152,31.8824417353,34.8142366171,2012
2012-11-22,2012-11-22,"יבנה 8, רחובות",יבנה 8,3702-239-2,דירה בבית קומות,3.5,ראשונה,71.5,1100000,,,1970.0,,4.0,9433492488,1,3702239,False,37% ב 3.5 שנים,רחובות,יבנה,10.57,3702-239-2,3702/239,15384.615384615385,31.8979049102,34.801220817,2012
2012-11-22,2012-11-22,"סעדיה גאון 43, רחובות",סעדיה גאון 43,3701-44-17,דירה בבית קומות,4.0,שלישית,103.0,1300000,,,2011.0,,5.0,9432501036,1,370144,False,,רחובות,סעדיה גאון,,3701-44-17,3701/44,12621.359223300971,,,2012
2012-11-22,2012-11-22,"הר הצופים 11, רחובות",הר הצופים 11,5714-108-97,דירה בבית קומות,5.0,שישית,150.8,1985000,,,2010.0,,6.0,9434252772,1,5714108,False,,רחובות,הר הצופים,,5714-108-97,5714/108,13163.1299734748,31.8928235153,34.7797606994,2012
2012-11-22,2012-11-22,"האר""י 18, רחובות","האר""י 18",3699-359-1,קוטג' דו משפחתי,8.0,ראשונה,200.0,2409000,,,1997.0,,1.0,9432609816,1,3699359,False,,רחובות,"האר""י",,3699-359-1,3699/359,12045.0,31.8891827657,34.8262311602,2012
2012-11-22,2012-11-22,"ברנר 36, רחובות",ברנר 36,3704-213-6,דירה בבית קומות,3.0,שניה,57.5,780000,,,1970.0,,5.0,9432475920,1,3704213,False,,רחובות,ברנר,,3704-213-6,3704/213,13565.217391304348,31.8910380799,34.8099642883,2012
2012-11-22,2012-11-22,"יבנה 11, רחובות",יבנה 11,3648-221-15,דירה בבית קומות,3.0,רביעית,60.0,750000,,,1970.0,,4.0,9434521656,1,3648221,False,19% ב 0.5 שנים,רחובות,יבנה,38.0,3648-221-15,3648/221,12500.0,31.898414914,34.8011142836,2012
2012-11-21,2012-11-21,"כרמל 11, רחובות",כרמל 11,5908-69-27,דירה בבית קומות,3.0,רביעית,67.0,1265000,,,2006.0,,5.0,9433093488,1,590869,False,,רחובות,כרמל,,5908-69-27,5908/69,18880.597014925374,31.9067749724,34.8227554116,2012
2012-11-21,2012-11-21,"סוקולוב 1, רחובות",סוקולוב 1,3703-356-22,דירה בבית קומות,2.0,שלישית,36.42,625000,,,1960.0,,5.0,9433017972,1,3703356,False,,רחובות,סוקולוב,,3703-356-22,3703/356,17160.9006040637,31.8953115977,34.8087817572,2012
2012-11-21,2012-11-21,"סעדיה גאון 43, רחובות",סעדיה גאון 43,3701-44-9,דירה,4.0,שלישית,102.0,1300000,1.0,סעדיה גאון,2011.0,,5.0,11181226988,1,370144,False,,רחובות,סעדיה גאון,,3701-44-9,3701/44,12745.098039215687,,,2012
2012-11-21,2012-11-21,"דוד אלעזר 7, רחובות",דוד אלעזר 7,5811-23-14,דירה בבית קומות,3.0,שלישית,44.2,400000,,,1970.0,,4.0,9433006128,1,581123,False,,רחובות,דוד אלעזר,,5811-23-14,5811/23,9049.773755656108,31.8931731106,34.7753552694,2012
2012-11-21,2012-11-21,"פוגל בן ציון 29, רחובות",פוגל בן ציון 29,3656-203-1,קוטג' חד משפחתי,3.0,ראשונה,49.03,1750000,,,2009.0,,1.0,9432866772,1,3656203,False,,רחובות,פוגל בן ציון,,3656-203-1,3656/203,35692.43320416072,,,2012
2012-11-20,2012-11-20,"חרל""פ 2, רחובות","חרל""פ 2",3703-18-4,חנות,,ראשונה,,4266000,,,1950.0,,1.0,9434518800,1,370318,False,,רחובות,"חרל""פ",,3703-18-4,3703/18,,31.8942229105,34.8090163021,2012
2012-11-20,2012-11-20,"חרל""פ 2, רחובות","חרל""פ 2",3703-18-2,חנות,,ראשונה,,2133000,,,1950.0,,1.0,9434548536,1,370318,False,,רחובות,"חרל""פ",,3703-18-2,3703/18,,31.8942229105,34.8090163021,2012
2012-11-20,2012-11-20,"מקס ואמפרו שיין 5, רחובות",מקס ואמפרו שיין 5,3697-495-139,דירה בבית קומות,4.0,אחת עשרה,120.19,1563000,,,2012.0,,12.0,9434762148,1,3697495,False,,רחובות,מקס ואמפרו שיין,,3697-495-139,3697/495,13004.409684665943,31.880038574,34.806826046,2012
2012-11-20,2012-11-20,"יהודה דור 3, רחובות",יהודה דור 3,3701-446-4,דירה בבית קומות,3.0,ראשונה,68.76,1020000,,,1970.0,,4.0,9431889684,1,3701446,False,56% ב 3.3 שנים,רחובות,דור יהודה,16.97,3701-446-4,3701/446,14834.205933682371,31.8883857918,34.8086211231,2012
2012-11-20,2012-11-20,"חרל""פ 2, רחובות","חרל""פ 2",3703-18-3,חנות,,ראשונה,85.0,3199000,,,1950.0,,1.0,9434547948,1,370318,False,,רחובות,"חרל""פ",,3703-18-3,3703/18,37635.294117647056,31.8942229105,34.8090163021,2012
2012-11-19,2012-11-19,"טובה וטוביה מילר 7, רחובות",טובה וטוביה מילר 7,3703-441-1,דירה בבית קומות,4.0,ראשונה,98.0,1100000,,,1980.0,,6.0,9432387972,1,3703441,False,42% ב 4.4 שנים,רחובות,מילר טובה וטוביה,9.55,3703-441-1,3703/441,11224.489795918367,31.9007338362,34.8166299772,2012
2012-11-19,2012-11-19,"חיים לסקוב 7, רחובות",חיים לסקוב 7,3699-292-12,דירה בבית קומות,3.5,שלישית,85.86,1155000,,,1997.0,,5.0,9432473316,1,3699292,False,,רחובות,לסקוב חיים,,3699-292-12,3699/292,13452.13137665968,31.8878890274,34.8301911318,2012
2012-11-19,2012-11-19,"מרדכי בשיסט 41, רחובות",מרדכי בשיסט 41,3696-127-119,דירה בבית קומות,2.0,,70.0,1230000,,,2000.0,,7.0,9431729664,1,3696127,False,,רחובות,בשיסט מרדכי,,3696-127-119,3696/127,17571.428571428572,31.9084941864,34.79856581,2012
2012-11-19,2012-11-19,"קלמן ביאלר 1, רחובות",קלמן ביאלר 1,3697-420-93,דירה בבית קומות,4.0,שמינית,95.5,1250000,,,1999.0,,9.0,9433069800,1,3697420,False,,רחובות,ביאלר קלמן,,3697-420-93,3697/420,13089.005235602095,31.8779721816,34.816668072,2012
2012-11-19,2012-11-19,"גורדון 2, רחובות",גורדון 2,3703-1394-42,דירה בבית קומות,4.0,תשיעית,102.2,1460000,,,2012.0,,19.0,9433740624,1,37031394,False,,רחובות,גורדון,,3703-1394-42,3703/1394,14285.714285714284,31.9011251208,34.8099768873,2012
2012-11-19,2012-11-19,"חן 59, רחובות",חן 59,3702-156-1,דירה בבית קומות,4.0,ראשונה,102.99,1728000,,,2001.0,,5.0,9431728992,1,3702156,False,,רחובות,חן,,3702-156-1,3702/156,16778.327993009032,31.9015614715,34.8067821828,2012
2012-11-19,2012-11-19,"גורדון 2, רחובות",גורדון 2,3703-1394-57,דירה בבית קומות,4.0,שתים עשרה,102.2,1490000,,,2012.0,,19.0,9433565988,1,37031394,False,,רחובות,גורדון,,3703-1394-57,3703/1394,14579.256360078278,31.9011251208,34.8099768873,2012
2012-11-19,2012-11-19,"ארז 5, רחובות",ארז 5,4760-79-1,קוטג' דו משפחתי,7.0,מרתף קרקע וראשונה,197.5,1900000,,,1992.0,,,9432090696,1,476079,False,,רחובות,ארז,,4760-79-1,4760/79,9620.253164556962,31.8903999958,34.7755510206,2012
2012-11-19,2012-11-19,"אחים קיבוביץ 18, רחובות",אחים קיבוביץ 18,3702-89-3,דירה בבית קומות,3.0,ראשונה,72.0,890000,,,1970.0,,4.0,9432223752,1,370289,False,,רחובות,אחים קיבוביץ,,3702-89-3,3702/89,12361.111111111111,31.8967261298,34.8037177431,2012
2012-11-19,2012-11-19,"חזון איש 10, רחובות",חזון איש 10,5478-25-46,דירה בבית קומות,5.0,חמישית,165.95,1800000,,,2011.0,,6.0,9433302564,1,547825,False,,רחובות,חזון איש,,5478-25-46,5478/25,10846.640554383852,31.8817935534,34.7914703227,2012
2012-11-18,2012-11-18,"יבנה 66, רחובות",יבנה 66,3702-416-7,דירה בבית קומות,4.0,רביעית,107.32,1350000,,,2011.0,,6.0,9432925152,1,3702416,False,,רחובות,יבנה,,3702-416-7,3702/416,12579.20238538949,31.9024096026,34.807228666,2012
2012-11-18,2012-11-18,"שמחה הולצברג 3, רחובות",שמחה הולצברג 3,3697-549-21,דירה בבית קומות,3.0,ראשונה,80.0,1165000,,,2004.0,,9.0,9431891196,1,3697549,False,,רחובות,הולצברג שמחה,,3697-549-21,3697/549,14562.5,31.8794887592,34.8146980583,2012
2012-11-18,2012-11-18,"אחד העם 27, רחובות",אחד העם 27,3703-734-6,דירה בבית קומות,4.0,שניה,95.81,1150000,,,1970.0,,5.0,9433723992,1,3703734,False,,רחובות,אחד העם,,3703-734-6,3703/734,12002.922450683644,31.898713499,34.8112703796,2012
2012-11-18,2012-11-18,"הרשזון 72, רחובות",הרשזון 72,3701-897-10,דירה בבית קומות,5.0,חמישית,118.84,1500000,,,2014.0,,6.0,9432938256,1,3701897,False,,רחובות,הרשנזון,,3701-897-10,3701/897,12622.012790306291,31.8903898813,34.8114555218,2012
2012-11-18,2012-11-18,"מקס ואמפרו שיין 5, רחובות",מקס ואמפרו שיין 5,3697-495-97,דירה בבית קומות,5.0,ראשונה,127.19,1380000,,,2012.0,,12.0,9434731572,1,3697495,False,4% ב 1.5 שנים,רחובות,מקס ואמפרו שיין,2.67,3697-495-97,3697/495,10849.9095840868,31.880038574,34.806826046,2012
2012-11-18,2012-11-18,"וייסבורג 3, רחובות",וייסבורג 3,3704-419-2,דירה בבית קומות,5.0,,90.0,1290000,,,1993.0,,4.0,9431658936,1,3704419,False,,רחובות,וייסבורג,,3704-419-2,3704/419,14333.333333333334,31.8931076168,34.819765246,2012
2012-11-18,2012-11-18,"דוד קינד 9, רחובות",דוד קינד 9,3655-223-1,קוטג' דו משפחתי,5.0,ראשונה,129.0,1800000,,,1950.0,,1.0,9434382972,1,3655223,False,,רחובות,קינד דוד,,3655-223-1,3655/223,13953.488372093025,31.8938373577,34.795599379,2012
2012-11-16,2012-11-16,"הר הצופים 3, רחובות",הר הצופים 3,5713-92-7,דירה בבית קומות,3.0,שניה,73.7,1120000,,,2000.0,,16.0,9431631216,1,571392,False,53% ב 4.6 שנים,רחובות,הר הצופים,11.52,5713-92-7,5713/92,15196.743554952507,31.8965230096,34.7807444395,2012
2012-11-15,2012-11-15,"חווה לוצקי 10, רחובות",חווה לוצקי 10,3703-1046-8,דירה בבית קומות,4.0,שניה,91.87,1150000,,,1970.0,,7.0,9431493288,1,37031046,False,65% ב 5.4 שנים,רחובות,לוצקי חוה,12.04,3703-1046-8,3703/1046,12517.688037444212,31.8970783759,34.8141187766,2012
2012-11-15,2012-11-15,"הנשיא הראשון 12, רחובות",הנשיא הראשון 12,3703-569-4,דירה בבית קומות,5.0,שניה,107.44,1320000,,,1982.0,,3.0,9431492616,1,3703569,False,61% ב 5.5 שנים,רחובות,הנשיא הראשון,11.09,3703-569-4,3703/569,12285.927029039463,31.90285679,34.8099432351,2012
2012-11-15,2012-11-15,"כרמל 9, רחובות",כרמל 9,5908-68-21,דירה בבית קומות,4.0,שלוש עשרה,90.0,1515000,,,2004.0,,1.0,9432671556,1,590868,False,,רחובות,כרמל,,5908-68-21,5908/68,16833.333333333332,31.9065686384,34.8224119038,2012
2012-11-15,2012-11-15,"הנשיא הראשון 16, רחובות",הנשיא הראשון 16,3703-567-8,דירה בבית קומות,4.0,שלישית,78.52,1200000,,,1972.0,,5.0,9433130868,1,3703567,False,97% ב 6.3 שנים,רחובות,הנשיא הראשון,15.4,3703-567-8,3703/567,15282.730514518596,31.9029699033,34.810442177,2012
2012-11-15,2012-11-15,"קרומר נח 13, רחובות",קרומר נח 13,3655-358-2,קוטג' דו משפחתי,2.0,ראשונה,42.07,1320000,,,1950.0,,1.0,9435229860,1,3655358,False,,רחובות,קרומר נח,,3655-358-2,3655/358,31376.277632517234,31.8926459586,34.802428831,2012
2012-11-15,2012-11-15,"מבצע ליטני 5, רחובות",מבצע ליטני 5,3698-302-19,דירה בבית קומות,3.0,שניה,62.0,725000,,,1970.0,,4.0,9432087168,1,3698302,False,202% ב 4.3 שנים,רחובות,מבצע ליטני,46.98,3698-302-19,3698/302,11693.548387096776,31.8837801627,34.8230807758,2012
2012-11-15,2012-11-15,"אהרון שקולניק 7, רחובות",אהרון שקולניק 7,3704-653-11,דירה בבית קומות,4.5,שלישית,104.28,1020000,,,1980.0,,8.0,9433087272,1,3704653,False,,רחובות,שקולניק אהרן,,3704-653-11,3704/653,9781.357882623704,31.8951942405,34.8202953611,2012
2012-11-15,2012-11-15,"ש' בן-ציון 15, רחובות",ש' בן-ציון 15,3702-395-31,דירה בבית קומות,3.0,שישית,83.83,1100000,,,1996.0,,9.0,9431392824,1,3702395,False,35% ב 4 שנים,רחובות,ש בן ציון,8.75,3702-395-31,3702/395,13121.794107121555,31.8964829549,34.8030871073,2012
2012-11-15,2012-11-15,"ש' בן-ציון 15, רחובות",ש' בן-ציון 15,3702-395-7,דירה בבית קומות,3.0,שניה,83.83,1079000,,,1996.0,,9.0,9431493960,1,3702395,False,,רחובות,ש בן ציון,,3702-395-7,3702/395,12871.287128712873,31.8964829549,34.8030871073,2012
2012-11-14,2012-11-14,"עמ""י 16, רחובות","עמ""י 16",3698-390-20,דירה בבית קומות,3.0,חמישית,83.6,1201000,,,1995.0,,7.0,9431410800,1,3698390,False,42% ב 3.3 שנים,רחובות,"עמ""י",12.73,3698-390-20,3698/390,14366.028708133972,31.8869735344,34.8211444658,2012
2012-11-14,2012-11-14,"איזנברג 40, רחובות",איזנברג 40,3703-1007-3,דירה בבית קומות,3.0,ראשונה,72.0,1200000,,,1965.0,,3.0,9435084372,1,37031007,False,80% ב 5.3 שנים,רחובות,איזנברג,15.09,3703-1007-3,3703/1007,16666.666666666668,31.9013972436,34.8143567165,2012
2012-11-14,2012-11-14,"פרופ' יהודית בירק 1, רחובות",פרופ' יהודית בירק 1,3694-391-30,דירה בבית קומות,4.0,שלישית,103.0,1530000,,,2015.0,,7.0,9433308864,1,3694391,False,,רחובות,פרופ' בירק יהודית,,3694-391-30,3694/391,14854.368932038837,31.9013093461,34.820164307,2012
2012-11-13,2012-11-13,"יעקב 23, רחובות",יעקב 23,3703-1074-1,דירה בבית קומות,5.0,ראשונה,124.6,1440000,,,2010.0,,8.0,9431354604,1,37031074,False,,רחובות,יעקב,,3703-1074-1,3703/1074,11556.982343499198,31.8968880095,34.8144093032,2012
2012-11-13,2012-11-13,"הגפן 3, רחובות",הגפן 3,3648-111-2,קוטג' דו משפחתי,6.0,,145.0,2750000,,,1960.0,,,9431956128,1,3648111,False,,רחובות,הגפן,,3648-111-2,3648/111,18965.51724137931,31.9011401421,34.800231244,2012
2012-11-13,2012-11-13,"יבנה 66, רחובות",יבנה 66,3702-416-9,דירה בבית קומות,4.0,חמישית,107.3,1350000,,,2011.0,,6.0,9431469012,1,3702416,False,,רחובות,יבנה,,3702-416-9,3702/416,12581.547064305683,31.9024096026,34.807228666,2012
2012-11-13,2012-11-13,"יעקב 32, רחובות",יעקב 32,3704-717-70,דירה בבית קומות,4.0,שביעית,89.0,1380000,,,1998.0,,17.0,9431281860,1,3704717,False,59% ב 12.9 שנים,רחובות,יעקב,4.57,3704-717-70,3704/717,15505.61797752809,31.8958397711,34.8138432787,2012
2012-11-13,2012-11-13,"הר הצופים 19, רחובות",הר הצופים 19,5714-182-44,דירה בבית קומות,5.0,קומה ‎12‏,120.84,1540000,,,2013.0,,16.0,9431948484,1,5714182,False,,רחובות,הר הצופים,,5714-182-44,5714/182,12744.124462098642,31.8916167558,34.7808120754,2012
2012-11-13,2012-11-13,"פרופ' יהודית בירק 1, רחובות",פרופ' יהודית בירק 1,3694-391-1,דירה בבית קומות,5.0,שלישית,130.0,1676000,,,2015.0,,7.0,9433540200,1,3694391,False,,רחובות,פרופ' בירק יהודית,,3694-391-1,3694/391,12892.307692307691,31.9013093461,34.820164307,2012
2012-11-12,2012-12-11,"רופין 26, רחובות",רופין 26,3647-62-1,דירה בבית קומות,4.0,ראשונה,79.4,1230000,,,1965.0,,3.0,9434843124,1,364762,False,0% ב 0.7 שנים,רחובות,רופין,0.0,3647-62-1,3647/62,15491.183879093198,31.9033093575,34.8070314521,2012
2012-11-12,2012-12-11,"הר הצופים 27, רחובות",הר הצופים 27,5713-78-95,דירה בבית קומות,4.0,שניה,89.2,1225000,,,2004.0,,7.0,9434472432,1,571378,False,36% ב 4.4 שנים,רחובות,הר הצופים,8.18,5713-78-95,5713/78,13733.18385650224,31.8934243015,34.7814454584,2012
2012-11-11,2012-11-11,"כרמל 16, רחובות",כרמל 16,5908-76-127,דירה בבית קומות,4.0,ראשונה,80.0,1642000,,,2013.0,,22.0,9434863284,1,590876,False,,רחובות,כרמל,,5908-76-127,5908/76,20525.0,31.9064675792,34.8234770113,2012
2012-11-11,2012-11-11,"כרמל 6, רחובות",כרמל 6,5908-54-9,דירה בבית קומות,4.0,חמישית,101.9,1500000,,,2001.0,,6.0,9431051952,1,590854,False,101% ב 10.8 שנים,רחובות,כרמל,9.35,5908-54-9,5908/54,14720.314033366045,31.9058749344,34.8218428639,2012
2012-11-11,2012-11-11,"סמילנסקי 12, רחובות",סמילנסקי 12,3703-1395-2,דירה בבית קומות,4.0,ראשונה,119.99,1450000,,,2010.0,,7.0,9431043636,1,37031395,False,,רחובות,סמילנסקי,,3703-1395-2,3703/1395,12084.340361696808,31.8957758274,34.8080400455,2012
2012-11-11,2012-11-11,"האגוז 12, רחובות",האגוז 12,3700-404-16,דירה בבית קומות,4.0,רביעית,103.0,1055000,,,1995.0,,6.0,9431726808,1,3700404,False,,רחובות,האגוז,,3700-404-16,3700/404,10242.718446601944,31.8914367784,34.8281124606,2012
2012-11-11,2012-11-11,"שטינברג 5, רחובות",שטינברג 5,3705-551-8,דירה בבית קומות,3.0,רביעית,57.5,780000,,,1970.0,,4.0,9431329824,1,3705551,False,50% ב 3.5 שנים,רחובות,שטינברג,14.29,3705-551-8,3705/551,13565.217391304348,31.8918457453,34.8209041538,2012
2012-11-11,2012-11-11,"ביל""ו 25, רחובות","ביל""ו 25",3701-612-1,חנות,,ראשונה,350.0,4800000,,,1975.0,,1.0,9434751648,1,3701612,False,,רחובות,"ביל""ו",,3701-612-1,3701/612,13714.285714285714,31.8936573157,34.8089775088,2012
2012-11-11,2012-11-11,"הרב שאולי 3, רחובות",הרב שאולי 3,3697-427-108,דירה בבית קומות,5.0,קומה ‎5‏,122.6,1375000,,,2000.0,,10.0,9431762256,1,3697427,False,,רחובות,הרב שאולי,,3697-427-108,3697/427,11215.334420880914,31.881364708,34.8159423369,2012
2012-11-10,2012-10-11,"גורדון 2, רחובות",גורדון 2,3703-1394-44,דירה בבית קומות,4.0,עשירית,102.2,1465000,,,2012.0,,19.0,9429171024,1,37031394,False,,רחובות,גורדון,,3703-1394-44,3703/1394,14334.63796477495,31.9011251208,34.8099768873,2012
2012-11-10,2012-10-11,"בני משה 12, רחובות",בני משה 12,3704-158-3,דירה בבית קומות,3.0,ראשונה,72.53,920000,,,1970.0,,4.0,9428740020,1,3704158,False,8% ב 1.3 שנים,רחובות,בני משה,6.15,3704-158-3,3704/158,12684.406452502411,31.8915421864,34.8100856247,2012
2012-11-09,2012-09-11,"גורדון 2, רחובות",גורדון 2,3703-1394-32,דירה בבית קומות,4.0,שביעית,102.2,1405000,,,2012.0,,19.0,9427733196,1,37031394,False,,רחובות,גורדון,,3703-1394-32,3703/1394,13747.553816046966,31.9011251208,34.8099768873,2012
2012-11-09,2012-09-11,"מרדכי בשיסט 41, רחובות",מרדכי בשיסט 41,3696-127-24,דירה בבית קומות,2.5,,50.0,1145000,,,2000.0,,7.0,9427245156,1,3696127,False,,רחובות,בשיסט מרדכי,,3696-127-24,3696/127,22900.0,31.9084941864,34.79856581,2012
2012-11-09,2012-09-11,"הבריגדה 30, רחובות",הבריגדה 30,3700-171-1,קוטג' דו משפחתי,4.0,,118.0,1900000,,,1954.0,,,9427414164,1,3700171,False,,רחובות,הבריגדה,,3700-171-1,3700/171,16101.694915254237,31.8963258579,34.8217065682,2012
2012-11-09,2012-09-11,"ישראל נג'ארה 58, רחובות",ישראל נג'ארה 58,3698-103-1,דירה בבית קומות,4.0,,100.0,1050000,,,1970.0,,,9427980408,1,3698103,False,,רחובות,נג'ארה ישראל,,3698-103-1,3698/103,10500.0,31.8849787689,34.8237616358,2012
2012-11-09,2012-09-11,"יעבץ 21, רחובות",יעבץ 21,3703-447-17,דירה בבית קומות,4.0,שניה,83.16,1120000,,,1960.0,,4.0,9427863312,1,3703447,False,,רחובות,יעבץ,,3703-447-17,3703/447,13468.013468013469,31.8990556371,34.8121113252,2012
2012-11-09,2012-09-11,"כרמל 21, רחובות",כרמל 21,5908-73-22,דירה בבית קומות,3.0,שישית,81.87,1260000,,,2012.0,,18.0,9427914552,1,590873,False,,רחובות,כרמל,,5908-73-22,5908/73,15390.252839868082,31.9083495555,34.8224889862,2012
2012-11-08,2012-08-11,"הר הצופים 10, רחובות",הר הצופים 10,5713-7-1,קוטג' דו משפחתי,6.0,,231.0,2050000,,,2004.0,,,9425579100,1,57137,False,,רחובות,הר הצופים,,5713-7-1,5713/7,8874.458874458875,31.8959287393,34.7798880541,2012
2012-11-07,2012-07-11,"מוטה גור 13, רחובות",מוטה גור 13,3698-433-11,דירה בבית קומות,5.0,,120.0,1450000,,,2002.0,,3.0,9422292348,1,3698433,False,,רחובות,מוטה גור,,3698-433-11,3698/433,12083.333333333334,31.8864552991,34.8224246801,2012
2012-11-07,2012-07-11,"לדיזנסקי 9, רחובות",לדיזנסקי 9,3698-307-7,דירה בבית קומות,3.0,רביעית,61.0,530000,,,1970.0,,4.0,9421989444,1,3698307,False,,רחובות,לדיז'ינסקי,,3698-307-7,3698/307,8688.524590163934,31.8827612538,34.8217247964,2012
2012-11-07,2012-07-11,"חזון איש 6, רחובות",חזון איש 6,5478-26-67,דירה בבית קומות,5.0,תשיעית,121.71,1540000,,,2010.0,,9.0,9423234828,1,547826,False,,רחובות,חזון איש,,5478-26-67,5478/26,12653.027688768385,31.8817142284,34.7908107804,2012
2012-11-06,2012-06-11,"סירני 4, רחובות",סירני 4,3700-349-4,דירה בבית קומות,3.0,ראשונה,53.0,838000,,,1970.0,,4.0,9420031740,1,3700349,False,,רחובות,סירני,,3700-349-4,3700/349,15811.32075471698,31.893688915,34.8220393156,2012
2012-11-06,2012-06-11,"אהרון שקולניק 3, רחובות",אהרון שקולניק 3,3704-651-4,דירה בבית קומות,4.0,ראשונה,99.07,1075000,,,1970.0,,8.0,9420277608,1,3704651,False,88% ב 8.4 שנים,רחובות,שקולניק אהרן,10.48,3704-651-4,3704/651,10850.913495508228,31.8949501596,34.8191020754,2012
2012-11-06,2012-06-11,"איזנברג 12, רחובות",איזנברג 12,3703-125-10,דירה בבית קומות,3.5,שלישית,84.53,900000,,,1970.0,,6.0,9419898012,1,3703125,False,,רחובות,איזנברג,,3703-125-10,3703/125,10647.107535786112,31.9008579406,34.8116779366,2012
2012-11-05,2012-05-11,"ישראל אהרוני 27, רחובות",ישראל אהרוני 27,3703-1280-25,דירה בבית קומות,4.0,שלישית,127.25,1260000,,,2000.0,,,9419097492,1,37031280,False,85% ב 12 שנים,רחובות,אהרוני ישראל,7.08,3703-1280-25,3703/1280,9901.768172888016,31.9010986266,34.8147346987,2012
2012-11-05,2012-05-11,"כרמל 16, רחובות",כרמל 16,5908-76-134,דירה בבית קומות,5.0,ראשונה,145.0,1627000,,,2013.0,,22.0,9418817520,1,590876,False,,רחובות,כרמל,,5908-76-134,5908/76,11220.689655172411,31.9064675792,34.8234770113,2012
2012-11-03,2012-03-11,"כרמל 11, רחובות",כרמל 11,5908-69-31,דירה בבית קומות,4.0,שלוש עשרה,90.0,1400000,,,2011.0,,5.0,9413871684,1,590869,False,,רחובות,כרמל,,5908-69-31,5908/69,15555.555555555557,31.9067749724,34.8227554116,2012
2012-11-03,2012-03-11,"הר הצופים 5, רחובות",הר הצופים 5,5713-90-98,דירה בבית קומות,3.0,שניה,76.4,1090000,,,2000.0,,7.0,9413857236,1,571390,False,40% ב 3.8 שנים,רחובות,הר הצופים,10.53,5713-90-98,5713/90,14267.015706806282,31.8956955209,34.7806374346,2012
2012-11-03,2012-03-11,"הגלעד 1, רחובות",הגלעד 1,3658-77-6,קוטג' טורי,5.0,,145.0,1650000,,,1995.0,,1.0,9415398972,1,365877,False,,רחובות,הגלעד,,3658-77-6,3658/77,11379.310344827589,31.8828154922,34.8034976852,2012
2012-11-03,2012-03-11,"סעדיה גאון 43, רחובות",סעדיה גאון 43,3701-44-3,דירה,4.0,ראשונה,103.0,1150000,1.0,סעדיה גאון,2011.0,,5.0,11181226984,1,370144,False,,רחובות,סעדיה גאון,,3701-44-3,3701/44,11165.04854368932,,,2012
2012-11-02,2012-02-11,"כרמל 16, רחובות",כרמל 16,5908-76-76,דירה,4.0,שש עשרה,105.0,1575000,1.0,אחוזות הנשיא,2013.0,,22.0,11181258381,1,590876,False,,רחובות,כרמל,,5908-76-76,5908/76,15000.0,31.9064675792,34.8234770113,2012
2012-11-01,2012-01-11,"יחיאל פלדי 3, רחובות",יחיאל פלדי 3,3694-311-17,דירה בבית קומות,4.0,חמישית,87.72,1300000,,,1996.0,,9.0,9408979020,1,3694311,False,,רחובות,פלדי יחיאל,,3694-311-17,3694/311,14819.881440948471,31.8996376599,34.820639834,2012
2012-11-01,2012-01-11,"הר הצופים 25, רחובות",הר הצופים 25,5714-115-76,מחסנים,,קרקע,109.0,1542000,,,2010.0,,7.0,9412481400,1,5714115,True,-1% ב 1.2 שנים,רחובות,הר הצופים,-0.83,5714-115-76,5714/115,14146.788990825688,31.8925104256,34.7811506272,2012
2012-11-01,2012-01-11,"שבזי 29, רחובות",שבזי 29,3705-122-18,דירה בבית קומות,4.0,חמישית,105.0,1066000,,,2011.0,,6.0,9410308236,1,3705122,False,,רחובות,שבזי,,3705-122-18,3705/122,10152.380952380952,31.8898281629,34.8168165719,2012
2012-11-01,2012-01-11,"טובה וטוביה מילר 9, רחובות",טובה וטוביה מילר 9,3703-442-3,דירה בבית קומות,4.0,ראשונה,104.04,1085000,,,1980.0,,6.0,9409121148,1,3703442,False,77% ב 10 שנים,רחובות,מילר טובה וטוביה,7.7,3703-442-3,3703/442,10428.68127643214,31.9007876259,34.8168886769,2012
2012-10-31,2012-10-31,"יבנה 66, רחובות",יבנה 66,3702-416-8,דירה בבית קומות,4.0,רביעית,107.41,1250000,,,2011.0,,6.0,9431020032,1,3702416,False,,רחובות,יבנה,,3702-416-8,3702/416,11637.65012568662,31.9024096026,34.807228666,2012
2012-10-31,2012-10-31,"שבזי 29, רחובות",שבזי 29,3705-122-10,דירה,5.0,ראשונה,105.0,1240000,1.0,נווה תאיר,2011.0,,6.0,11181227708,1,3705122,False,,רחובות,שבזי,,3705-122-10,3705/122,11809.52380952381,31.8898281629,34.8168165719,2012
2012-10-31,2012-10-31,"חזון איש 4, רחובות",חזון איש 4,5478-26-28,דירה בבית קומות,5.0,שביעית,129.22,1395000,,,2012.0,,9.0,9431656164,1,547826,False,,רחובות,חזון איש,,5478-26-28,5478/26,10795.54248568333,31.8817142284,34.7908107804,2012
2012-10-31,2012-10-31,"לח""י 2, רחובות","לח""י 2",3698-439-21,דירה בבית קומות,3.5,שישית,84.35,1050000,,,2000.0,,7.0,9431883552,1,3698439,False,,רחובות,"לח""י",,3698-439-21,3698/439,12448.132780082988,31.8864307592,34.823517124,2012
2012-10-31,2012-10-31,"כובשי החרמון 8, רחובות",כובשי החרמון 8,3705-638-12,דירה בבית קומות,4.0,שלישית,92.3,1040000,,,1992.0,,6.0,9430074780,1,3705638,False,50% ב 7.5 שנים,רחובות,כובשי החרמון,6.67,3705-638-12,3705/638,11267.605633802816,31.8880429133,34.8187098667,2012
2012-10-31,2012-10-31,"הר הצופים 11, רחובות",הר הצופים 11,5714-108-19,דירה בבית קומות,5.0,חמישית,109.1,1556000,,,2010.0,,6.0,9431365692,1,5714108,False,,רחובות,הר הצופים,,5714-108-19,5714/108,14262.144821264896,31.8928235153,34.7797606994,2012
2012-10-31,2012-10-31,"גורדון 2, רחובות",גורדון 2,3703-1394-49,דירה בבית קומות,4.0,אחת עשרה,102.2,1480000,,,2012.0,,19.0,9432220980,1,37031394,False,,רחובות,גורדון,,3703-1394-49,3703/1394,14481.409001956948,31.9011251208,34.8099768873,2012
2012-10-31,2012-10-31,"מרדכי בשיסט 41, רחובות",מרדכי בשיסט 41,3696-127-120,דירה בבית קומות,3.0,שלישית,80.0,1080000,,,2000.0,,7.0,9431317980,1,3696127,False,,רחובות,בשיסט מרדכי,,3696-127-120,3696/127,13500.0,31.9084941864,34.79856581,2012
2012-10-30,2012-10-30,"גורדון 2, רחובות",גורדון 2,3703-1394-37,דירה בבית קומות,4.0,שמינית,102.2,1450000,,,2012.0,,19.0,9432219636,1,37031394,False,,רחובות,גורדון,,3703-1394-37,3703/1394,14187.866927592955,31.9011251208,34.8099768873,2012
2012-10-30,2012-10-30,"ז'בוטינסקי 14, רחובות",ז'בוטינסקי 14,3701-631-9,דירה בבית קומות,3.0,שלישית,57.75,850000,,,1970.0,,4.0,9430703940,1,3701631,False,90% ב 9.1 שנים,רחובות,ז'בוטינסקי,9.89,3701-631-9,3701/631,14718.61471861472,31.8920794039,34.8086112292,2012
2012-10-30,2012-10-30,"מקס ואמפרו שיין 3, רחובות",מקס ואמפרו שיין 3,3697-495-70,דירה בבית קומות,4.0,שישית,104.25,1385000,,,2013.0,,12.0,9431794680,1,3697495,False,,רחובות,מקס ואמפרו שיין,,3697-495-70,3697/495,13285.371702637887,31.880038574,34.806826046,2012
2012-10-30,2012-10-30,"חזון איש 6, רחובות",חזון איש 6,5478-26-89,דירה בבית קומות,4.0,שישית,111.9,1252000,,,2012.0,,9.0,9431657676,1,547826,False,,רחובות,חזון איש,,5478-26-89,5478/26,11188.561215370866,31.8817142284,34.7908107804,2012
2012-10-30,2012-10-30,"בוסתן 2, רחובות",בוסתן 2,3697-353-32,דירה בבית קומות,5.0,חמישית,101.76,1250000,,,1993.0,,6.0,9430319388,1,3697353,False,,רחובות,בוסתן,,3697-353-32,3697/353,12283.80503144654,31.8805443029,34.8134483659,2012
2012-10-29,2012-10-29,"לדיז'ינסקי 11, רחובות",לדיז'ינסקי 11,3698-306-23,דירה בבית קומות,3.0,רביעית,61.0,595000,,,1970.0,,4.0,9429855708,1,3698306,False,,רחובות,לדיז'ינסקי,,3698-306-23,3698/306,9754.098360655738,31.8829849578,34.8216618587,2012
2012-10-29,2012-10-29,"הרצל 188, רחובות",הרצל 188,3703-853-24,דירה בבית קומות,3.0,שניה,82.45,820000,,,1955.0,,3.0,9430387260,1,3703853,False,115% ב 8.6 שנים,רחובות,הרצל,13.37,3703-853-24,3703/853,9945.421467556094,31.8976392421,34.8111155453,2012
2012-10-29,2012-10-29,"חיים קאופמן 1, רחובות",חיים קאופמן 1,3698-469-14,דירה בבית קומות,5.0,חמישית,,1484000,,,2014.0,,5.0,9431339400,1,3698469,False,,רחובות,קאופמן חיים,,3698-469-14,3698/469,,31.8844476954,34.8193798611,2012
2012-10-29,2012-10-29,"ההגנה 22, רחובות",ההגנה 22,3705-515-15,דירה בבית קומות,3.0,רביעית,57.5,660000,,,1970.0,,4.0,9429855036,1,3705515,False,,רחובות,ההגנה,,3705-515-15,3705/515,11478.260869565218,31.8923354475,34.8211586495,2012
2012-10-29,2012-10-29,"כרמל 5, רחובות",כרמל 5,5908-74-31,דירה בבית קומות,4.0,רביעית,100.0,1400000,,,2014.0,,7.0,9429972132,1,590874,False,,רחובות,כרמל,,5908-74-31,5908/74,14000.0,31.9065765128,34.8216541098,2012
2012-10-29,2012-10-29,"משה פורר 10, רחובות",משה פורר 10,3699-249-15,דירה בבית קומות,4.0,רביעית,100.45,1137000,,,1996.0,,15.0,9430025556,1,3699249,False,,רחובות,פורר משה,,3699-249-15,3699/249,11319.064211050274,31.888461774,34.8308497869,2012
2012-10-28,2012-10-28,"ישראל אהרוני 11, רחובות",ישראל אהרוני 11,3703-824-10,דירה בבית קומות,4.0,שלישית,77.0,1100000,,,1970.0,,5.0,9429984648,1,3703824,False,61% ב 13 שנים,רחובות,אהרוני ישראל,4.69,3703-824-10,3703/824,14285.714285714286,31.9006246901,34.8126345099,2012
2012-10-28,2012-10-28,"יחיאל פלדי 1, רחובות",יחיאל פלדי 1,3694-312-10,דירה בבית קומות,4.0,שלישית,89.75,1370000,,,1996.0,,9.0,9431904300,1,3694312,False,72% ב 4.7 שנים,רחובות,פלדי יחיאל,15.32,3694-312-10,3694/312,15264.623955431754,31.8999217649,34.820336308,2012
2012-10-28,2012-10-28,"שטינברג 5, רחובות",שטינברג 5,3705-551-13,דירה בבית קומות,3.0,שלישית,57.5,83000,,,1970.0,,4.0,9429808668,1,3705551,False,,רחובות,שטינברג,,3705-551-13,3705/551,1443.4782608695652,31.8918457453,34.8209041538,2012
2012-10-28,2012-10-28,"כרמל 5, רחובות",כרמל 5,5908-74-32,דירה בבית קומות,3.0,תשיעית,85.0,1280000,,,2006.0,,7.0,9429760116,1,590874,False,,רחובות,כרמל,,5908-74-32,5908/74,15058.823529411764,31.9065765128,34.8216541098,2012
2012-10-28,2012-10-28,"כרמל 5, רחובות",כרמל 5,5908-74-4,דירה,4.0,רביעית,95.0,1400000,1.0,אחוזות הנשיא,,,7.0,11181258216,1,590874,False,,רחובות,כרמל,,5908-74-4,5908/74,14736.842105263158,31.9065765128,34.8216541098,2012
2012-10-28,2012-10-28,"החלוץ 12, רחובות",החלוץ 12,3703-818-4,דירה בבית קומות,3.0,שניה,73.87,900000,,,1997.0,,4.0,9429638820,1,3703818,False,,רחובות,החלוץ,,3703-818-4,3703/818,12183.56572356843,31.8978110678,34.8136181326,2012
2012-10-28,2012-10-28,"מוסקוביץ 9, רחובות",מוסקוביץ 9,3703-382-16,דירה בבית קומות,6.0,רביעית + גג,133.48,2100000,,,1973.0,,4.0,9432229884,1,3703382,False,145% ב 13.7 שנים,רחובות,מוסקוביץ,10.58,3703-382-16,3703/382,15732.694036559786,31.8979932256,34.8080706287,2012
2012-10-28,2012-10-28,"מוסקוביץ 29, רחובות",מוסקוביץ 29,3702-71-1,דירה בבית קומות,4.0,קרקע,75.0,1200000,,,1973.0,,4.0,9429762720,1,370271,False,80% ב 9.8 שנים,רחובות,מוסקוביץ,8.16,3702-71-1,3702/71,16000.0,31.8996415462,34.8065671038,2012
2012-10-26,2012-10-26,"גורודיסקי 3, רחובות",גורודיסקי 3,3703-762-8,דירה בבית קומות,3.5,שניה,79.0,930000,,,1970.0,,3.0,9429551460,1,3703762,False,,רחובות,גורודיסקי,,3703-762-8,3703/762,11772.151898734175,31.8972759739,34.8174397489,2012
2012-10-26,2012-10-26,"מקס ואמפרו שיין 3, רחובות",מקס ואמפרו שיין 3,3697-495-71,דירה בבית קומות,4.0,שישית,104.25,1380000,,,2013.0,,12.0,9430280496,1,3697495,False,,רחובות,מקס ואמפרו שיין,,3697-495-71,3697/495,13237.410071942446,31.880038574,34.806826046,2012
2012-10-26,2012-10-26,"דוד אלעזר 3, רחובות",דוד אלעזר 3,3779-137-2,דירה בבית קומות,4.0,ראשונה,79.2,740000,,,1970.0,,4.0,9429634620,1,3779137,False,,רחובות,דוד אלעזר,,3779-137-2,3779/137,9343.434343434345,31.8926183122,34.774925149,2012
2012-10-25,2012-10-25,"ההסתדרות 1, רחובות",ההסתדרות 1,3698-246-4,דירה בבית קומות,4.0,שניה,75.0,800000,,,1960.0,,2.0,9430017912,1,3698246,False,,רחובות,ההסתדרות,,3698-246-4,3698/246,10666.666666666666,31.8799761004,34.8193205694,2012
2012-10-25,2012-10-25,"גוש עציון 21, רחובות",גוש עציון 21,3700-366-12,דירה בבית קומות,2.0,שלישית,46.1,624000,,,1960.0,,3.0,9429576408,1,3700366,False,93% ב 11.3 שנים,רחובות,גוש עציון,8.23,3700-366-12,3700/366,13535.79175704989,31.8923611903,34.8259967683,2012
2012-10-25,2012-10-25,"ברנר 19, רחובות",ברנר 19,3701-850-2,דירה בבית קומות,4.0,ראשונה,103.97,1280000,,,2011.0,,6.0,9429966672,1,3701850,False,,רחובות,ברנר,,3701-850-2,3701/850,12311.243627969608,31.8905055351,34.808205487,2012
2012-10-25,2012-10-25,"מרדכי בשיסט 41, רחובות",מרדכי בשיסט 41,3696-127-121,דירה בבית קומות,2.0,שישית,50.0,1072000,,,2000.0,,7.0,9429620004,1,3696127,False,,רחובות,בשיסט מרדכי,,3696-127-121,3696/127,21440.0,31.9084941864,34.79856581,2012
2012-10-24,2012-10-24,"בני משה 24, רחובות",בני משה 24,3704-164-10,דירה בבית קומות,4.0,שלישית,79.45,1020000,,,1972.0,,4.0,9431762928,1,3704164,False,106% ב 11.6 שנים,רחובות,בני משה,9.14,3704-164-10,3704/164,12838.263058527376,31.8922658805,34.8113357871,2012
2012-10-24,2012-10-24,"כרמל 21, רחובות",כרמל 21,5908-73-44,דירה בבית קומות,4.0,שתים עשרה,101.68,1430000,,,2012.0,,18.0,9429577080,1,590873,False,,רחובות,כרמל,,5908-73-44,5908/73,14063.729346970887,31.9083495555,34.8224889862,2012
2012-10-24,2012-10-24,"הרשזון 48, רחובות",הרשזון 48,3701-585-3,דירה בבית קומות,5.0,שניה,102.24,1130000,,,1999.0,,4.0,9429544488,1,3701585,False,,רחובות,הרשנזון,,3701-585-3,3701/585,11052.425665101722,31.8891574253,34.8093998926,2012
2012-10-24,2012-10-24,"חזון איש 6, רחובות",חזון איש 6,5478-26-69,דירה בבית קומות,4.0,ראשונה,119.94,1252000,,,2012.0,,9.0,9430787772,1,547826,False,,רחובות,חזון איש,,5478-26-69,5478/26,10438.552609638153,31.8817142284,34.7908107804,2012
2012-10-24,2012-10-24,"חווה לוצקי 10, רחובות",חווה לוצקי 10,3703-1046-14,דירה בבית קומות,3.0,שלישית,63.0,960000,,,1970.0,,7.0,9430905036,1,37031046,False,,רחובות,לוצקי חוה,,3703-1046-14,3703/1046,15238.09523809524,31.8970783759,34.8141187766,2012
2012-10-24,2012-10-24,"הר הצופים 68, רחובות",הר הצופים 68,5714-127-32,דירה בבית קומות,4.0,ראשונה,120.0,1225533,1.0,רחובות ההולנדית-הקשת,2014.0,,7.0,9429956172,1,5714127,False,,רחובות,הר הצופים,,5714-127-32,5714/127,10212.775,31.8915957562,34.7818388808,2012
2012-10-22,2012-10-22,"חיים לסקוב 5, רחובות",חיים לסקוב 5,3699-291-13,דירה בבית קומות,3.0,שלישית,66.5,1050000,,,1996.0,,4.0,9430958964,1,3699291,False,,רחובות,לסקוב חיים,,3699-291-13,3699/291,15789.473684210529,31.8877770339,34.8297025101,2012
2012-10-22,2012-10-22,"חכם עפג'ין אברהם 13, רחובות",חכם עפג'ין אברהם 13,3699-335-29,דירה בבית קומות,4.0,שמינית,82.8,1200000,,,1998.0,,9.0,9429330540,1,3699335,False,108% ב 14.5 שנים,רחובות,חכם עפג'ין אברהם,7.45,3699-335-29,3699/335,14492.753623188406,31.8882395848,34.8242293529,2012
2012-10-22,2012-10-22,"ארלוזורוב 36, רחובות",ארלוזורוב 36,3701-888-6,דירה בבית קומות,4.0,שניה,97.35,1250000,,,2012.0,,5.0,9430500996,1,3701888,False,,רחובות,ארלוזורוב,,3701-888-6,3701/888,12840.267077555214,31.8871433245,34.8085542468,2012
2012-10-21,2012-10-21,"מקס ואמפרו שיין 13, רחובות",מקס ואמפרו שיין 13,3697-502-48,דירה בבית קומות,6.0,"שתים עשרה, שלוש עשרה",142.4,2190000,,,2007.0,,12.0,9429985320,1,3697502,False,27% ב 4 שנים,רחובות,מקס ואמפרו שיין,6.75,3697-502-48,3697/502,15379.213483146066,31.8795725483,34.8094268044,2012
2012-10-21,2012-10-21,"גורדון 2, רחובות",גורדון 2,3703-1394-73,דירה בבית קומות,3.0,חמש עשרה,74.65,1295000,,,2012.0,,19.0,9429484260,1,37031394,False,,רחובות,גורדון,,3703-1394-73,3703/1394,17347.622237106494,31.9011251208,34.8099768873,2012
2012-10-21,2012-10-21,"טובה וטוביה מילר 19, רחובות",טובה וטוביה מילר 19,3703-707-26,דירה בבית קומות,4.0,ראשונה,107.0,1050000,,,1978.0,,3.0,9429378924,1,3703707,False,,רחובות,מילר טובה וטוביה,,3703-707-26,3703/707,9813.084112149532,,,2012
2012-10-21,2012-10-21,"הנשיא הראשון 38, רחובות",הנשיא הראשון 38,3703-1258-17,דירה בבית קומות,4.5,חמישית,104.6,1300000,,,1980.0,,8.0,9429146916,1,37031258,False,64% ב 10.6 שנים,רחובות,הנשיא הראשון,6.04,3703-1258-17,3703/1258,12428.2982791587,31.9037442937,34.8133404229,2012
2012-10-19,2012-10-19,"הרצל 185, רחובות",הרצל 185,3703-1049-12,חנות,,קרקע,40.0,325000,,,1960.0,,5.0,9431659608,1,37031049,False,155% ב 3.8 שנים,רחובות,הרצל,40.79,3703-1049-12,3703/1049,8125.0,31.8996064028,34.8095184613,2012
2012-10-18,2012-10-18,"הס 6, רחובות",הס 6,3648-238-7,דירה בבית קומות,3.0,ראשונה,60.0,915000,,,1961.0,,2.0,9429234192,1,3648238,False,,רחובות,הס,,3648-238-7,3648/238,15250.0,31.9014375643,34.8029108883,2012
2012-10-17,2012-10-17,"יעקב 23, רחובות",יעקב 23,3703-1074-7,דירה בבית קומות,5.0,רביעית,125.73,1550000,,,2010.0,,8.0,9429140532,1,37031074,False,,רחובות,יעקב,,3703-1074-7,3703/1074,12328.004453988706,31.8968880095,34.8144093032,2012
2012-10-17,2012-10-17,"מנוחה ונחלה 37, רחובות",מנוחה ונחלה 37,3703-1157-5,דירה בבית קומות,4.0,קרקע,87.95,1140000,,,1980.0,,7.0,9429144732,1,37031157,False,,רחובות,מנוחה ונחלה,,3703-1157-5,3703/1157,12961.910176236495,31.8981273189,34.8160556235,2012
2012-10-16,2012-10-16,"הרא""ה 25, רחובות","הרא""ה 25",3704-264-8,דירה בבית קומות,3.0,שניה,67.1,900000,,,1970.0,,4.0,9428974212,1,3704264,False,,רחובות,"הרא""ה",,3704-264-8,3704/264,13412.816691505215,31.8944372649,34.8161763369,2012
2012-10-16,2012-10-16,"משה פורר 6, רחובות",משה פורר 6,3699-288-8,דירה בבית קומות,3.0,שניה,72.1,1050000,,,1998.0,,7.0,9430718556,1,3699288,False,,רחובות,פורר משה,,3699-288-8,3699/288,14563.106796116506,31.8881235499,34.8296305692,2012
2012-10-16,2012-10-16,"גורדון 2, רחובות",גורדון 2,3703-1394-22,דירה בבית קומות,4.0,חמישית,102.2,1422000,,,2012.0,,19.0,9429027636,1,37031394,False,,רחובות,גורדון,,3703-1394-22,3703/1394,13913.894324853229,31.9011251208,34.8099768873,2012
2012-10-15,2012-10-15,"כרמל 21, רחובות",כרמל 21,5908-73-42,דירה בבית קומות,3.0,אחת עשרה,81.87,1260000,,,2012.0,,18.0,9428915328,1,590873,False,,רחובות,כרמל,,5908-73-42,5908/73,15390.252839868082,31.9083495555,34.8224889862,2012
2012-10-15,2012-10-15,"הקבוצים 12, רחובות",הקבוצים 12,3698-310-16,דירה בבית קומות,3.0,רביעית,49.0,595000,,,1970.0,,4.0,9429267288,1,3698310,False,85% ב 4.1 שנים,רחובות,הקבוצים,20.73,3698-310-16,3698/310,12142.857142857143,31.8836253983,34.822228206,2012
2012-10-15,2012-10-15,"אליעזר בן יהודה 24, רחובות",אליעזר בן יהודה 24,3703-598-13,דירה בבית קומות,4.0,שניה,88.9,1300000,,,1960.0,,3.0,9429262500,1,3703598,False,,רחובות,בן יהודה אליעזר,,3703-598-13,3703/598,14623.172103487062,31.9025081136,34.8120185215,2012
2012-10-14,2012-10-14,"האחים טרבס 13, רחובות",האחים טרבס 13,3701-770-7,דירה בבית קומות,3.0,ראשונה,66.36,1000000,,,1960.0,,3.0,9434917380,1,3701770,False,199% ב 5.8 שנים,רחובות,האחים טרבס,34.31,3701-770-7,3701/770,15069.318866787222,31.8908366079,34.8069557847,2012
2012-10-12,2012-12-10,"דב הוז 30, רחובות",דב הוז 30,3698-314-4,דירה בבית קומות,3.0,שניה,61.0,650000,,,1970.0,,4.0,9435150228,1,3698314,False,,רחובות,הוז דב,,3698-314-4,3698/314,10655.737704918032,31.8836180462,34.8210627142,2012
2012-10-12,2012-12-10,"כרמל 16, רחובות",כרמל 16,5908-76-87,דירה בבית קומות,4.0,עשרים,104.0,1604000,,,2013.0,,22.0,9493676136,1,590876,False,,רחובות,כרמל,,5908-76-87,5908/76,15423.076923076924,31.9064675792,34.8234770113,2012
2012-10-12,2012-12-10,"אברהם ישראל פשרני 2, רחובות",אברהם ישראל פשרני 2,3699-396-19,דירה בבית קומות,3.5,חמישית,79.0,1135000,,,1997.0,,8.0,9433776660,1,3699396,False,,רחובות,פרשני אברהם,,3699-396-19,3699/396,14367.088607594937,31.8866460714,34.8254491797,2012
2012-10-12,2012-12-10,"הרב שאול בר 8, רחובות",הרב שאול בר 8,3703-1143-12,דירה בבית קומות,4.5,שלישית,91.44,1170000,,,1975.0,,7.0,9433839072,1,37031143,False,88% ב 5.5 שנים,רחובות,הרב בר שאול,16.0,3703-1143-12,3703/1143,12795.275590551182,31.8979485073,34.8143692125,2012
2012-10-12,2012-12-10,"יבנה 17, רחובות",יבנה 17,3648-218-5,דירה בבית קומות,3.0,שניה,58.68,840000,,,1970.0,,4.0,9434279232,1,3648218,False,,רחובות,יבנה,,3648-218-5,3648/218,14314.928425357872,31.8987717729,34.8016785183,2012
2012-10-12,2012-12-10,"הר הצופים 29, רחובות",הר הצופים 29,5713-86-40,דירה בבית קומות,4.0,שניה,89.1,1270000,,,2003.0,,7.0,9434474364,1,571386,False,110% ב 11 שנים,רחובות,הר הצופים,10.0,5713-86-40,5713/86,14253.647586980922,31.8945212177,34.7817849526,2012
2012-10-12,2012-12-10,"ויצמן 11, רחובות",ויצמן 11,3703-1247-9,דירה בבית קומות,4.0,שלישית,120.36,1300000,,,1990.0,,5.0,9434723928,1,37031247,False,,רחובות,ויצמן,,3703-1247-9,3703/1247,10800.930541708209,31.8996498973,34.8117771744,2012
2012-10-11,2012-11-10,"כרמל 16, רחובות",כרמל 16,5908-76-85,דירה,4.0,עשרים,110.0,1615000,1.0,אחוזות הנשיא,2013.0,,22.0,11181258391,1,590876,False,,רחובות,כרמל,,5908-76-85,5908/76,14681.818181818182,31.9064675792,34.8234770113,2012
2012-10-10,2012-10-10,"מקס ואמפרו שיין 9, רחובות",מקס ואמפרו שיין 9,3697-499-76,דירה בבית קומות,5.0,רביעית,116.9,1430000,,,2007.0,,15.0,9429107268,1,3697499,False,,רחובות,מקס ואמפרו שיין,,3697-499-76,3697/499,12232.67750213858,31.8796002841,34.8079881267,2012
2012-10-10,2012-10-10,"גיבורי ישראל 3, רחובות",גיבורי ישראל 3,3701-891-4,דירה בבית קומות,5.0,שניה,135.16,1450000,,,2013.0,,6.0,9516419136,1,3701891,False,,רחובות,גבורי ישראל,,3701-891-4,3701/891,10728.02604320805,31.8920257164,34.8074247103,2012
2012-10-09,2012-09-10,"התחיה 2, רחובות",התחיה 2,3705-565-12,דירה בבית קומות,4.0,שניה,79.5,930000,,,1980.0,,4.0,9426963000,1,3705565,False,,רחובות,התחיה,,3705-565-12,3705/565,11698.11320754717,31.8906114378,34.8197458684,2012
2012-10-09,2012-09-10,"הר הצופים 3, רחובות",הר הצופים 3,5713-92-115,דירה בבית קומות,4.0,ארבע עשרה,96.0,1250000,,,2000.0,,16.0,9426910332,1,571392,False,,רחובות,הר הצופים,,5713-92-115,5713/92,13020.833333333334,31.8965230096,34.7807444395,2012
2012-10-09,2012-09-10,"שמחה הולצברג 3, רחובות",שמחה הולצברג 3,3697-549-20,דירה בבית קומות,3.0,,103.0,1215000,,,2004.0,,9.0,9427245828,1,3697549,False,,רחובות,הולצברג שמחה,,3697-549-20,3697/549,11796.116504854368,31.8794887592,34.8146980583,2012
2012-10-08,2012-08-10,"מרטון 5, רחובות",מרטון 5,3703-782-2,דירה בבית קומות,3.0,ראשונה,78.68,1070000,,,1973.0,,5.0,9425580444,1,3703782,False,83% ב 14.5 שנים,רחובות,מרטון,5.72,3703-782-2,3703/782,13599.389933909506,31.9007169748,34.8108582974,2012
2012-10-08,2012-08-10,"העלייה 1, רחובות",העלייה 1,3659-17-11,דירה בבית קומות,3.0,שלישית,62.0,550000,,,1970.0,,4.0,9424367988,1,365917,False,116% ב 11 שנים,רחובות,העליה,10.55,3659-17-11,3659/17,8870.967741935483,31.8819270176,34.8038688092,2012
2012-10-08,2012-08-10,"כרמל 16, רחובות",כרמל 16,5908-76-130,דירה בבית קומות,4.0,,100.0,1546000,,,2013.0,,22.0,9426673368,1,590876,False,,רחובות,כרמל,,5908-76-130,5908/76,15460.0,31.9064675792,34.8234770113,2012
2012-10-08,2012-08-10,"הר הצופים 29, רחובות",הר הצופים 29,5713-86-93,דירת גן,4.0,קרקע,89.8,1518000,,,2003.0,,7.0,9427662972,1,571386,False,92% ב 4.5 שנים,רחובות,הר הצופים,20.44,5713-86-93,5713/86,16904.23162583519,31.8945212177,34.7817849526,2012
2012-10-07,2012-07-10,"כרמל 21, רחובות",כרמל 21,5908-73-23,דירה בבית קומות,5.0,שביעית,118.73,1650000,,,2012.0,,18.0,9422143248,1,590873,False,,רחובות,כרמל,,5908-73-23,5908/73,13897.077402509896,31.9083495555,34.8224889862,2012
2012-10-07,2012-07-10,"אמרי חיים 6, רחובות",אמרי חיים 6,3704-744-1,דירה בבית קומות,5.0,שמינית,122.0,1637000,,,2012.0,,,9423312360,1,3704744,False,,רחובות,אמרי חיים,,3704-744-1,3704/744,13418.032786885246,31.8945147295,34.8212155718,2012
2012-10-07,2012-07-10,"הגר""א 14, רחובות","הגר""א 14",3694-341-5,דירה בבית קומות,5.0,שלישית ורביעית,106.95,1370000,,,1991.0,,3.0,9422665224,1,3694341,False,,רחובות,"הגר""א",,3694-341-5,3694/341,12809.724170172978,31.9024875765,34.8169351682,2012
2012-10-07,2012-07-10,"עזרא 15, רחובות",עזרא 15,3704-443-1,דירה בבית קומות,4.0,ראשונה,85.16,1195000,,,1990.0,,5.0,9421903596,1,3704443,False,8% ב 0.3 שנים,רחובות,עזרא,26.67,3704-443-1,3704/443,14032.409581963364,31.8918123018,34.8142301776,2012
2012-10-07,2012-07-10,"גבריאלוב 25, רחובות",גבריאלוב 25,3653-190-5,דירה בבית קומות,3.0,שניה,63.0,475000,,,1970.0,,4.0,9421902084,1,3653190,False,,רחובות,גבריאלוב,,3653-190-5,3653/190,7539.68253968254,31.8862173183,34.7861826216,2012
2012-10-06,2012-06-10,"הרב שיבר 12, רחובות",הרב שיבר 12,3700-370-1,קוטג' דו משפחתי,5.0,קרקע+ראשונה,153.11,2308000,,,1800.0,,,9419912628,1,3700370,False,,רחובות,הרב שיבר,,3700-370-1,3700/370,15074.129710665531,31.8918404739,34.8236237293,2012
2012-10-05,2012-05-10,"כרמל 1, רחובות",כרמל 1,5908-65-187,דירה בבית קומות,3.0,אחת עשרה,73.1,1250000,,,2001.0,,27.0,9418011540,1,590865,False,73% ב 10.1 שנים,רחובות,כרמל,7.23,5908-65-187,5908/65,17099.86320109439,31.9062852036,34.8209528234,2012
2012-10-05,2012-05-10,"הרצל 144, רחובות",הרצל 144,3704-746-2,דירה בבית קומות,4.0,קומה ‎0‏,100.0,1300000,,,2010.0,,9.0,9420031068,1,3704746,True,-26% ב 0.4 שנים,רחובות,הרצל,-65.0,3704-746-2,3704/746,13000.0,31.8922320964,34.8127053712,2012
2012-10-04,2012-04-10,"יהודה הלוי 26, רחובות",יהודה הלוי 26,3697-43-9,דירה בבית קומות,4.0,שניה,110.0,1070000,,,1965.0,2014.0,1.0,9417302748,1,369743,False,,רחובות,יהודה הלוי,,3697-43-9,3697/43,9727.272727272728,31.8856086545,34.8133069187,2012
2012-10-03,2012-03-10,"כרמל 11, רחובות",כרמל 11,5908-69-2,דירה,4.0,ארבע עשרה,75.0,1400000,1.0,אחוזות הנשיא,,,5.0,11181258181,1,590869,False,,רחובות,כרמל,,5908-69-2,5908/69,18666.666666666668,31.9067749724,34.8227554116,2012
2012-10-02,2012-02-10,"הנוטר 12, רחובות",הנוטר 12,3700-60-5,דירה בבית קומות,3.0,ראשונה,71.45,800000,,,1970.0,,3.0,9411744132,1,370060,False,,רחובות,הנוטר,,3700-60-5,3700/60,11196.64100769769,31.8943532457,34.8229885685,2012
2012-10-02,2012-02-10,"איזנברג 4, רחובות",איזנברג 4,3703-1065-9,דירה בבית קומות,5.0,שניה,90.24,1300000,,,1960.0,,5.0,9412655364,1,37031065,False,81% ב 7.8 שנים,רחובות,איזנברג,10.38,3703-1065-9,3703/1065,14406.028368794328,31.9006448145,34.8105908046,2012
2012-10-02,2012-02-10,"בן-גוריון 40, רחובות",בן-גוריון 40,3779-131-23,דירה בבית קומות,4.0,רביעית,71.9,530000,,,1970.0,,4.0,9413940396,1,3779131,False,101% ב 4.2 שנים,רחובות,בן גוריון,24.05,3779-131-23,3779/131,7371.34909596662,31.8945754951,34.774947843,2012
2012-10-01,2012-01-10,"שבזי 29, רחובות",שבזי 29,3705-122-7,דירה,4.0,חמישית,105.0,1066000,1.0,נווה תאיר,2011.0,,6.0,11181227714,1,3705122,False,,רחובות,שבזי,,3705-122-7,3705/122,10152.380952380952,31.8898281629,34.8168165719,2012
2012-10-01,2012-01-10,"נחום קסלמן 7, רחובות",נחום קסלמן 7,3699-231-6,דירה בבית קומות,4.0,שניה,91.58,1160000,,,1997.0,,4.0,9409495284,1,3699231,False,,רחובות,קסלמן נחום,,3699-231-6,3699/231,12666.521074470407,31.888878735,34.8273855378,2012
2012-10-01,2012-01-10,"העלייה 11, רחובות",העלייה 11,3659-37-5,דירה בבית קומות,3.0,ראשונה,67.5,650000,,,1970.0,,4.0,9411134880,1,365937,False,82% ב 12.8 שנים,רחובות,העליה,6.41,3659-37-5,3659/37,9629.62962962963,31.8832477973,34.8044224255,2012
2012-09-30,2012-09-30,"הרב מדר זכריה 40, רחובות",הרב מדר זכריה 40,3705-353-4,דירה בבית קומות,4.0,שניה,94.91,950000,,,1990.0,,3.0,9429341460,1,3705353,False,,רחובות,הרב מדר זכריה,,3705-353-4,3705/353,10009.482667790538,31.8914251473,34.8186623017,2012
2012-09-30,2012-09-30,"כובשי החרמון 13, רחובות",כובשי החרמון 13,3705-483-14,דירה בבית קומות,5.0,רביעית,100.7,1200000,,,2006.0,,4.0,9428694912,1,3705483,False,,רחובות,כובשי החרמון,,3705-483-14,3705/483,11916.583912611715,31.8883644047,34.8175580654,2012
2012-09-28,2012-09-28,"יונתן נתניהו 41, רחובות",יונתן נתניהו 41,3779-128-12,דירה בבית קומות,2.0,שניה,43.8,480000,,,1970.0,,4.0,9427970832,1,3779128,False,,רחובות,יונתן נתניהו,,3779-128-12,3779/128,10958.904109589042,31.8955090584,34.775308062,2012
2012-09-28,2012-09-28,"קלמן ביאלר 17, רחובות",קלמן ביאלר 17,3697-437-14,דירה בבית קומות,4.0,שניה,104.45,1300000,,,2004.0,,3.0,9428340096,1,3697437,False,49% ב 4.9 שנים,רחובות,ביאלר קלמן,10.0,3697-437-14,3697/437,12446.14648157013,31.8808979528,34.816939817,2012
2012-09-28,2012-09-28,"ההגנה 9, רחובות",ההגנה 9,3704-417-3,דירה בבית קומות,5.0,שניה,109.2,1210000,,,1997.0,,4.0,9428130768,1,3704417,False,,רחובות,ההגנה,,3704-417-3,3704/417,11080.58608058608,31.8929153342,34.8193392494,2012
2012-09-28,2012-09-28,"גורדון 2, רחובות",גורדון 2,3703-1394-58,דירה בבית קומות,3.0,שתים עשרה,74.65,1255000,,,2012.0,,19.0,9429568092,1,37031394,False,,רחובות,גורדון,,3703-1394-58,3703/1394,16811.78834561286,31.9011251208,34.8099768873,2012
2012-09-27,2012-09-27,"משה מזרחי 15, רחובות",משה מזרחי 15,3697-123-5,דירה בבית קומות,4.0,שלישית,91.07,1280000,,,2012.0,,5.0,9430430856,1,3697123,False,42% ב 0.7 שנים,רחובות,מזרחי משה,60.0,3697-123-5,3697/123,14055.122433293072,31.8838156552,34.8139624765,2012
2012-09-27,2012-09-27,"הרב דוד נדב 9, רחובות",הרב דוד נדב 9,3653-193-23,דירה בבית קומות,3.0,רביעית,63.8,425000,,,1970.0,,4.0,9428600664,1,3653193,False,,רחובות,הרב נדב דוד,,3653-193-23,3653/193,6661.442006269593,31.8855371605,34.78559329,2012
2012-09-27,2012-09-27,"אברהם בשארי 25, רחובות",אברהם בשארי 25,3701-798-11,דירה בבית קומות,3.0,שלישית,70.05,650000,,,1980.0,,3.0,9428146812,1,3701798,False,,רחובות,בשארי אברהם,,3701-798-11,3701/798,9279.0863668808,31.8866836232,34.8106018637,2012
2012-09-27,2012-09-27,"לח""י 10, רחובות","לח""י 10",3698-384-27,דירה בבית קומות,4.0,שביעית,84.3,1100000,,,2001.0,,9.0,9428366472,1,3698384,False,62% ב 5.3 שנים,רחובות,"לח""י",11.7,3698-384-27,3698/384,13048.635824436536,31.8877988731,34.8230600107,2012
2012-09-25,2012-09-25,"גורדון 12, רחובות",גורדון 12,3703-988-8,דירה בבית קומות,3.5,שניה,78.15,1175000,,,1970.0,,5.0,9428069952,1,3703988,False,38% ב 2.8 שנים,רחובות,גורדון,13.57,3703-988-8,3703/988,15035.188739603323,31.9015532086,34.8113021979,2012
2012-09-24,2012-09-24,"הכרם 10, רחובות",הכרם 10,3702-122-1,דירה בבית קומות,2.0,קרקע,51.3,890000,,,1960.0,,3.0,9427699092,1,3702122,False,,רחובות,הכרם,,3702-122-1,3702/122,17348.927875243666,31.8993178688,34.8053387056,2012
2012-09-24,2012-09-24,"גיבורי ישראל 3, רחובות",גיבורי ישראל 3,3701-891-9,דירה בבית קומות,5.0,חמישית,137.07,1500000,,,2013.0,,6.0,9429281316,1,3701891,False,,רחובות,גבורי ישראל,,3701-891-9,3701/891,10943.31363536879,31.8920257164,34.8074247103,2012
2012-09-24,2012-09-24,"חזון איש 6, רחובות",חזון איש 6,5478-26-82,דירה בבית קומות,4.0,רביעית,117.72,1232000,,,2012.0,,9.0,9429523068,1,547826,False,,רחובות,חזון איש,,5478-26-82,5478/26,10465.511382942575,31.8817142284,34.7908107804,2012
2012-09-24,2012-09-24,"יבנה 42, רחובות",יבנה 42,3702-129-12,דירה בבית קומות,4.0,רביעית,91.4,935000,,,1970.0,2012.0,5.0,9427895904,1,3702129,False,20% ב 0.2 שנים,רחובות,יבנה,100.0,3702-129-12,3702/129,10229.75929978118,31.9006755895,34.8050124743,2012
2012-09-23,2012-09-23,"בר-אילן 18, רחובות",בר-אילן 18,3700-235-4,קוטג' טורי,2.0,-,29.24,1100000,,,1960.0,,1.0,9429139188,1,3700235,False,0% ב 0.8 שנים,רחובות,בר אילן,0.0,3700-235-4,3700/235,37619.69904240767,31.893151978,34.8271431559,2012
2012-09-23,2012-09-23,"טלר 18, רחובות",טלר 18,3703-281-6,דירה בבית קומות,3.0,שניה,63.58,925000,,,1969.0,,4.0,9428320776,1,3703281,False,84% ב 10.4 שנים,רחובות,טלר,8.08,3703-281-6,3703/281,14548.600188738596,31.8949804189,34.8094136679,2012
2012-09-23,2012-09-23,"ההסתדרות 20, רחובות",ההסתדרות 20,3698-175-1,דירה בבית קומות,2.0,ראשונה,37.0,820000,,,1960.0,,2.0,9427836264,1,3698175,False,70% ב 4 שנים,רחובות,ההסתדרות,17.5,3698-175-1,3698/175,22162.162162162163,31.8805095043,34.8220805985,2012
2012-09-23,2012-09-23,"מנדלי מוכר ספרים 8, רחובות",מנדלי מוכר ספרים 8,3704-454-4,דירה בבית קומות,3.0,ראשונה,63.5,820000,,,1975.0,,4.0,9428830824,1,3704454,False,,רחובות,מנדלי מוכר ספרים,,3704-454-4,3704/454,12913.385826771651,31.8922554174,34.8144942496,2012
2012-09-23,2012-09-23,"הרצל 126, רחובות",הרצל 126,3705-71-3,חנות,,קרקע,31.44,430000,,,1950.0,,1.0,9427885488,1,370571,False,,רחובות,הרצל,,3705-71-3,3705/71,13676.844783715012,31.8904157855,34.8133325636,2012
2012-09-22,2012-09-22,"מנוחה ונחלה 6, רחובות",מנוחה ונחלה 6,3704-631-4,דירה בבית קומות,3.0,ראשונה,66.0,870000,,,1970.0,,5.0,9427756548,1,3704631,False,89% ב 9.2 שנים,רחובות,מנוחה ונחלה,9.67,3704-631-4,3704/631,13181.818181818182,31.8930799108,34.8186037503,2012
2012-09-21,2012-09-21,"ההגנה 58, רחובות",ההגנה 58,3700-360-14,דירה בבית קומות,2.5,ראשונה,44.7,725000,,,1970.0,,3.0,9428059452,1,3700360,False,22% ב 2 שנים,רחובות,ההגנה,11.0,3700-360-14,3700/360,16219.23937360179,31.8936337162,34.8255488547,2012
2012-09-21,2012-09-21,"שטינברג 1, רחובות",שטינברג 1,3705-567-19,דירה בבית קומות,3.0,שניה,57.5,640000,,,1970.0,,4.0,9427697748,1,3705567,False,,רחובות,שטינברג,,3705-567-19,3705/567,11130.434782608696,31.8915788159,34.8196899741,2012
2012-09-21,2012-09-21,"אחד העם 11, רחובות",אחד העם 11,3703-731-18,דירה בבית קומות,3.0,רביעית,61.08,949000,,,1970.0,,4.0,9428815536,1,3703731,False,,רחובות,אחד העם,,3703-731-18,3703/731,15537.000654878848,31.8973388715,34.8116602909,2012
2012-09-21,2012-09-21,"אחד העם 18, רחובות",אחד העם 18,3703-395-9,דירה בבית קומות,4.0,שלישית,82.31,1050000,,,1970.0,,4.0,9427646508,1,3703395,False,140% ב 11.2 שנים,רחובות,אחד העם,12.5,3703-395-9,3703/395,12756.651682663103,31.8981486673,34.8119952871,2012
2012-09-21,2012-09-21,"גורדון 2, רחובות",גורדון 2,3703-1394-21,דירה בבית קומות,5.0,חמישית,121.7,1585000,,,2012.0,,19.0,9428546652,1,37031394,False,,רחובות,גורדון,,3703-1394-21,3703/1394,13023.829087921116,31.9011251208,34.8099768873,2012
2012-09-20,2012-09-20,"לוי אשכול 6, רחובות",לוי אשכול 6,4536-84-13,דירה בבית קומות,4.0,רביעית,85.0,1070000,,,1995.0,,6.0,9428105820,1,453684,False,18% ב 2.9 שנים,רחובות,לוי אשכול,6.21,4536-84-13,4536/84,12588.235294117649,31.8840692832,34.8060941531,2012
2012-09-20,2012-09-20,"תר""ן 8, רחובות","תר""ן 8",3703-1271-9,דירה בבית קומות,5.0,שלישית,120.35,1545000,,,1992.0,,4.0,9427715052,1,37031271,False,,רחובות,"תר""ן",,3703-1271-9,3703/1271,12837.557125051932,31.8978873883,34.8179201177,2012
2012-09-20,2012-09-20,"יוסף קרוננברג 9, רחובות",יוסף קרוננברג 9,3697-419-29,דירה בבית קומות,5.5,שביעית,123.15,1500000,,,1996.0,,,9429810012,1,3697419,False,8% ב 1.9 שנים,רחובות,קרוננברג יוסף,4.21,3697-419-29,3697/419,12180.26796589525,31.8779675293,34.8154646426,2012
2012-09-20,2012-09-20,"אברהם ישראל פשרני 10, רחובות",אברהם ישראל פשרני 10,3699-400-7,דירה בבית קומות,4.0,שניה,95.08,1200000,,,1997.0,,8.0,9428130180,1,3699400,False,78% ב 5.2 שנים,רחובות,פרשני אברהם,15.0,3699-400-7,3699/400,12620.950778291965,31.8879527904,34.8250144849,2012
2012-09-19,2012-09-19,"מנחם מששוילי 3, רחובות",מנחם מששוילי 3,4536-78-17,דירה בבית קומות,4.0,חמישית,96.8,1200000,,,1998.0,,5.0,9427529244,1,453678,False,,רחובות,מששוילי מנחם,,4536-78-17,4536/78,12396.694214876034,31.8842693203,34.8076404026,2012
2012-09-19,2012-09-19,"ש' בן-ציון 7, רחובות",ש' בן-ציון 7,3702-284-12,דירה בבית קומות,4.0,שלישית,81.0,950000,,,1970.0,,4.0,9427478004,1,3702284,False,36% ב 7.2 שנים,רחובות,ש בן ציון,5.0,3702-284-12,3702/284,11728.395061728395,31.8977412198,34.8043377998,2012
2012-09-19,2012-09-19,"גורדון 2, רחובות",גורדון 2,3703-1394-56,דירה בבית קומות,5.0,שתים עשרה,121.7,1687000,,,2012.0,,19.0,9428545980,1,37031394,False,,רחובות,גורדון,,3703-1394-56,3703/1394,13861.955628594906,31.9011251208,34.8099768873,2012
2012-09-19,2012-09-19,"משה פורר 10, רחובות",משה פורר 10,3699-249-109,דירה בבית קומות,4.0,שישית,98.5,1190000,,,1996.0,,15.0,9427726224,1,3699249,False,,רחובות,פורר משה,,3699-249-109,3699/249,12081.218274111676,31.888461774,34.8308497869,2012
2012-09-19,2012-09-19,"חזון איש 28, רחובות",חזון איש 28,5478-21-92,דירה בבית קומות,5.0,שביעית,114.5,1250000,,,2010.0,,9.0,9429278460,1,547821,False,,רחובות,חזון איש,,5478-21-92,5478/21,10917.03056768559,31.8829861234,34.7943061592,2012
2012-09-16,2012-09-16,"בן גוריון 32, רחובות",בן גוריון 32,3779-135-6,דירה בבית קומות,3.0,שלישית,70.4,560000,,,1950.0,,4.0,9428699784,1,3779135,False,,רחובות,בן גוריון,,3779-135-6,3779/135,7954.545454545454,31.8932098986,34.7744374424,2012
2012-09-14,2012-09-14,"הרצל 161, רחובות",הרצל 161,3703-1022-62,דירה בבית קומות,3.0,שלישית,69.0,890000,,,1960.0,,6.0,9427843236,1,37031022,False,,רחובות,הרצל,,3703-1022-62,3703/1022,12898.550724637682,31.8964701378,34.8103829948,2012
2012-09-14,2012-09-14,"כרמל 21, רחובות",כרמל 21,5908-73-38,דירה בבית קומות,3.0,עשירית,81.87,1306000,,,2012.0,,18.0,9428696256,1,590873,False,,רחובות,כרמל,,5908-73-38,5908/73,15952.119213387075,31.9083495555,34.8224889862,2012
2012-09-13,2012-09-13,"כרמל 21, רחובות",כרמל 21,5908-73-61,דירה בבית קומות,6.0,שבע עשרה,148.43,2700000,,,2012.0,,18.0,9427867512,1,590873,False,,רחובות,כרמל,,5908-73-61,5908/73,18190.392777740348,31.9083495555,34.8224889862,2012
2012-09-13,2012-09-13,"יעבץ 5, רחובות",יעבץ 5,3703-726-5,קוטג' דו משפחתי,5.0,קרקע,124.3,1800000,,,1930.0,,1.0,9427367040,1,3703726,False,,רחובות,יעבץ,,3703-726-5,3703/726,14481.094127111826,31.8969185446,34.8127246457,2012
2012-09-13,2012-09-13,"ויצמן 20, רחובות",ויצמן 20,3703-1170-3,דירה בבית קומות,4.0,ראשונה,109.89,1460000,,,2010.0,,5.0,9427717908,1,37031170,False,,רחובות,ויצמן,,3703-1170-3,3703/1170,13286.013286013284,31.899321829,34.8128858296,2012
2012-09-12,2012-12-09,"כרמל 16, רחובות",כרמל 16,5908-76-86,דירה,4.0,עשרים,93.0,1577000,1.0,אחוזות הנשיא,2013.0,,22.0,11181258392,1,590876,False,,רחובות,כרמל,,5908-76-86,5908/76,16956.989247311827,31.9064675792,34.8234770113,2012
2012-09-12,2012-12-09,"ההגנה 24, רחובות",ההגנה 24,3705-546-22,דירה בבית קומות,3.0,שלישית,57.7,740000,,,1970.0,,4.0,9433665780,1,3705546,False,146% ב 5.4 שנים,רחובות,ההגנה,27.04,3705-546-22,3705/546,12824.956672443674,31.8926838677,34.8205580575,2012
2012-09-12,2012-12-09,"בני משה 17, רחובות",בני משה 17,3704-235-7,דירת גן,4.0,ראשונה,100.0,1390000,,,1960.0,,2.0,9494222808,1,3704235,False,,רחובות,בני משה,,3704-235-7,3704/235,13900.0,31.8924174989,34.8108349701,2012
2012-09-11,2012-11-09,"ישראל אהרוני 7, רחובות",ישראל אהרוני 7,3703-1039-5,דירה בבית קומות,3.5,ראשונה,75.95,1060000,,,1960.0,,3.0,9430877904,1,37031039,False,65% ב 10.4 שנים,רחובות,אהרוני ישראל,6.25,3703-1039-5,3703/1039,13956.550362080316,31.9006053365,34.8121859496,2012
2012-09-10,2012-10-09,"אברהם בשארי 25, רחובות",אברהם בשארי 25,3701-798-9,דירה בבית קומות,3.0,שניה,79.46,820000,,,1980.0,,3.0,9428425356,1,3701798,False,,רחובות,בשארי אברהם,,3701-798-9,3701/798,10319.657689403475,31.8866836232,34.8106018637,2012
2012-09-09,2012-09-09,"חזון איש 24, רחובות",חזון איש 24,5478-21-30,דירה בבית קומות,5.0,שמינית,132.9,1714000,,,2013.0,,9.0,9429248640,1,547821,False,,רחובות,חזון איש,,5478-21-30,5478/21,12896.914973664409,31.8829861234,34.7943061592,2012
2012-09-09,2012-09-09,"כרמל 21, רחובות",כרמל 21,5908-73-5,דירה בבית קומות,4.0,שניה,99.24,1360000,,,2012.0,,18.0,9427634748,1,590873,False,,רחובות,כרמל,,5908-73-5,5908/73,13704.151551793631,31.9083495555,34.8224889862,2012
2012-09-09,2012-09-09,"סיטקוב 5, רחובות",סיטקוב 5,3703-1116-9,דירה בבית קומות,4.0,ראשונה,79.8,1050000,,,1970.0,,5.0,9426787776,1,37031116,False,,רחובות,סיטקוב,,3703-1116-9,3703/1116,13157.894736842103,31.9012236267,34.8132673682,2012
2012-09-09,2012-09-09,"נפתלי בן-אפרים 12, רחובות",נפתלי בן-אפרים 12,3698-412-13,דירה בבית קומות,5.5,רביעית,107.5,1360000,,,1997.0,,6.0,9427080768,1,3698412,False,,רחובות,בן אפרים נפתלי,,3698-412-13,3698/412,12651.162790697674,31.888771076,34.8228183651,2012
2012-09-09,2012-09-09,"הר הצופים 11, רחובות",הר הצופים 11,5714-108-21,דירה בבית קומות,4.0,חמישית,95.1,1341000,,,2010.0,,6.0,9427619376,1,5714108,False,,רחובות,הר הצופים,,5714-108-21,5714/108,14100.946372239749,31.8928235153,34.7797606994,2012
2012-09-08,2012-08-09,"פרופ' אברהם הרשקו 3, רחובות",פרופ' אברהם הרשקו 3,3694-382-15,דירה בבית קומות,4.0,שישית,114.0,1588000,,,2010.0,,5.0,9425919468,1,3694382,False,,רחובות,פרופ' הרשקו אברהם,,3694-382-15,3694/382,13929.82456140351,31.9038546639,34.8196669067,2012
2012-09-08,2012-08-09,"ויצמן 35, רחובות",ויצמן 35,3703-773-30,דירה בבית קומות,4.0,רביעית,75.76,1150000,,,1970.0,,5.0,9424543884,1,3703773,False,103% ב 13.8 שנים,רחובות,ויצמן,7.46,3703-773-30,3703/773,15179.51425554382,31.9002258622,34.8145328694,2012
2012-09-08,2012-08-09,"הרב מלצר 14, רחובות",הרב מלצר 14,3694-289-24,דירה בבית קומות,3.0,רביעית,60.81,790000,,,1970.0,,4.0,9424356900,1,3694289,False,14% ב 2.5 שנים,רחובות,הרב מלצר,5.6,3694-289-24,3694/289,12991.284328235488,31.9015282661,34.8175766418,2012
2012-09-08,2012-08-09,"בר-כוכבא 6, רחובות",בר-כוכבא 6,3705-606-14,דירה בבית קומות,3.0,רביעית,59.34,630000,,,1970.0,,6.0,9424154460,1,3705606,False,,רחובות,בר כוכבא,,3705-606-14,3705/606,10616.784630940345,31.887987016,34.8152118377,2012
2012-09-08,2012-08-09,"יעקב 25, רחובות",יעקב 25,3703-1147-7,דירה בבית קומות,3.0,שלישית,72.58,1060000,,,1992.0,,6.0,9424943640,1,37031147,False,,רחובות,יעקב,,3703-1147-7,3703/1147,14604.574262882335,31.8968555934,34.814681218,2012
2012-09-08,2012-08-09,"כרמל 16, רחובות",כרמל 16,5908-76-82,דירה,4.0,שמונה עשרה,103.0,1520000,1.0,אחוזות הנשיא,2013.0,,22.0,11181258388,1,590876,False,,רחובות,כרמל,,5908-76-82,5908/76,14757.281553398056,31.9064675792,34.8234770113,2012
2012-09-08,2012-08-09,"כרמל 16, רחובות",כרמל 16,5908-76-81,דירה,4.0,שבע עשרה,103.0,1510000,1.0,אחוזות הנשיא,2013.0,,22.0,11181258387,1,590876,False,,רחובות,כרמל,,5908-76-81,5908/76,14660.194174757282,31.9064675792,34.8234770113,2012
2012-09-08,2012-08-09,"כרמל 17, רחובות",כרמל 17,5908-75-102,דירה בבית קומות,3.0,,97.0,1300000,,,2008.0,,27.0,9424362360,1,590875,False,,רחובות,כרמל,,5908-75-102,5908/75,13402.061855670105,31.9077055652,34.8225573817,2012
2012-09-08,2012-08-09,"הרב הרצוג 23, רחובות",הרב הרצוג 23,3703-430-2,דירה בבית קומות,5.0,ראשונה,119.44,1250000,,,1988.0,,4.0,9424554888,1,3703430,False,31% ב 3.1 שנים,רחובות,הרב הרצוג,10.0,3703-430-2,3703/430,10465.505693235098,31.9030863812,34.8144857746,2012
2012-09-07,2012-07-09,"סיני 1, רחובות",סיני 1,3701-704-9,דירה בבית קומות,3.0,שלישית,63.0,720000,,,1960.0,,3.0,9421823124,1,3701704,False,80% ב 12.3 שנים,רחובות,סיני,6.5,3701-704-9,3701/704,11428.57142857143,31.8888027016,34.8077866273,2012
2012-09-07,2012-07-09,"רופין 39, רחובות",רופין 39,3647-114-14,דירת גג,4.0,חמישית,117.64,2150000,,,1997.0,,5.0,9421581288,1,3647114,False,,רחובות,רופין,,3647-114-14,3647/114,18276.09656579395,31.9037176207,34.8069977816,2012
2012-09-07,2012-07-09,"חזון איש 4, רחובות",חזון איש 4,5478-26-32,דירה בבית קומות,5.0,שמינית,131.27,1375000,,,2012.0,,9.0,9494771916,1,547826,False,,רחובות,חזון איש,,5478-26-32,5478/26,10474.594347527996,31.8817142284,34.7908107804,2012
2012-09-07,2012-07-09,"ציפורה טוב 3, רחובות",ציפורה טוב 3,3648-307-143,דירה בבית קומות,4.0,שש עשרה,86.55,1350000,,,2006.0,,18.0,9421602120,1,3648307,False,,רחובות,טוב צפורה,,3648-307-143,3648/307,15597.920277296362,31.9002907087,34.7996892275,2012
2012-09-07,2012-07-09,"חיים לסקוב 1, רחובות",חיים לסקוב 1,3699-416-4,דירה בבית קומות,3.0,ראשונה,68.34,1040000,,,2000.0,,5.0,9422727552,1,3699416,False,,רחובות,לסקוב חיים,,3699-416-4,3699/416,15218.027509511268,31.8874245257,34.8288057039,2012
2012-09-05,2012-05-09,"מנחם מששוילי 8, רחובות",מנחם מששוילי 8,4536-88-2,קוטג' דו משפחתי,6.0,,190.0,2060000,,,2003.0,,2.0,9420027540,1,453688,False,,רחובות,מששוילי מנחם,,4536-88-2,4536/88,10842.105263157897,31.8838244996,34.8081415278,2012
2012-09-05,2012-05-09,"אופנהיימר 5, רחובות",אופנהיימר 5,3695-200-7,משרד,,רביעית,158.0,1475000,,,1999.0,,4.0,9420155136,1,3695200,False,,רחובות,אופנהיימר,,3695-200-7,3695/200,9335.443037974685,31.9111920591,34.806524404,2012
2012-09-03,2012-03-09,"הרא""ז 3, רחובות","הרא""ז 3",3694-123-6,דירה בבית קומות,4.0,שלישית,105.12,1540000,,,2007.0,,5.0,9415570164,1,3694123,False,51% ב 2.1 שנים,רחובות,"הרא""ז",24.29,3694-123-6,3694/123,14649.923896499238,31.9031740439,34.8154124181,2012
2012-09-02,2012-02-09,"הנשיא הראשון 29, רחובות",הנשיא הראשון 29,3703-101-13,דירה בבית קומות,3.0,שניה,62.3,925000,,,1960.0,,3.0,9411268104,1,3703101,False,92% ב 8 שנים,רחובות,הנשיא הראשון,11.5,3703-101-13,3703/101,14847.512038523277,31.9040338217,34.8117623659,2012
2012-09-02,2012-02-09,"יצירה 22, רחובות",יצירה 22,3652-42-2,תעשיה,,שניה,370.0,1000000,,,1999.0,,2.0,9412541796,1,365242,False,,רחובות,יצירה,,3652-42-2,3652/42,2702.7027027027025,31.888688537,34.7831718887,2012
2012-09-01,2012-01-09,"כרמל 16, רחובות",כרמל 16,5908-76-73,דירה בבית קומות,3.0,,,1357000,,,1800.0,,22.0,9410547300,1,590876,False,,רחובות,כרמל,,5908-76-73,5908/76,,31.9064675792,34.8234770113,2012
2012-09-01,2012-01-09,"חכם אברהם עפג'ין 3, רחובות",חכם אברהם עפג'ין 3,3699-339-79,דירה בבית קומות,4.5,שלישית,110.6,1305000,,,2003.0,,9.0,9408724752,1,3699339,False,51% ב 4.6 שנים,רחובות,חכם עפג'ין אברהם,11.09,3699-339-79,3699/339,11799.276672694396,31.8867942128,34.8241693658,2012
2012-08-31,2012-08-31,"הרצל 106, רחובות",הרצל 106,3705-198-17,דירה בבית קומות,3.0,שלישית,70.45,820000,,,1970.0,,3.0,9426419016,1,3705198,False,119% ב 7.5 שנים,רחובות,הרצל,15.87,3705-198-17,3705/198,11639.46061036196,31.8877121358,34.814177764,2012
2012-08-31,2012-08-31,"מקס ואמפרו שיין 9, רחובות",מקס ואמפרו שיין 9,3697-499-65,דירה בבית קומות,5.0,שניה,116.9,1420000,,,2007.0,,15.0,9426494532,1,3697499,False,,רחובות,מקס ואמפרו שיין,,3697-499-65,3697/499,12147.134302822926,31.8796002841,34.8079881267,2012
2012-08-30,2012-08-30,"המורן 8, רחובות",המורן 8,4730-12-6,דירה בבית קומות,3.0,ראשונה,66.3,775000,,,1991.0,,2.0,9426224388,1,473012,False,,רחובות,מורן,,4730-12-6,4730/12,11689.291101055807,31.891944121,34.773383028,2012
2012-08-30,2012-08-30,"חזון איש 6, רחובות",חזון איש 6,5478-26-88,דירה בבית קומות,5.0,שישית,122.62,1355000,,,2012.0,,9.0,9427678260,1,547826,False,,רחובות,חזון איש,,5478-26-88,5478/26,11050.39960854673,31.8817142284,34.7908107804,2012
2012-08-30,2012-08-30,"הרא""ה 21, רחובות","הרא""ה 21",3704-788-1,דירה בבית קומות,4.0,ראשונה,119.72,1220000,,,2013.0,,6.0,9426505032,1,3704788,False,,רחובות,"הרא""ה",,3704-788-1,3704/788,10190.444370197129,31.8941129452,34.8162436506,2012
2012-08-30,2012-08-30,"חזון איש 10, רחובות",חזון איש 10,5478-25-29,דירת גן,4.0,קרקע,103.6,1400000,,,2011.0,,6.0,9428507760,1,547825,False,,רחובות,חזון איש,,5478-25-29,5478/25,13513.513513513515,31.8817935534,34.7914703227,2012
2012-08-30,2012-08-30,"ברנר 19, רחובות",ברנר 19,3701-850-10,דירה בבית קומות,4.0,חמישית,102.61,1250000,,,2011.0,,6.0,9428251392,1,3701850,False,,רחובות,ברנר,,3701-850-10,3701/850,12182.048533281357,31.8905055351,34.808205487,2012
2012-08-30,2012-08-30,"הרשנזון 74, רחובות",הרשנזון 74,3701-789-63,דירה בבית קומות,4.0,שמינית,79.17,1050000,,,1980.0,,9.0,9426676224,1,3701789,False,69% ב 6 שנים,רחובות,הרשנזון,11.5,3701-789-63,3701/789,13262.59946949602,31.8905411585,34.8118452051,2012
2012-08-30,2012-08-30,"הר הצופים 3, רחובות",הר הצופים 3,5713-92-98,דירה בבית קומות,5.0,עשירית,110.8,1400000,,,2000.0,,16.0,9426455136,1,571392,False,81% ב 9.9 שנים,רחובות,הר הצופים,8.18,5713-92-98,5713/92,12635.37906137184,31.8965230096,34.7807444395,2012
2012-08-30,2012-08-30,"ישראל בלקינד 5, רחובות",ישראל בלקינד 5,3699-236-27,דירה בבית קומות,3.0,שמינית,83.7,1285000,,,1995.0,,8.0,9427663644,1,3699236,False,26% ב 3.5 שנים,רחובות,בלקינד ישראל,7.43,3699-236-27,3699/236,15352.449223416965,31.8881101113,34.8279034757,2012
2012-08-29,2012-08-29,"נתן אלתרמן 2, רחובות",נתן אלתרמן 2,3697-509-8,מחסנים,4.0,קומה ‎2‏,107.95,990000,,,2014.0,,21.0,9429286104,1,3697509,True,-18% ב 0.7 שנים,רחובות,אלתרמן נתן,-25.71,3697-509-8,3697/509,9170.912459471978,31.882269961,34.8110426593,2012
