DEALDATE,DEALDATETIME,FULLADRESS,DISPLAYADRESS,GUSH,DEALNATUREDESCRIPTION,ASSETROOMNUM,FLOORNO,DEALNATURE,DEALAMOUNT,NEWPROJECTTEXT,PROJECTNAME,BUILDINGYEAR,YEARBUILT,BUILDINGFLOORS,KEYVALUE,TYPE,POLYGON_ID,TREND_IS_NEGATIVE,TREND_FORMAT,city_name,street,presentage per year,GUSH - Copy,Gush_Helka,Price per sqm,lat,lon,Year
2015-12-31,2015-12-31,"הגת 13, אשקלון",הגת 13,2753-153-142,דירה בבית קומות,4.0,שישית,107.0,1335000,,,2016.0,,9.0,10440874890,1,2753153,False,,אשקלון,הגת,,2753-153-142,2753/153,12476.635514018692,31.6918760386,34.5790445962,2015
2015-12-31,2015-12-31,"קדש 37, אשקלון",קדש 37,1935-230-155,דירה בבית קומות,4.0,תשיעית,108.8,1310000,,,2000.0,,16.0,10440785070,1,1935230,False,97% ב 9.6 שנים,אשקלון,קדש,10.1,1935-230-155,1935/230,12040.44117647059,31.6913989014,34.5748534805,2015
2015-12-31,2015-12-31,"בר-כוכבא 27, אשקלון",בר-כוכבא 27,2871-97-40,דירה בבית קומות,3.0,חמישית,69.0,740000,,,1970.0,,5.0,10446811200,1,287197,False,,אשקלון,בר כוכבא,,2871-97-40,2871/97,10724.63768115942,31.6827524608,34.5689645164,2015
2015-12-30,2015-12-30,"האילן 261, אשקלון",האילן 261,1942-161-26,דירה בבית קומות,5.0,שישית,121.9,1440000,,,2016.0,,10.0,10441122930,1,1942161,False,,אשקלון,האילן,,1942-161-26,1942/161,11812.961443806398,31.6670601433,34.5638593674,2015
2015-12-30,2015-12-30,"מחניים 3, אשקלון",מחניים 3,2869-27-3,דירה בבית קומות,5.0,ראשונה,98.0,1235000,,,1995.0,,3.0,10440424260,1,286927,False,,אשקלון,מחניים,,2869-27-3,2869/27,12602.040816326533,31.6680552157,34.5589074591,2015
2015-12-30,2015-12-30,"הגת 13, אשקלון",הגת 13,2753-153-32,דירה,4.0,שישית,107.0,1355000,1.0,כרמי יצחק,2016.0,,9.0,11181207890,1,2753153,False,,אשקלון,הגת,,2753-153-32,2753/153,12663.55140186916,31.6918760386,34.5790445962,2015
2015-12-30,2015-12-30,"הגת 13, אשקלון",הגת 13,2753-153-143,דירה בבית קומות,4.0,ראשונה,107.0,1280000,,,2016.0,,9.0,10440876510,1,2753153,False,,אשקלון,הגת,,2753-153-143,2753/153,11962.616822429907,31.6918760386,34.5790445962,2015
2015-12-29,2015-12-29,"בדולח 9, אשקלון",בדולח 9,1937-169-1,קוטג' דו משפחתי,5.0,,108.0,4000000,,,1970.0,,1.0,10444874040,1,1937169,False,,אשקלון,בדולח,,1937-169-1,1937/169,37037.03703703704,31.6914840925,34.5691520667,2015
2015-12-29,2015-12-29,"הגת 13, אשקלון",הגת 13,2753-153-31,דירה,4.0,ראשונה,107.0,1280000,1.0,כרמי יצחק,2016.0,,9.0,11181207889,1,2753153,False,,אשקלון,הגת,,2753-153-31,2753/153,11962.616822429907,31.6918760386,34.5790445962,2015
2015-12-28,2015-12-28,"יוטבתה 2, אשקלון",יוטבתה 2,3054-32-25,דירה בבית קומות,4.0,שניה,78.65,870000,,,1994.0,,3.0,10377659160,1,305432,False,132% ב 7.9 שנים,אשקלון,יוטבתה,16.71,3054-32-25,3054/32,11061.665607120152,31.6761095772,34.5790279462,2015
2015-12-28,2015-12-28,"יהודה הלוי 32, אשקלון",יהודה הלוי 32,1962-144-6,דירה בבית קומות,3.0,ראשונה,67.0,750000,,,1999.0,,9.0,10440817650,1,1962144,False,37% ב 5 שנים,אשקלון,יהודה הלוי,7.4,1962-144-6,1962/144,11194.029850746268,31.6582905527,34.5635557647,2015
2015-12-28,2015-12-28,"הטייסים 75, אשקלון",הטייסים 75,1941-109-46,דירה בבית קומות,4.0,ראשונה,92.5,1150000,,,2005.0,,10.0,10440505080,1,1941109,False,35% ב 2.1 שנים,אשקלון,הטייסים,16.67,1941-109-46,1941/109,12432.432432432432,31.6764766656,34.5606701547,2015
2015-12-28,2015-12-28,"פרץ ברנשטיין 23, אשקלון",פרץ ברנשטיין 23,2904-81-209,דירה בבית קומות,4.0,קומה ‎4‏,102.0,1182000,,,2015.0,,11.0,10441408050,1,290481,False,,אשקלון,ברנשטיין פרץ,,2904-81-209,2904/81,11588.235294117649,31.680192209,34.5780865821,2015
2015-12-27,2015-12-27,"פקיעין 8, אשקלון",פקיעין 8,2507-23-18,דירה בבית קומות,4.0,שניה,79.35,1045000,,,1998.0,,7.0,10440113760,1,250723,False,89% ב 10.4 שנים,אשקלון,פקיעין,8.56,2507-23-18,2507/23,13169.50220541903,31.666227997,34.5772294581,2015
2015-12-27,2015-12-27,"ההסתדרות 53, אשקלון",ההסתדרות 53,1998-11-3,דירה בבית קומות,4.0,שניה,83.0,650000,,,1970.0,,3.0,10442353860,1,199811,False,,אשקלון,ההסתדרות,,1998-11-3,1998/11,7831.325301204819,31.6552780221,34.5579798158,2015
2015-12-27,2015-12-27,"הענב 4, אשקלון",הענב 4,2847-107-1,קוטג' חד משפחתי,5.0,ראשונה,136.0,2050000,,,1995.0,,1.0,10440513270,1,2847107,False,,אשקלון,הענב,,2847-107-1,2847/107,15073.529411764706,31.653351243,34.5774005865,2015
2015-12-27,2015-12-27,"נוה שלום 16, אשקלון",נוה שלום 16,1296-41-19,דירה בבית קומות,3.0,שביעית,69.3,770000,,,1994.0,,8.0,10442561130,1,129641,False,,אשקלון,נווה שלום,,1296-41-19,1296/41,11111.111111111111,31.6625829178,34.5785164315,2015
2015-12-27,2015-12-27,"נתן הנביא 41, אשקלון",נתן הנביא 41,1653-115-2,בניני ציבור,,,183.0,900000,,,1970.0,,,10442105190,1,1653115,False,,אשקלון,נתן הנביא,,1653-115-2,1653/115,4918.0327868852455,31.6599650965,34.5845095052,2015
2015-12-24,2015-12-24,"קרן היסוד 16, אשקלון",קרן היסוד 16,2391-64-4,דירה בבית קומות,4.0,קרקע,87.6,1130000,,,1995.0,,3.0,10441564650,1,239164,False,,אשקלון,קרן היסוד,,2391-64-4,2391/64,12899.543378995437,31.6580094047,34.5693461546,2015
2015-12-24,2015-12-24,"אב""א אחימאיר 101, אשקלון","אב""א אחימאיר 101",1938-51-3,חנות,,קרקע,30.0,710000,,,1970.0,,4.0,10377553590,1,193851,False,285% ב 15.4 שנים,אשקלון,"אחימאיר אב""א",18.51,1938-51-3,1938/51,23666.666666666668,31.6854699914,34.5670038728,2015
2015-12-24,2015-12-24,"האילן 261, אשקלון",האילן 261,1942-161-89,דירה בבית קומות,4.0,עשירית,129.9,2224000,,,2016.0,,10.0,10440166500,1,1942161,False,,אשקלון,האילן,,1942-161-89,1942/161,17120.86220169361,31.6670601433,34.5638593674,2015
2015-12-24,2015-12-24,"מגידו 3, אשקלון",מגידו 3,2507-6-43,דירה בבית קומות,4.0,עשירית,88.1,1000000,,,2002.0,,15.0,10440932760,1,25076,False,17% ב 4 שנים,אשקלון,מגידו,4.25,2507-6-43,2507/6,11350.737797956868,31.6663950193,34.5747620238,2015
2015-12-24,2015-12-24,"מנשה 4, אשקלון",מנשה 4,1207-180-1,דירה בבית קומות,4.0,קרקע,81.0,1140000,,,1965.0,,,10377645030,1,1207180,False,,אשקלון,מנשה,,1207-180-1,1207/180,14074.074074074077,31.6555732165,34.5856591603,2015
2015-12-23,2015-12-23,"קדש 7, אשקלון",קדש 7,2557-3-61,דירה בבית קומות,5.0,שישית,125.55,1340000,,,2010.0,,9.0,10440479790,1,25573,False,,אשקלון,קדש,,2557-3-61,2557/3,10673.038630027875,31.6888819419,34.5829893817,2015
2015-12-23,2015-12-23,"שורשים 1, אשקלון",שורשים 1,2753-129-18,דירה בבית קומות,4.0,קומה ‎5‏,104.45,1255000,,,2007.0,,10.0,10377667350,1,2753129,False,19% ב 4.2 שנים,אשקלון,שורשים,4.52,2753-129-18,2753/129,12015.318334131163,31.6965443222,34.578569362,2015
2015-12-23,2015-12-23,"קדש 25, אשקלון",קדש 25,2556-3-18,דירה בבית קומות,5.0,רביעית,133.71,1400000,,,2011.0,,9.0,10377374760,1,25563,False,37% ב 3.5 שנים,אשקלון,קדש,10.57,2556-3-18,2556/3,10470.421060504075,31.690489637,34.5777323705,2015
2015-12-23,2015-12-23,"האילן 261, אשקלון",האילן 261,1942-161-81,דירה בבית קומות,5.0,שמינית,108.45,1463000,,,2016.0,,10.0,10441123650,1,1942161,False,,אשקלון,האילן,,1942-161-81,1942/161,13490.087597971416,31.6670601433,34.5638593674,2015
2015-12-22,2015-12-22,"איילה 31, אשקלון",איילה 31,1296-7-34,דירה בבית קומות,4.0,חמישית,86.4,840000,,,1992.0,,9.0,10440572580,1,12967,False,6% ב 1.2 שנים,אשקלון,איילה,5.0,1296-7-34,1296/7,9722.22222222222,31.6633411485,34.5748581871,2015
2015-12-22,2015-12-22,"אריה בן-אליעזר 101, אשקלון",אריה בן-אליעזר 101,1934-63-21,דירה בבית קומות,4.5,שניה,101.6,850000,,,1980.0,,3.0,10377075600,1,193463,False,61% ב 5.5 שנים,אשקלון,בן אליעזר אריה,11.09,1934-63-21,1934/63,8366.141732283466,31.6851135384,34.5755710665,2015
2015-12-21,2015-12-21,"יוספטל 19, אשקלון",יוספטל 19,1997-76-17,דירה בבית קומות,3.5,שלישית,69.7,495000,,,1971.0,,3.0,10441953000,1,199776,False,12% ב 1 שנים,אשקלון,יוספטל,12.0,1997-76-17,1997/76,7101.865136298422,31.6514812634,34.5589397986,2015
2015-12-21,2015-12-21,"קדש 2, אשקלון",קדש 2,2754-157-51,דירה בבית קומות,4.0,שישית,101.0,1310000,,,2013.0,,8.0,10443169170,1,2754157,False,,אשקלון,קדש,,2754-157-51,2754/157,12970.29702970297,31.6892810157,34.5841206984,2015
2015-12-21,2015-12-21,"משה יוליש 8, אשקלון",משה יוליש 8,3019-10-32,דירה בבית קומות,4.0,שמינית,80.8,650000,,,1970.0,,8.0,10441702800,1,301910,False,8% ב 4.6 שנים,אשקלון,יוליש משה,1.74,3019-10-32,3019/10,8044.554455445545,31.6569052524,34.5552342884,2015
2015-12-21,2015-12-21,"בית אל 5, אשקלון",בית אל 5,2869-37-8,דירה בבית קומות,4.0,ראשונה,100.8,1040000,,,1990.0,,3.0,10377371790,1,286937,False,55% ב 5.3 שנים,אשקלון,בית אל,10.38,2869-37-8,2869/37,10317.460317460318,31.667273712,34.5594356456,2015
2015-12-21,2015-12-21,"האילן 261, אשקלון",האילן 261,1942-161-47,דירה בבית קומות,5.0,ראשונה,120.8,1350000,,,2016.0,,10.0,10441116180,1,1942161,False,,אשקלון,האילן,,1942-161-47,1942/161,11175.49668874172,31.6670601433,34.5638593674,2015
2015-12-20,2015-12-20,"יעקב מרידור 13, אשקלון",יעקב מרידור 13,2904-81-65,דירה בבית קומות,5.0,קומה ‎4‏,125.6,1351000,,,2015.0,,10.0,10440822150,1,290481,False,,אשקלון,מרידור יעקב,,2904-81-65,2904/81,10756.369426751591,31.680192209,34.5780865821,2015
2015-12-20,2015-12-20,"משה יוליש 6, אשקלון",משה יוליש 6,3019-9-23,דירה בבית קומות,3.0,רביעית,62.6,458000,,,1970.0,,4.0,10377276030,1,30199,False,34% ב 4.8 שנים,אשקלון,יוליש משה,7.08,3019-9-23,3019/9,7316.29392971246,31.6565587963,34.5555837976,2015
2015-12-20,2015-12-20,"הגת 13, אשקלון",הגת 13,2753-153-144,דירה בבית קומות,4.0,שישית,107.0,1305000,,,2016.0,,9.0,10377151290,1,2753153,False,,אשקלון,הגת,,2753-153-144,2753/153,12196.26168224299,31.6918760386,34.5790445962,2015
2015-12-20,2015-12-20,"קורצ'אק 4, אשקלון",קורצ'אק 4,1996-109-18,דירה בבית קומות,3.0,קרקע,50.0,675000,,,1960.0,,3.0,10377055620,1,1996109,False,,אשקלון,קורצ'אק,,1996-109-18,1996/109,13500.0,31.6533844089,34.562576803,2015
2015-12-19,2015-12-19,"הגת 13, אשקלון",הגת 13,2753-153-30,דירה,4.0,שישית,107.0,1305000,1.0,כרמי יצחק,2016.0,,9.0,11181207888,1,2753153,False,,אשקלון,הגת,,2753-153-30,2753/153,12196.26168224299,31.6918760386,34.5790445962,2015
2015-12-18,2015-12-18,,,2754-153-65,דירה בבית קומות,4.0,ראשונה,108.0,1165000,,,2015.0,,,10377502470,2,2754153,False,,אשקלון,ביכורי ענבים,,2754-153-65,2754/153,10787.037037037036,31.6914957347,34.5853479351,2015
2015-12-18,2015-12-18,"שני אליהו 1008, אשקלון",שני אליהו 1008,3013-14-5,דירה בבית קומות,4.0,שלישית,79.8,630000,,,1977.0,,4.0,10377094140,1,301314,False,260% ב 10.4 שנים,אשקלון,שני אליהו,25.0,3013-14-5,3013/14,7894.736842105263,31.6521691867,34.5528535719,2015
2015-12-18,2015-12-18,"בן-גוריון 30, אשקלון",בן-גוריון 30,1963-80-9,דירה בבית קומות,2.0,שניה,44.8,570000,,,1970.0,,4.0,10377357120,1,196380,False,50% ב 1.7 שנים,אשקלון,בן גוריון,29.41,1963-80-9,1963/80,12723.214285714286,31.6622349584,34.5681522185,2015
2015-12-18,2015-12-18,"יונתן נתניהו 4, אשקלון",יונתן נתניהו 4,2556-16-65,דירה בבית קומות,4.0,רביעית,112.35,1350000,,,2010.0,,13.0,10377175860,1,255616,False,66% ב 5.1 שנים,אשקלון,נתניהו יונתן,12.94,2556-16-65,2556/16,12016.021361815754,31.6897246031,34.5777787226,2015
2015-12-17,2015-12-17,"פקיעין 8, אשקלון",פקיעין 8,2507-23-71,דירה בבית קומות,4.0,שישית,87.3,1100000,,,1998.0,,7.0,10377056340,1,250723,False,64% ב 6 שנים,אשקלון,פקיעין,10.67,2507-23-71,2507/23,12600.229095074455,31.666227997,34.5772294581,2015
2015-12-17,2015-12-17,"נווה שלום 20, אשקלון",נווה שלום 20,1296-42-63,דירה בבית קומות,5.0,שמינית ותשיעית,133.6,1070000,,,1992.0,,8.0,10376887230,1,129642,False,,אשקלון,נווה שלום,,1296-42-63,1296/42,8008.982035928144,31.6624106315,34.5794228872,2015
2015-12-17,2015-12-17,"הגת 29, אשקלון",הגת 29,2754-18-24,דירה בבית קומות,4.0,תשיעית,110.0,1510000,,,2010.0,,9.0,10377488430,1,275418,False,25% ב 5.2 שנים,אשקלון,הגת,4.81,2754-18-24,2754/18,13727.272727272728,31.6920245673,34.5812187983,2015
2015-12-17,2015-12-17,"נווה שלום 8, אשקלון",נווה שלום 8,1296-13-44,דירה בבית קומות,3.0,שישית,74.8,790000,,,1990.0,,6.0,10376884170,1,129613,False,152% ב 8.5 שנים,אשקלון,נווה שלום,17.88,1296-13-44,1296/13,10561.497326203207,31.6624648909,34.5763778817,2015
2015-12-17,2015-12-17,"חיים סלע 6, אשקלון",חיים סלע 6,1935-234-1,דירה בבית קומות,5.0,רביעית,130.0,1475000,,,2015.0,,2.0,10441047240,1,1935234,False,,אשקלון,סלע חיים,,1935-234-1,1935/234,11346.153846153846,31.6905782918,34.5756791357,2015
2015-12-17,2015-12-17,,,2754-153-20,דירה,4.0,ראשונה,108.0,1160000,1.0,ב. מישל בכרם,,,,11181208055,2,2754153,False,,אשקלון,ביכורי ענבים,,2754-153-20,2754/153,10740.74074074074,31.6914957347,34.5853479351,2015
2015-12-17,2015-12-17,"הגבורה 1, אשקלון",הגבורה 1,1931-197-74,חנות,,,40.0,600000,,,2014.0,,5.0,10441578780,1,1931197,False,,אשקלון,הגבורה,,1931-197-74,1931/197,15000.0,31.6654536303,34.5629594324,2015
2015-12-16,2015-12-16,"צבי סגל 11, אשקלון",צבי סגל 11,1937-234-2,קוטג' דו משפחתי,7.0,ראשונה,128.8,2000000,,,1960.0,,1.0,10376922690,1,1937234,False,,אשקלון,סגל צבי,,1937-234-2,1937/234,15527.950310559005,31.6836554572,34.571452165,2015
2015-12-16,2015-12-16,"אצ""ל 44, אשקלון","אצ""ל 44",1934-109-12,דירה בבית קומות,4.0,ראשונה,86.3,630000,,,1995.0,,9.0,10377002700,1,1934109,False,,אשקלון,"אצ""ל",,1934-109-12,1934/109,7300.115874855157,31.6853704256,34.5775055314,2015
2015-12-16,2015-12-16,,,1225-1-32,דירה בבית קומות,4.0,שישית,120.0,1150000,1.0,פארק רלון,2014.0,,,10376739990,2,12251,False,,אשקלון,לוחמי הגטאות,,1225-1-32,1225/1,9583.333333333334,,,2015
2015-12-16,2015-12-16,"איילה 11, אשקלון",איילה 11,1296-15-10,דירה בבית קומות,3.0,שלישית,74.77,780000,,,1991.0,,6.0,10377073440,1,129615,False,24% ב 2.5 שנים,אשקלון,איילה,9.6,1296-15-10,1296/15,10431.99144041728,31.6622120319,34.5776047339,2015
2015-12-16,2015-12-16,"פקיעין 9, אשקלון",פקיעין 9,2507-9-23,דירה בבית קומות,3.0,שישית,65.3,990000,,,2000.0,,10.0,10377462420,1,25079,False,125% ב 7.9 שנים,אשקלון,פקיעין,15.82,2507-9-23,2507/9,15160.796324655435,31.6687851542,34.5759742888,2015
2015-12-16,2015-12-16,"שבע 3, אשקלון",שבע 3,2871-4-1,קוטג' חד משפחתי,6.0,,220.0,2700000,,,1997.0,,,10377649530,1,28714,False,,אשקלון,שבע,,2871-4-1,2871/4,12272.727272727272,31.6816069418,34.5681110969,2015
2015-12-16,2015-12-16,"גבע 2, אשקלון",גבע 2,2869-21-79,דירה בבית קומות,5.0,ארבע עשרה,113.0,1520000,,,2015.0,,8.0,10377487710,1,286921,False,,אשקלון,גבע,,2869-21-79,2869/21,13451.32743362832,31.6679184514,34.5576730093,2015
2015-12-16,2015-12-16,"ימית 4, אשקלון",ימית 4,3046-108-3,קוטג' דו משפחתי,3.0,,60.0,1100000,,,1992.0,,,10376774190,1,3046108,False,,אשקלון,ימית,,3046-108-3,3046/108,18333.33333333333,31.6766017295,34.5868959204,2015
2015-12-16,2015-12-16,"הציונות 61, אשקלון",הציונות 61,2557-49-8,דירה בבית קומות,3.0,שניה,67.3,975000,,,1999.0,,9.0,10376956890,1,255749,False,35% ב 3.8 שנים,אשקלון,הציונות,9.21,2557-49-8,2557/49,14487.36998514116,31.687315494,34.5805544564,2015
2015-12-15,2015-12-15,"קדש 39, אשקלון",קדש 39,1935-230-71,דירה בבית קומות,4.0,שלישית,109.1,1340000,,,2004.0,,15.0,10440679500,1,1935230,False,35% ב 4.5 שנים,אשקלון,קדש,7.78,1935-230-71,1935/230,12282.30980751604,31.6913989014,34.5748534805,2015
2015-12-15,2015-12-15,"אברהם בלסבלג 2, אשקלון",אברהם בלסבלג 2,2556-20-8,דירה בבית קומות,4.0,שלישית,98.7,1285000,,,2013.0,,15.0,10377332550,1,255620,False,,אשקלון,בלסבלג אברהם,,2556-20-8,2556/20,13019.250253292808,31.6879534516,34.5768535402,2015
2015-12-15,2015-12-15,"אפרים צור 9, אשקלון",אפרים צור 9,1965-99-6,דירה בבית קומות,4.0,שניה,71.7,630000,,,1963.0,,3.0,10376768340,1,196599,False,32% ב 1.5 שנים,אשקלון,צור אפרים,21.33,1965-99-6,1965/99,8786.610878661088,31.6563275355,34.5669971245,2015
2015-12-15,2015-12-15,"פרץ ברנשטיין 23, אשקלון",פרץ ברנשטיין 23,2904-81-213,דירה בבית קומות,4.0,קומה ‎5‏,106.5,1192000,,,2015.0,,11.0,10440318060,1,290481,False,,אשקלון,ברנשטיין פרץ,,2904-81-213,2904/81,11192.488262910798,31.680192209,34.5780865821,2015
2015-12-15,2015-12-15,"חודשי השנה 14, אשקלון",חודשי השנה 14,2855-46-9,דירה בבית קומות,4.0,שלישית,129.98,1265000,,,2012.0,,10.0,10377314730,1,285546,False,30% ב 2.1 שנים,אשקלון,חודשי השנה,14.29,2855-46-9,2855/46,9732.266502538852,31.6741898806,34.5773232351,2015
2015-12-15,2015-12-15,"עולי הגרדום 2, אשקלון",עולי הגרדום 2,3012-2-2,דירה בבית קומות,4.0,קרקע,68.6,680000,,,1970.0,,,10376849250,1,30122,False,,אשקלון,עולי הגרדום,,3012-2-2,3012/2,9912.536443148689,31.6516220491,34.5526584397,2015
2015-12-15,2015-12-15,"בן-גוריון 276, אשקלון",בן-גוריון 276,1963-78-78,דירה בבית קומות,4.0,שלישית,80.4,750000,,,1960.0,,4.0,10440055890,1,196378,False,80% ב 5.3 שנים,אשקלון,בן גוריון,15.09,1963-78-78,1963/78,9328.358208955224,31.6628063362,34.5674341892,2015
2015-12-15,2015-12-15,"אריה 14, אשקלון",אריה 14,1296-16-111,דירה בבית קומות,3.0,רביעית,63.3,720000,,,1990.0,,8.0,10440466380,1,129616,False,,אשקלון,אריה,,1296-16-111,1296/16,11374.40758293839,31.6632713144,34.5775026085,2015
2015-12-15,2015-12-15,,,1225-1-31,דירה,4.0,שניה,110.0,1160000,1.0,פארק רלון,,,,11181184150,2,12251,False,,אשקלון,לוחמי הגטאות,,1225-1-31,1225/1,10545.454545454546,,,2015
2015-12-15,2015-12-15,"טשרניחובסקי 7, אשקלון",טשרניחובסקי 7,1964-57-6,דירה בבית קומות,2.0,שניה,31.7,445000,,,1970.0,,4.0,10440461970,1,196457,False,,אשקלון,טשרניחובסקי,,1964-57-6,1964/57,14037.854889589906,31.6566434885,34.5619097032,2015
2015-12-14,2015-12-14,"גרופית 4, אשקלון",גרופית 4,3051-18-2,דירה בבית קומות,3.0,ראשונה,69.0,1024000,,,1980.0,,1.0,10377353430,1,305118,False,,אשקלון,גרופית,,3051-18-2,3051/18,14840.579710144928,31.6749674719,34.5836539301,2015
2015-12-14,2015-12-14,"משה יוליש 7, אשקלון",משה יוליש 7,3020-9-14,דירה בבית קומות,4.0,שלישית,79.8,610000,,,1970.0,,4.0,10377676260,1,30209,False,29% ב 1.5 שנים,אשקלון,יוליש משה,19.33,3020-9-14,3020/9,7644.110275689223,31.6565812155,34.5541539799,2015
2015-12-14,2015-12-14,"השומר הצעיר 6, אשקלון",השומר הצעיר 6,2391-12-25,דירה בבית קומות,3.0,שניה,59.8,810000,,,1993.0,,6.0,10440095220,1,239112,False,,אשקלון,השומר הצעיר,,2391-12-25,2391/12,13545.150501672242,31.6560001098,34.5705029922,2015
2015-12-14,2015-12-14,"יונתן נתניהו 2, אשקלון",יונתן נתניהו 2,2556-16-42,דירה בבית קומות,4.0,אחת עשרה,113.7,1200000,,,2009.0,,13.0,10441930050,1,255616,False,,אשקלון,נתניהו יונתן,,2556-16-42,2556/16,10554.089709762531,31.6897246031,34.5777787226,2015
2015-12-14,2015-12-14,"חודשי השנה 13, אשקלון",חודשי השנה 13,2855-45-25,דירה בבית קומות,4.0,חמישית,117.0,1230000,,,2012.0,,,10376653230,1,285545,False,,אשקלון,חודשי השנה,,2855-45-25,2855/45,10512.820512820514,31.6745165194,34.5768200324,2015
2015-12-14,2015-12-14,"רחבעם זאבי 14, אשקלון",רחבעם זאבי 14,1935-188-54,דירה בבית קומות,4.0,שלישית,99.0,1400000,,,2008.0,,5.0,10377072720,1,1935188,False,33% ב 3.9 שנים,אשקלון,זאבי רחבעם,8.46,1935-188-54,1935/188,14141.41414141414,31.6964536928,34.5773872813,2015
2015-12-13,2015-12-13,"אברהם בלסבלג 12, אשקלון",אברהם בלסבלג 12,2556-17-97,דירה בבית קומות,5.0,שתים עשרה,188.4,2200000,,,2010.0,,13.0,10377327420,1,255617,False,10% ב 5 שנים,אשקלון,בלסבלג אברהם,2.0,2556-17-97,2556/17,11677.28237791932,31.6894534353,34.5771138991,2015
2015-12-13,2015-12-13,"אשתאול 3, אשקלון",אשתאול 3,2869-30-13,דירה בבית קומות,4.0,שלישית,100.0,1030000,,,1995.0,,3.0,10376632530,1,286930,False,,אשקלון,אשתאול,,2869-30-13,2869/30,10300.0,31.6674116605,34.5583458064,2015
2015-12-13,2015-12-13,"האילן 261, אשקלון",האילן 261,1942-161-62,דירה בבית קומות,4.0,רביעית,96.6,1125000,,,2016.0,,10.0,10441116900,1,1942161,False,,אשקלון,האילן,,1942-161-62,1942/161,11645.962732919255,31.6670601433,34.5638593674,2015
2015-12-13,2015-12-13,,,1225-6-192,דירה בבית קומות,4.0,ראשונה,106.0,938000,,,2010.0,,,10376682210,2,12256,False,,אשקלון,לוחמי הגטאות,,1225-6-192,1225/6,8849.056603773584,,,2015
2015-12-12,2015-12-12,,,1225-6-136,דירה,4.0,ראשונה,110.0,938400,1.0,פארק רלון,,,,11181184236,2,12256,False,,אשקלון,לוחמי הגטאות,,1225-6-136,1225/6,8530.90909090909,,,2015
2015-12-11,2015-11-12,"ההסתדרות 43, אשקלון",ההסתדרות 43,1964-75-9,דירה בבית קומות,3.0,שלישית,40.7,410000,,,1960.0,,3.0,10375263270,1,196475,False,70% ב 5.6 שנים,אשקלון,ההסתדרות,12.5,1964-75-9,1964/75,10073.710073710074,31.6567020247,34.5602446148,2015
2015-12-11,2015-11-12,"נווה שלום 27, אשקלון",נווה שלום 27,1297-7-4,דירה בבית קומות,4.0,ראשונה,80.0,860000,,,1991.0,,9.0,10374315030,1,12977,False,130% ב 12.8 שנים,אשקלון,נווה שלום,10.16,1297-7-4,1297/7,10750.0,31.6632556324,34.5810585914,2015
2015-12-11,2015-11-12,"ברייר דב 9, אשקלון",ברייר דב 9,1932-71-44,דירה בבית קומות,4.0,שישית,99.5,1000000,,,1997.0,,,10374353730,1,193271,False,,אשקלון,ברייר דב,,1932-71-44,1932/71,10050.251256281406,31.6711424666,34.5689222721,2015
2015-12-11,2015-11-12,"הגת 13, אשקלון",הגת 13,2753-153-151,דירה בבית קומות,4.0,שביעית,107.0,1293000,,,2016.0,,9.0,10374684120,1,2753153,False,,אשקלון,הגת,,2753-153-151,2753/153,12084.11214953271,31.6918760386,34.5790445962,2015
2015-12-10,2015-10-12,"כנפי נשרים 5, אשקלון",כנפי נשרים 5,3053-78-20,דירה בבית קומות,4.0,שניה,108.0,1130000,,,2010.0,,9.0,10373614920,1,305378,False,18% ב 2.1 שנים,אשקלון,כנפי נשרים,8.57,3053-78-20,3053/78,10462.962962962964,31.6766098816,34.5792767408,2015
2015-12-10,2015-10-12,,,1225-1-23,דירה,4.0,שביעית,126.0,1175000,1.0,פארק רלון,,,,11181184147,2,12251,False,,אשקלון,לוחמי הגטאות,,1225-1-23,1225/1,9325.396825396823,,,2015
2015-12-10,2015-10-12,,,1966-406-1,דירה בבית קומות,5.0,ראשונה,247.0,2520000,,,2014.0,,,10373089860,2,1966406,False,,אשקלון,אדלר חנה,,1966-406-1,1966/406,10202.42914979757,31.6968664146,34.5844835794,2015
2015-12-10,2015-10-12,"אצ""ל 61, אשקלון","אצ""ל 61",1118-172-2,בית בודד,5.0,,214.0,2450000,,,1995.0,,1.0,10372026690,1,1118172,False,,אשקלון,"אצ""ל",,1118-172-2,1118/172,11448.59813084112,31.6854890398,34.5793058336,2015
2015-12-10,2015-10-12,"אפרים 21, אשקלון",אפרים 21,1207-165-1,קוטג' דו משפחתי,4.0,קרקע,75.0,920000,,,1952.0,,1.0,10373334930,1,1207165,False,,אשקלון,אפרים,,1207-165-1,1207/165,12266.666666666666,31.6555362082,34.5868812464,2015
2015-12-08,2015-08-12,"האילן 11, אשקלון",האילן 11,1961-116-2,דירה בבית קומות,3.0,ראשונה,64.55,1600000,,,1956.0,,1.0,10369227510,1,1961116,False,23% ב 1.5 שנים,אשקלון,האילן,15.33,1961-116-2,1961/116,24786.986831913247,31.6695369562,34.5644625129,2015
2015-12-08,2015-08-12,"משה ובר 1, אשקלון",משה ובר 1,2855-35-26,דירה בבית קומות,5.0,תשיעית,129.05,1395000,,,2005.0,,9.0,10368634680,1,285535,False,,אשקלון,ובר משה,,2855-35-26,2855/35,10809.763657497091,31.67559247,34.5750723066,2015
2015-12-08,2015-08-12,"ברייר דב 1, אשקלון",ברייר דב 1,1942-177-60,דירה בבית קומות,4.0,ראשונה,93.0,1110000,,,2000.0,,9.0,10369193220,1,1942177,False,,אשקלון,ברייר דב,,1942-177-60,1942/177,11935.483870967742,31.6694499419,34.5675342214,2015
2015-12-08,2015-08-12,,,1225-1-18,דירה,4.0,שניה,120.0,1150000,1.0,פארק רלון,,,,11181184145,2,12251,False,,אשקלון,לוחמי הגטאות,,1225-1-18,1225/1,9583.333333333334,,,2015
2015-12-07,2015-07-12,"עמיעוז 9, אשקלון",עמיעוז 9,2843-19-37,דירה בבית קומות,4.0,קרקע,90.0,850000,,,1996.0,,4.0,10365854220,1,284319,False,,אשקלון,עמיעוז,,2843-19-37,2843/19,9444.444444444443,31.6489996758,34.5566420267,2015
2015-12-07,2015-07-12,,,1225-1-227,דירה בבית קומות,4.0,ראשונה,109.0,1080000,1.0,פארק רלון,2016.0,,,10366021260,2,12251,False,,אשקלון,לוחמי הגטאות,,1225-1-227,1225/1,9908.256880733945,,,2015
2015-12-06,2015-06-12,"הגבורה 1, אשקלון",הגבורה 1,1931-197-82,משרד,,שניה,28.0,470000,,,2014.0,,5.0,10365425910,1,1931197,False,,אשקלון,הגבורה,,1931-197-82,1931/197,16785.714285714286,31.6654536303,34.5629594324,2015
2015-12-06,2015-06-12,"ביאליק 42, אשקלון",ביאליק 42,1964-107-18,דירה בבית קומות,2.0,קרקע,30.0,900000,,,1980.0,,3.0,10366610940,1,1964107,False,,אשקלון,ביאליק,,1964-107-18,1964/107,30000.0,31.6561677511,34.5641024075,2015
2015-12-05,2015-05-12,"הגת 13, אשקלון",הגת 13,2753-153-170,דירה בבית קומות,4.0,חמישית,107.0,1258000,,,2016.0,,9.0,10360909800,1,2753153,False,,אשקלון,הגת,,2753-153-170,2753/153,11757.009345794391,31.6918760386,34.5790445962,2015
2015-12-05,2015-05-12,"הרב עוזיאל 137, אשקלון",הרב עוזיאל 137,1963-27-10,דירה בבית קומות,3.0,שניה,40.7,450000,,,1980.0,,3.0,10362752910,1,196327,False,0% ב 1.4 שנים,אשקלון,הרב עוזיאל,0.0,1963-27-10,1963/27,11056.511056511055,31.6594662117,34.5665604283,2015
2015-12-05,2015-05-12,"יהודה הלוי 3, אשקלון",יהודה הלוי 3,1964-102-6,דירה בבית קומות,2.0,שניה,39.0,405000,,,1960.0,,2.0,10361486070,1,1964102,False,0% ב 0.5 שנים,אשקלון,יהודה הלוי,0.0,1964-102-6,1964/102,10384.615384615385,31.6574291487,34.565886808,2015
2015-12-05,2015-05-12,"יוספטל 24, אשקלון",יוספטל 24,1997-96-27,דירה בבית קומות,4.0,שניה,78.6,575000,,,1976.0,,4.0,10363080960,1,199796,False,15% ב 2.2 שנים,אשקלון,יוספטל,6.82,1997-96-27,1997/96,7315.521628498728,31.6510979182,34.5569808263,2015
2015-12-05,2015-05-12,"יהואש 28, אשקלון",יהואש 28,1658-87-1,קוטג' דו משפחתי,3.0,קרקע,66.0,930000,,,1957.0,,1.0,10360850400,1,165887,False,16% ב 1.5 שנים,אשקלון,יהואש,10.67,1658-87-1,1658/87,14090.90909090909,31.6530781606,34.5874253482,2015
2015-12-04,2015-04-12,,,1225-6-135,דירה,5.0,חמישית,120.0,1580000,1.0,פארק רלון,,,,11181184235,2,12256,False,,אשקלון,לוחמי הגטאות,,1225-6-135,1225/6,13166.666666666666,,,2015
2015-12-04,2015-04-12,"ש""י עגנון 12, אשקלון","ש""י עגנון 12",3017-18-24,דירה בבית קומות,4.0,שישית,80.31,555000,,,1970.0,,8.0,10358918550,1,301718,False,90% ב 12.1 שנים,אשקלון,"עגנון ש""י",7.44,3017-18-24,3017/18,6910.720956294359,31.6591486005,34.5586197057,2015
2015-12-04,2015-04-12,"הגת 13, אשקלון",הגת 13,2753-153-7,דירה,5.0,רביעית,132.0,1500000,1.0,כרמי יצחק,2016.0,,9.0,11181207923,1,2753153,False,,אשקלון,הגת,,2753-153-7,2753/153,11363.636363636364,31.6918760386,34.5790445962,2015
2015-12-03,2015-03-12,"אריה 4, אשקלון",אריה 4,1296-8-16,דירה בבית קומות,4.0,רביעית,92.0,760000,,,1990.0,,9.0,10359477540,1,12968,False,,אשקלון,אריה,,1296-8-16,1296/8,8260.869565217392,31.6633706281,34.5756652088,2015
2015-12-03,2015-03-12,"היין 15, אשקלון",היין 15,2754-11-62,דירה בבית קומות,5.0,קומה ‎8‏,141.5,1980000,,,2010.0,,10.0,10356356970,1,275411,False,32% ב 4.3 שנים,אשקלון,היין,7.44,2754-11-62,2754/11,13992.932862190812,31.6940164497,34.5806643522,2015
2015-12-03,2015-03-12,"הגת 13, אשקלון",הגת 13,2753-153-174,דירה בבית קומות,5.0,רביעית,132.0,1385000,,,2016.0,,9.0,10357209270,1,2753153,False,,אשקלון,הגת,,2753-153-174,2753/153,10492.424242424242,31.6918760386,34.5790445962,2015
2015-12-03,2015-03-12,"חיד""א 8, אשקלון","חיד""א 8",1963-25-10,דירה בבית קומות,3.0,ראשונה,40.7,405000,,,1960.0,,3.0,10358007570,1,196325,False,15% ב 4.9 שנים,אשקלון,"חיד""א",3.06,1963-25-10,1963/25,9950.859950859953,31.6597555214,34.5663792008,2015
2015-12-03,2015-03-12,"ביכורי ענבים 33, אשקלון",ביכורי ענבים 33,2754-156-35,דירה בבית קומות,4.0,שישית,118.0,1175000,,,2009.0,,7.0,10356902010,1,2754156,False,,אשקלון,ביכורי ענבים,,2754-156-35,2754/156,9957.627118644068,31.6897374208,34.5845783846,2015
2015-12-03,2015-03-12,"חודשי השנה 7, אשקלון",חודשי השנה 7,2856-26-54,דירה בבית קומות,4.0,שלישית,103.6,1020000,,,2011.0,,9.0,10356988140,1,285626,False,25% ב 2.3 שנים,אשקלון,חודשי השנה,10.87,2856-26-54,2856/26,9845.559845559848,31.6729481071,34.5754920284,2015
2015-12-03,2015-03-12,"ברייר דב 7, אשקלון",ברייר דב 7,1932-72-111,דירה בבית קומות,4.0,שלישית,103.0,995000,,,2008.0,,11.0,10358345520,1,193272,False,,אשקלון,ברייר דב,,1932-72-111,1932/72,9660.194174757282,31.6707478025,34.568352655,2015
2015-12-03,2015-03-12,"מודיעין 5, אשקלון",מודיעין 5,1940-68-235,דירה בבית קומות,5.0,רביעית,139.0,1480000,,,2021.0,,16.0,10358378820,1,194068,False,,אשקלון,מודיעין,,1940-68-235,1940/68,10647.48201438849,31.6775411974,34.5579888036,2015
2015-12-02,2015-02-12,"יורם ורון 1, אשקלון",יורם ורון 1,1942-186-4,דירה בבית קומות,3.0,ראשונה,82.1,900000,,,2011.0,,12.0,10355385780,1,1942186,False,,אשקלון,ורון יורם,,1942-186-4,1942/186,10962.241169305726,31.6682903925,34.5687222583,2015
2015-12-02,2015-02-12,"הציונות 69, אשקלון",הציונות 69,2557-46-15,דירה בבית קומות,5.0,רביעית,113.4,1130000,,,2001.0,,9.0,10355508900,1,255746,False,84% ב 10.5 שנים,אשקלון,הציונות,8.0,2557-46-15,2557/46,9964.726631393298,31.6884233444,34.5809567493,2015
2015-12-02,2015-02-12,"טופז 7, אשקלון",טופז 7,1937-460-2,קוטג' חד משפחתי,6.0,ראשונה,204.0,2400000,,,1900.0,,1.0,10354408650,1,1937460,False,,אשקלון,טופז,,1937-460-2,1937/460,11764.70588235294,31.6879652739,34.5698596197,2015
2015-12-01,2015-01-12,"דיזרעאלי 14, אשקלון",דיזרעאלי 14,2557-40-5,דירה בבית קומות,5.0,"מרתף ‎-1‏, קומה ‎0‏",157.8,1685000,,,2001.0,,1.0,10351629270,1,255740,False,68% ב 6.5 שנים,אשקלון,דיזראלי,10.46,2557-40-5,2557/40,10678.073510773129,31.6879725661,34.5837529713,2015
2015-12-01,2015-01-12,"שילה 2, אשקלון",שילה 2,2869-54-96,דירה בבית קומות,4.0,רביעית,105.5,1050000,,,2011.0,,20.0,10352846430,1,286954,False,,אשקלון,שילה,,2869-54-96,2869/54,9952.60663507109,31.6692019396,34.5566279356,2015
2015-11-30,2015-11-30,"מור 6, אשקלון",מור 6,1929-276-25,דירה בבית קומות,5.0,שניה,97.0,940000,,,1998.0,,5.0,10376734770,1,1929276,False,113% ב 8.4 שנים,אשקלון,מור,13.45,1929-276-25,1929/276,9690.721649484536,31.6585495809,34.559629468,2015
2015-11-30,2015-11-30,,,1225-1-29,דירת גן,12.0,תשיעית,114.0,1580000,1.0,פארק רלון,2014.0,,,10375394580,2,12251,False,,אשקלון,לוחמי הגטאות,,1225-1-29,1225/1,13859.649122807015,,,2015
2015-11-30,2015-11-30,"איילה 13, אשקלון",איילה 13,1296-15-31,דירה בבית קומות,4.0,שלישית,70.87,790000,,,1992.0,,6.0,10375929180,1,129615,False,102% ב 17.7 שנים,אשקלון,איילה,5.76,1296-15-31,1296/15,11147.170876252292,31.6622120319,34.5776047339,2015
2015-11-30,2015-11-30,"יעקב מרידור 13, אשקלון",יעקב מרידור 13,2904-81-91,דירה בבית קומות,5.0,קומה ‎4‏,125.6,1351000,,,2015.0,,10.0,10377483930,1,290481,False,,אשקלון,מרידור יעקב,,2904-81-91,2904/81,10756.369426751591,31.680192209,34.5780865821,2015
2015-11-29,2015-11-29,"גדעון בן-יואש 40, אשקלון",גדעון בן-יואש 40,1937-422-11,דירה בבית קומות,4.0,שלישית,107.6,820000,,,1980.0,,6.0,10375923330,1,1937422,False,71% ב 10.3 שנים,אשקלון,גדעון בן יואש,6.89,1937-422-11,1937/422,7620.817843866172,31.6900814908,34.5720715428,2015
2015-11-29,2015-11-29,"בלפור 41, אשקלון",בלפור 41,2557-44-55,דירה בבית קומות,4.0,חמישית,95.25,1330000,,,2008.0,,9.0,10375927020,1,255744,False,166% ב 8.4 שנים,אשקלון,בלפור,19.76,2557-44-55,2557/44,13963.254593175852,31.689709805,34.580359485,2015
2015-11-29,2015-11-29,"פקיעין 9, אשקלון",פקיעין 9,2507-9-72,דירה בבית קומות,3.0,שביעית,72.2,930000,,,2000.0,,10.0,10377384390,1,25079,False,151% ב 11.1 שנים,אשקלון,פקיעין,13.6,2507-9-72,2507/9,12880.886426592797,31.6687851542,34.5759742888,2015
2015-11-29,2015-11-29,"קדש 25, אשקלון",קדש 25,2556-3-31,דירה בבית קומות,4.0,שביעית,107.82,1335000,,,2011.0,,9.0,10376016840,1,25563,False,39% ב 2.9 שנים,אשקלון,קדש,13.45,2556-3-31,2556/3,12381.74735670562,31.690489637,34.5777323705,2015
2015-11-29,2015-11-29,"הטייסים 61, אשקלון",הטייסים 61,1941-107-2,דירת גן,5.0,קרקע,114.2,1485000,,,1990.0,,4.0,10375915950,1,1941107,False,,אשקלון,הטייסים,,1941-107-2,1941/107,13003.502626970228,31.6774448009,34.561492303,2015
2015-11-29,2015-11-29,"משה שרת 38, אשקלון",משה שרת 38,1934-119-21,דירה בבית קומות,4.0,חמישית,97.23,1000000,,,1997.0,,9.0,10375359120,1,1934119,False,92% ב 7.3 שנים,אשקלון,שרת משה,12.6,1934-119-21,1934/119,10284.891494394731,31.6836673204,34.5774738056,2015
2015-11-27,2015-11-27,"הברוש 26, אשקלון",הברוש 26,1961-141-2,קוטג' דו משפחתי,3.0,ראשונה,64.55,1749000,,,1959.0,,1.0,10375104510,1,1961141,False,66% ב 5.3 שנים,אשקלון,הברוש,12.45,1961-141-2,1961/141,27095.274980635168,31.6685291661,34.5631088167,2015
2015-11-27,2015-11-27,"נווה שלום 22, אשקלון",נווה שלום 22,1297-8-13,דירה בבית קומות,4.0,רביעית,83.3,885000,,,1992.0,,9.0,10375966440,1,12978,False,26% ב 2 שנים,אשקלון,נווה שלום,13.0,1297-8-13,1297/8,10624.249699879952,31.6625982037,34.5802016579,2015
2015-11-27,2015-11-27,,,2754-153-67,דירה בבית קומות,5.0,שלישית,126.0,1255000,,,2015.0,,,10376494290,2,2754153,False,,אשקלון,ביכורי ענבים,,2754-153-67,2754/153,9960.31746031746,31.6914957347,34.5853479351,2015
2015-11-26,2015-11-26,"יהודה הלוי 17, אשקלון",יהודה הלוי 17,1964-71-10,דירה בבית קומות,2.0,שלישית,31.7,475000,,,1960.0,,4.0,10376224830,1,196471,False,37% ב 4 שנים,אשקלון,יהודה הלוי,9.25,1964-71-10,1964/71,14984.22712933754,31.6576726667,34.5609707714,2015
2015-11-26,2015-11-26,,,2754-153-18,דירה,5.0,שלישית,126.0,1250000,1.0,ב. מישל בכרם,,,,11181208052,2,2754153,False,,אשקלון,ביכורי ענבים,,2754-153-18,2754/153,9920.63492063492,31.6914957347,34.5853479351,2015
2015-11-26,2015-11-26,"אלמוג 22, אשקלון",אלמוג 22,2432-42-1,קוטג' חד משפחתי,5.0,ראשונה,188.0,1200000,,,1991.0,,1.0,10440161370,1,243242,False,,אשקלון,אלמוג,,2432-42-1,2432/42,6382.978723404255,31.6567517169,34.5495877066,2015
2015-11-26,2015-11-26,"מגידו 5, אשקלון",מגידו 5,2507-7-77,דירה בבית קומות,4.0,רביעית,90.2,1125000,,,2005.0,,14.0,10375148880,1,25077,False,106% ב 7.7 שנים,אשקלון,מגידו,13.77,2507-7-77,2507/7,12472.283813747228,31.6673218402,34.5747528889,2015
2015-11-25,2015-11-25,"הצופים 5, אשקלון",הצופים 5,2390-46-11,דירה בבית קומות,3.0,שלישית,79.0,850000,,,1996.0,,6.0,10375298910,1,239046,False,41% ב 3.7 שנים,אשקלון,הצופים,11.08,2390-46-11,2390/46,10759.493670886077,31.6607781871,34.5712480029,2015
2015-11-25,2015-11-25,"עולי הגרדום 88, אשקלון",עולי הגרדום 88,2843-47-24,דירה בבית קומות,3.5,שלישית,76.1,700000,,,1996.0,,3.0,10375860240,1,284347,False,112% ב 6.5 שנים,אשקלון,עולי הגרדום,17.23,2843-47-24,2843/47,9198.423127463864,31.6462002773,34.5555031385,2015
2015-11-25,2015-11-25,"האילן 261, אשקלון",האילן 261,1942-161-79,דירה בבית קומות,4.0,שביעית,106.3,1268000,,,2016.0,,10.0,10376385930,1,1942161,False,,אשקלון,האילן,,1942-161-79,1942/161,11928.504233301976,31.6670601433,34.5638593674,2015
2015-11-25,2015-11-25,"חופני 3, אשקלון",חופני 3,1655-118-3,קוטג' טורי,6.0,קרקע,100.0,1180000,,,1980.0,,2.0,10377671760,1,1655118,False,268% ב 17 שנים,אשקלון,חפני,15.76,1655-118-3,1655/118,11800.0,31.6562505845,34.5790427464,2015
2015-11-25,2015-11-25,"חובבי ציון 2, אשקלון",חובבי ציון 2,1998-13-2,דירה בבית קומות,4.0,ראשונה,64.0,670000,,,1970.0,,3.0,10375122150,1,199813,False,,אשקלון,חובבי ציון,,1998-13-2,1998/13,10468.75,31.654697551,34.5566807199,2015
2015-11-25,2015-11-25,"שילה 1, אשקלון",שילה 1,2869-8-70,דירה בבית קומות,4.0,ראשונה,115.0,1055000,,,2000.0,,13.0,10440794700,1,28698,False,,אשקלון,שילה,,2869-8-70,2869/8,9173.91304347826,31.6698945024,34.5563490531,2015
2015-11-24,2015-11-24,"האילן 261, אשקלון",האילן 261,1942-161-59,דירה בבית קומות,4.0,שלישית,106.3,1183000,,,2016.0,,10.0,10376366670,1,1942161,False,,אשקלון,האילן,,1942-161-59,1942/161,11128.880526810914,31.6670601433,34.5638593674,2015
2015-11-24,2015-11-24,"האילן 261, אשקלון",האילן 261,1942-161-77,דירה בבית קומות,4.0,שביעית,96.6,1140000,,,2016.0,,10.0,10375474770,1,1942161,False,,אשקלון,האילן,,1942-161-77,1942/161,11801.242236024846,31.6670601433,34.5638593674,2015
2015-11-24,2015-11-24,"שילה 1, אשקלון",שילה 1,2869-8-17,דירה בבית קומות,4.0,שלוש עשרה,90.0,840000,,,2000.0,,13.0,10376209890,1,28698,False,,אשקלון,שילה,,2869-8-17,2869/8,9333.333333333334,31.6698945024,34.5563490531,2015
2015-11-24,2015-11-24,"יונתן נתניהו 6, אשקלון",יונתן נתניהו 6,2556-14-4,דירה בבית קומות,5.0,ראשונה,124.78,1330000,,,2009.0,,14.0,10374693750,1,255614,False,23% ב 2.9 שנים,אשקלון,נתניהו יונתן,7.93,2556-14-4,2556/14,10658.759416573168,31.6889528319,34.5785167582,2015
2015-11-23,2015-11-23,"אורט 16, אשקלון",אורט 16,1932-74-16,דירה בבית קומות,5.0,שמינית,114.8,1370000,,,2008.0,,11.0,10374760530,1,193274,False,110% ב 7.4 שנים,אשקלון,אורט,14.86,1932-74-16,1932/74,11933.797909407664,31.6705763129,34.5681175211,2015
2015-11-23,2015-11-23,"הגת 13, אשקלון",הגת 13,2753-153-149,דירה בבית קומות,4.0,שישית,107.0,1300000,,,2016.0,,9.0,10375783740,1,2753153,False,,אשקלון,הגת,,2753-153-149,2753/153,12149.532710280371,31.6918760386,34.5790445962,2015
2015-11-23,2015-11-23,"אשתאול 1, אשקלון",אשתאול 1,2869-28-278,דירה בבית קומות,5.0,תשיעית,140.0,1041000,,,2000.0,,20.0,10376738550,1,286928,False,,אשקלון,אשתאול,,2869-28-278,2869/28,7435.714285714285,31.667375096,34.5578269375,2015
2015-11-23,2015-11-23,"מודיעין 5, אשקלון",מודיעין 5,1940-68-71,דירה,4.0,ראשונה,105.0,1430000,1.0,גני אפגד,2021.0,,16.0,11181201515,1,194068,False,,אשקלון,מודיעין,,1940-68-71,1940/68,13619.047619047618,31.6775411974,34.5579888036,2015
2015-11-23,2015-11-23,"סמולנסקין 1, אשקלון",סמולנסקין 1,1996-121-7,דירה בבית קומות,2.0,ראשונה,41.8,400000,,,1960.0,,1.0,10376614710,1,1996121,False,,אשקלון,סמולנסקין,,1996-121-7,1996/121,9569.377990430625,31.6550316647,34.5603043344,2015
2015-11-23,2015-11-23,"ש""י עגנון 22, אשקלון","ש""י עגנון 22",1944-185-2,דירה בבית קומות,4.0,קרקע,86.3,1120000,,,1998.0,,9.0,10375059780,1,1944185,False,140% ב 16.8 שנים,אשקלון,"עגנון ש""י",8.33,1944-185-2,1944/185,12977.983777520278,31.6600779926,34.5572929341,2015
2015-11-23,2015-11-23,"ביאליק 52, אשקלון",ביאליק 52,1964-65-3,דירה בבית קומות,3.0,ראשונה,40.7,680000,,,1970.0,,3.0,10374796890,1,196465,False,,אשקלון,ביאליק,,1964-65-3,1964/65,16707.616707616708,31.6562801798,34.5610044411,2015
2015-11-23,2015-11-23,"אריה 14, אשקלון",אריה 14,1296-16-102,דירה בבית קומות,3.0,שניה,63.3,629000,,,1990.0,,8.0,10376687430,1,129616,False,36% ב 2.3 שנים,אשקלון,אריה,15.65,1296-16-102,1296/16,9936.808846761454,31.6632713144,34.5775026085,2015
2015-11-22,2015-11-22,"השריונאים 2, אשקלון",השריונאים 2,2870-44-2,קוטג' דו משפחתי,6.0,,190.0,2400000,,,2002.0,,2.0,10375330140,1,287044,False,,אשקלון,השריונאים,,2870-44-2,2870/44,12631.578947368422,31.6802085298,34.562266052,2015
2015-11-22,2015-11-22,"מודיעין 5, אשקלון",מודיעין 5,1940-68-213,דירה בבית קומות,5.0,שמינית,277.0,2226000,,,2021.0,,16.0,10377136530,1,194068,False,,אשקלון,מודיעין,,1940-68-213,1940/68,8036.101083032491,31.6775411974,34.5579888036,2015
2015-11-22,2015-11-22,"ש""י עגנון 14, אשקלון","ש""י עגנון 14",3017-19-28,דירה בבית קומות,4.0,שביעית,80.31,530000,,,1970.0,,8.0,10374536430,1,301719,False,70% ב 6.6 שנים,אשקלון,"עגנון ש""י",10.61,3017-19-28,3017/19,6599.427219524343,31.6591040132,34.5581966254,2015
2015-11-22,2015-11-22,"אשתאול 1, אשקלון",אשתאול 1,2869-28-49,דירה,5.0,שש עשרה,138.0,1041000,1.0,High מול הים אשקלון,2000.0,,20.0,11181209245,1,286928,False,,אשקלון,אשתאול,,2869-28-49,2869/28,7543.478260869565,31.667375096,34.5578269375,2015
2015-11-22,2015-11-22,"יפתח 5, אשקלון",יפתח 5,1655-77-8,דירה בבית קומות,3.0,,58.0,580000,,,1970.0,,1.0,10374552810,1,165577,False,,אשקלון,יפתח,,1655-77-8,1655/77,10000.0,31.6548510867,34.5809135526,2015
2015-11-22,2015-11-22,"אשתאול 1, אשקלון",אשתאול 1,2869-28-50,דירה,5.0,תשיעית,113.0,1405000,1.0,High מול הים אשקלון,2000.0,,20.0,11181209247,1,286928,False,,אשקלון,אשתאול,,2869-28-50,2869/28,12433.628318584071,31.667375096,34.5578269375,2015
2015-11-22,2015-11-22,"יעקב מרידור 13, אשקלון",יעקב מרידור 13,2904-81-62,דירה בבית קומות,5.0,קומה ‎3‏,125.6,1338000,,,2015.0,,10.0,10376524080,1,290481,False,,אשקלון,מרידור יעקב,,2904-81-62,2904/81,10652.866242038215,31.680192209,34.5780865821,2015
2015-11-21,2015-11-21,"מודיעין 5, אשקלון",מודיעין 5,1940-68-70,דירה,5.0,שמינית,150.0,2226000,1.0,גני אפגד,2021.0,,16.0,11181201514,1,194068,False,,אשקלון,מודיעין,,1940-68-70,1940/68,14840.0,31.6775411974,34.5579888036,2015
2015-11-19,2015-11-19,"קדש 23, אשקלון",קדש 23,2556-2-68,דירה בבית קומות,4.0,שמינית,92.89,1180000,,,2010.0,,9.0,10374946920,1,25562,False,0% ב 0.6 שנים,אשקלון,קדש,0.0,2556-2-68,2556/2,12703.197330175475,31.6902651735,34.5785226356,2015
2015-11-19,2015-11-19,"שילה 1, אשקלון",שילה 1,2869-8-71,דירה בבית קומות,4.0,חמישית,84.0,975000,,,2000.0,,13.0,10374995970,1,28698,False,,אשקלון,שילה,,2869-8-71,2869/8,11607.142857142857,31.6698945024,34.5563490531,2015
2015-11-19,2015-11-19,"ש""י עגנון 13, אשקלון","ש""י עגנון 13",3019-13-32,דירה בבית קומות,2.0,רביעית,47.0,300000,,,1970.0,,4.0,10374868170,1,301913,False,0% ב 1.5 שנים,אשקלון,"עגנון ש""י",0.0,3019-13-32,3019/13,6382.978723404255,31.658414741,34.5577554149,2015
2015-11-19,2015-11-19,"ביכורי ענבים 41, אשקלון",ביכורי ענבים 41,2754-159-35,דירה בבית קומות,5.0,"עשירית, אחת עשרה",139.45,1400000,,,2005.0,,10.0,10374798510,1,2754159,False,14% ב 1.7 שנים,אשקלון,ביכורי ענבים,8.24,2754-159-35,2754/159,10039.440659734671,31.6895704662,34.5831659222,2015
2015-11-19,2015-11-19,"הטייסים 79, אשקלון",הטייסים 79,1941-110-184,דירה בבית קומות,2.5,שמינית,60.8,805000,,,1995.0,,10.0,10374776910,1,1941110,False,138% ב 9.5 שנים,אשקלון,הטייסים,14.53,1941-110-184,1941/110,13240.131578947368,31.6759875217,34.5602576601,2015
2015-11-19,2015-11-19,"נווה שלום 22, אשקלון",נווה שלום 22,1297-8-3,דירה בבית קומות,4.0,ראשונה,89.2,920000,,,1992.0,,9.0,10374537150,1,12978,False,,אשקלון,נווה שלום,,1297-8-3,1297/8,10313.90134529148,31.6625982037,34.5802016579,2015
2015-11-19,2015-11-19,"איילה 7, אשקלון",איילה 7,1296-42-26,דירה בבית קומות,4.0,שביעית,95.2,870000,,,1992.0,,8.0,10377382320,1,129642,False,,אשקלון,איילה,,1296-42-26,1296/42,9138.655462184874,31.6624106315,34.5794228872,2015
2015-11-19,2015-11-19,"עליית הנוער 700, אשקלון",עליית הנוער 700,2390-38-24,חנות,,קרקע,,100000,,,1970.0,,1.0,10377128340,1,239038,False,,אשקלון,עלית הנוער,,2390-38-24,2390/38,,31.6596958609,34.5705516135,2015
2015-11-19,2015-11-19,"הגת 13, אשקלון",הגת 13,2753-153-150,דירה בבית קומות,4.0,שתים עשרה,107.0,1293000,,,2016.0,,9.0,10374684840,1,2753153,False,,אשקלון,הגת,,2753-153-150,2753/153,12084.11214953271,31.6918760386,34.5790445962,2015
2015-11-19,2015-11-19,"מגידו 1, אשקלון",מגידו 1,2507-6-62,דירת גן,5.0,קרקע,111.6,1279000,,,2004.0,,15.0,10375105230,1,25076,False,122% ב 11.9 שנים,אשקלון,מגידו,10.25,2507-6-62,2507/6,11460.57347670251,31.6663950193,34.5747620238,2015
2015-11-18,2015-11-18,"קדש 2, אשקלון",קדש 2,2754-157-54,דירה בבית קומות,5.0,ראשונה,117.0,1380000,,,2013.0,,8.0,10375395300,1,2754157,False,,אשקלון,קדש,,2754-157-54,2754/157,11794.871794871797,31.6892810157,34.5841206984,2015
2015-11-18,2015-11-18,"ירושלים 137, אשקלון",ירושלים 137,1935-191-33,דירת גן,4.0,ראשונה,115.0,1500000,,,2008.0,,5.0,10377059310,1,1935191,False,,אשקלון,ירושלים,,1935-191-33,1935/191,13043.478260869566,31.6953826329,34.5774718751,2015
2015-11-18,2015-11-18,"עתניאל 10, אשקלון",עתניאל 10,1937-252-1,דירה בבית קומות,6.0,"קרקע,ראשונה",157.1,2700000,,,1991.0,,2.0,10374790320,1,1937252,False,25% ב 4.5 שנים,אשקלון,עתניאל,5.56,1937-252-1,1937/252,17186.50541056652,31.6847839752,34.5710890562,2015
2015-11-18,2015-11-18,"בגין מנחם 20, אשקלון",בגין מנחם 20,1353-48-9,דירה בבית קומות,3.0,קרקע,67.5,865000,,,1992.0,,3.0,10374270480,1,135348,False,44% ב 5.4 שנים,אשקלון,בגין מנחם,8.15,1353-48-9,1353/48,12814.814814814816,31.6732324453,34.5830071529,2015
2015-11-18,2015-11-18,"בלפור 37, אשקלון",בלפור 37,2557-45-38,דירת גן,5.0,קרקע,110.85,1660000,,,2010.0,,9.0,10375142220,1,255745,False,127% ב 6.4 שנים,אשקלון,בלפור,19.84,2557-45-38,2557/45,14975.191700496169,31.6899535556,34.5795538906,2015
2015-11-17,2015-11-17,"יעקב מרידור 8, אשקלון",יעקב מרידור 8,2904-32-78,דירה בבית קומות,5.0,קומה ‎1‏,107.7,1240000,,,2016.0,,10.0,10375211970,1,290432,False,,אשקלון,מרידור יעקב,,2904-32-78,2904/32,11513.463324048282,31.6801457292,34.5794603934,2015
2015-11-16,2015-11-16,"אריה עוזר 12, אשקלון",אריה עוזר 12,2855-37-12,דירה בבית קומות,5.0,שלישית,126.8,1288000,,,2009.0,,9.0,10375402770,1,285537,False,67% ב 6 שנים,אשקלון,עוזר אריה,11.17,2855-37-12,2855/37,10157.728706624606,31.6733848322,34.5745544004,2015
2015-11-16,2015-11-16,"העבודה 10, אשקלון",העבודה 10,1994-22-3,דירה בבית קומות,5.0,ראשונה,102.2,750000,,,1960.0,,1.0,10375991010,1,199422,False,,אשקלון,העבודה,,1994-22-3,1994/22,7338.5518590998045,31.6663262587,34.5919527067,2015
2015-11-16,2015-11-16,"שיבת ציון 25, אשקלון",שיבת ציון 25,1655-7-1,קוטג' דו משפחתי,4.0,קרקע,111.0,1190000,,,1960.0,,1.0,10374741360,1,16557,False,,אשקלון,שיבת ציון,,1655-7-1,1655/7,10720.72072072072,31.6566450684,34.5811222058,2015
2015-11-16,2015-11-16,"סיוון 13, אשקלון",סיוון 13,1353-75-13,דירה בבית קומות,3.0,שניה,67.5,735000,,,1998.0,,3.0,10374166620,1,135375,False,,אשקלון,סיון,,1353-75-13,1353/75,10888.888888888889,31.6709951799,34.5794656718,2015
2015-11-16,2015-11-16,"עמיעד 30, אשקלון",עמיעד 30,3047-44-2,דירה בבית קומות,3.0,,60.0,1165000,,,1991.0,,1.0,10375543260,1,304744,False,,אשקלון,עמיעד,,3047-44-2,3047/44,19416.666666666668,31.676484747,34.5842025096,2015
2015-11-16,2015-11-16,"ביכורי ענבים 27, אשקלון",ביכורי ענבים 27,2754-155-66,דירה בבית קומות,4.0,שלישית,101.0,1220000,,,2014.0,,10.0,10377116370,1,2754155,False,,אשקלון,ביכורי ענבים,,2754-155-66,2754/155,12079.20792079208,31.6905818725,34.5849589842,2015
2015-11-16,2015-11-16,,,1225-6-194,דירה בבית קומות,4.0,שביעית,120.0,1290000,,,2013.0,,,10374168780,2,12256,False,,אשקלון,לוחמי הגטאות,,1225-6-194,1225/6,10750.0,,,2015
2015-11-16,2015-11-16,"בלפור 3, אשקלון",בלפור 3,2556-10-103,דירה בבית קומות,5.0,שלוש עשרה,120.1,1500000,,,2010.0,,15.0,10375305480,1,255610,False,7% ב 2.9 שנים,אשקלון,בלפור,2.41,2556-10-103,2556/10,12489.592006661116,31.6867352419,34.575301333,2015
2015-11-16,2015-11-16,"נפתלי 3, אשקלון",נפתלי 3,1658-23-1,דירה בבית קומות,3.0,קרקע,83.0,930000,,,1982.0,,1.0,10376827650,1,165823,False,3% ב 1.5 שנים,אשקלון,נפתלי,2.0,1658-23-1,1658/23,11204.819277108434,31.6513424065,34.5862821121,2015
2015-11-15,2015-11-15,"י""ל פרץ 4, אשקלון","י""ל פרץ 4",1964-52-6,דירה בבית קומות,4.0,שניה,80.0,675000,,,1970.0,,3.0,10375542540,1,196452,False,,אשקלון,"י""ל פרץ",,1964-52-6,1964/52,8437.5,31.6570416698,34.5625003108,2015
2015-11-15,2015-11-15,"בית השואבה 10, אשקלון",בית השואבה 10,1234-84-15,חנות,,קרקע,28.9,320000,,,1978.0,,,10377628830,1,123484,False,,אשקלון,בית השואבה,,1234-84-15,1234/84,11072.664359861592,31.6676716769,34.5832719764,2015
2015-11-15,2015-11-15,"דוד רזיאל 26, אשקלון",דוד רזיאל 26,2383-39-5,דירה בבית קומות,3.5,ראשונה,83.0,620000,,,1970.0,,3.0,10375922610,1,238339,False,55% ב 0.2 שנים,אשקלון,רזיאל דוד,275.0,2383-39-5,2383/39,7469.879518072289,31.6692556199,34.5943251207,2015
2015-11-15,2015-11-15,"החבצלת 61, אשקלון",החבצלת 61,1959-118-2,קוטג' דו משפחתי,3.0,ראשונה,67.7,1800000,,,1985.0,,1.0,10375261830,1,1959118,False,,אשקלון,החבצלת,,1959-118-2,1959/118,26587.887740029542,31.677631329,34.5692157696,2015
2015-11-15,2015-11-15,"אריה 10, אשקלון",אריה 10,1296-9-7,דירה בבית קומות,4.0,שניה,70.75,830000,,,1990.0,,8.0,10374134490,1,12969,False,62% ב 5.8 שנים,אשקלון,אריה,10.69,1296-9-7,1296/9,11731.448763250884,31.6634124972,34.5764498925,2015
2015-11-15,2015-11-15,"היין 4, אשקלון",היין 4,2753-140-43,דירה בבית קומות,4.0,שלישית,108.0,1225000,,,2010.0,,8.0,10374150240,1,2753140,False,,אשקלון,היין,,2753-140-43,2753/140,11342.592592592591,31.6930937032,34.578153182,2015
2015-11-13,2015-11-13,"בית אל 5, אשקלון",בית אל 5,2869-37-6,דירה בבית קומות,4.0,ראשונה,102.0,1000000,,,1990.0,,3.0,10374996690,1,286937,False,0% ב 4.5 שנים,אשקלון,בית אל,0.0,2869-37-6,2869/37,9803.921568627453,31.667273712,34.5594356456,2015
2015-11-13,2015-11-13,"קדש 9, אשקלון",קדש 9,2557-4-39,דירה בבית קומות,6.0,תשיעית,205.0,2000000,,,2009.0,,5.0,10377496620,1,25574,False,,אשקלון,קדש,,2557-4-39,2557/4,9756.09756097561,31.6890864082,34.5822508686,2015
2015-11-13,2015-11-13,"בנימין 20, אשקלון",בנימין 20,1658-76-17,דירה בבית קומות,3.0,ראשונה,58.0,520000,,,1970.0,,4.0,10376733420,1,165876,False,138% ב 13 שנים,אשקלון,בנימין,10.62,1658-76-17,1658/76,8965.51724137931,31.6504443455,34.587210108,2015
2015-11-11,2015-11-11,"טשרניחובסקי 9, אשקלון",טשרניחובסקי 9,1964-58-15,דירה בבית קומות,2.0,רביעית,31.7,400000,,,1960.0,,4.0,10374167340,1,196458,False,,אשקלון,טשרניחובסקי,,1964-58-15,1964/58,12618.296529968457,31.6564016322,34.5618530982,2015
2015-11-11,2015-11-11,"השייטת 2, אשקלון",השייטת 2,1941-111-108,דירה בבית קומות,4.0,שמינית,100.15,1325000,,,2010.0,,10.0,10374808140,1,1941111,False,74% ב 6.6 שנים,אשקלון,השייטת,11.21,1941-111-108,1941/111,13230.154767848227,31.6751537579,34.5595724786,2015
2015-11-11,2015-11-11,"שורשים 31, אשקלון",שורשים 31,2753-17-1,קוטג' דו משפחתי,6.0,ראשונה,295.0,2830000,,,2009.0,,1.0,10374199200,1,275317,False,,אשקלון,שורשים,,2753-17-1,2753/17,9593.22033898305,31.6957293082,34.5810670948,2015
2015-11-11,2015-11-11,"קדש 2, אשקלון",קדש 2,2754-157-55,דירה בבית קומות,5.0,שניה,117.0,1375000,,,2013.0,,8.0,10375398360,1,2754157,False,,אשקלון,קדש,,2754-157-55,2754/157,11752.136752136752,31.6892810157,34.5841206984,2015
2015-11-11,2015-11-11,"הגת 13, אשקלון",הגת 13,2753-153-152,דירה בבית קומות,4.0,שביעית,107.0,1289000,,,2016.0,,9.0,10374681870,1,2753153,False,,אשקלון,הגת,,2753-153-152,2753/153,12046.728971962615,31.6918760386,34.5790445962,2015
2015-11-11,2015-11-11,"אשתאול 1, אשקלון",אשתאול 1,2869-28-280,דירה בבית קומות,4.0,שלישית,113.0,1210000,,,2000.0,,20.0,10374260130,1,286928,False,,אשקלון,אשתאול,,2869-28-280,2869/28,10707.964601769912,31.667375096,34.5578269375,2015
2015-11-11,2015-11-11,"בית""ר 3, אשקלון","בית""ר 3",2390-15-30,דירה בבית קומות,3.0,שמינית,75.95,790000,,,1993.0,,9.0,10374723540,1,239015,False,38% ב 4.3 שנים,אשקלון,"בית""ר",8.84,2390-15-30,2390/15,10401.579986833443,31.6611604761,34.5701813113,2015
2015-11-11,2015-11-11,"מבצע משה 36, אשקלון",מבצע משה 36,3046-37-2,קוטג' דו משפחתי,5.0,ראשונה,173.0,1900000,,,1992.0,,1.0,10373870970,1,304637,False,,אשקלון,מבצע משה,,3046-37-2,3046/37,10982.658959537572,31.67734714,34.5880607966,2015
2015-11-11,2015-11-11,"הר כנען 17, אשקלון",הר כנען 17,1934-224-26,דירה בבית קומות,4.0,ראשונה,76.0,790000,,,1980.0,,6.0,10374821460,1,1934224,False,25% ב 2.5 שנים,אשקלון,הר כנען,10.0,1934-224-26,1934/224,10394.736842105263,31.6833717206,34.5762925869,2015
2015-11-11,2015-11-11,"חודשי השנה 12, אשקלון",חודשי השנה 12,2855-49-3,דירה בבית קומות,5.0,ראשונה,133.3,1355000,,,2012.0,,9.0,10374775290,1,285549,False,54% ב 2.8 שנים,אשקלון,חודשי השנה,19.29,2855-49-3,2855/49,10165.041260315078,31.6734615192,34.5765063262,2015
2015-11-11,2015-11-11,"הדרור 64, אשקלון",הדרור 64,1958-85-2,קוטג' דו משפחתי,4.0,ראשונה,74.1,1449000,,,1970.0,,1.0,10373972670,1,195885,False,,אשקלון,הדרור,,1958-85-2,1958/85,19554.655870445345,31.6712908083,34.5602965071,2015
2015-11-11,2015-11-11,"הגת 13, אשקלון",הגת 13,2753-153-26,דירה,4.0,שביעית,107.0,1293000,1.0,כרמי יצחק,2016.0,,9.0,11181207883,1,2753153,False,,אשקלון,הגת,,2753-153-26,2753/153,12084.11214953271,31.6918760386,34.5790445962,2015
2015-11-10,2015-10-11,"אריה 14, אשקלון",אריה 14,1296-16-99,דירה בבית קומות,3.0,ראשונה,63.3,815000,,,1990.0,,8.0,10373968260,1,129616,False,16% ב 1.5 שנים,אשקלון,אריה,10.67,1296-16-99,1296/16,12875.197472353871,31.6632713144,34.5775026085,2015
2015-11-10,2015-10-11,"מודיעין 5, אשקלון",מודיעין 5,1940-68-216,דירה בבית קומות,5.0,שלישית,125.0,1507000,,,2021.0,,16.0,10373594760,1,194068,False,,אשקלון,מודיעין,,1940-68-216,1940/68,12056.0,31.6775411974,34.5579888036,2015
2015-11-10,2015-10-11,"גבע 2, אשקלון",גבע 2,2869-21-5,חנות,,ראשונה,54.0,301000,,,2015.0,,8.0,10377412020,1,286921,False,,אשקלון,גבע,,2869-21-5,2869/21,5574.074074074074,31.6679184514,34.5576730093,2015
2015-11-10,2015-10-11,"עזריה 7, אשקלון",עזריה 7,1654-69-3,דירה בבית קומות,4.0,ראשונה,99.0,815000,,,1950.0,,1.0,10371972510,1,165469,False,,אשקלון,עזריה,,1654-69-3,1654/69,8232.323232323231,31.6587232831,34.5802174679,2015
2015-11-10,2015-10-11,"הגת 13, אשקלון",הגת 13,2753-153-155,דירה בבית קומות,4.0,חמישית,107.0,1302000,,,2016.0,,9.0,10372206420,1,2753153,False,,אשקלון,הגת,,2753-153-155,2753/153,12168.22429906542,31.6918760386,34.5790445962,2015
2015-11-10,2015-10-11,"אבן עזרא 63, אשקלון",אבן עזרא 63,1201-109-6,דירה בבית קומות,4.0,רביעית,120.0,765000,,,1995.0,,1.0,10371749670,1,1201109,False,,אשקלון,אבן עזרא,,1201-109-6,1201/109,6375.0,31.6727156472,34.5897264675,2015
2015-11-10,2015-10-11,"חנניה 8, אשקלון",חנניה 8,1653-54-4,דירה בבית קומות,4.0,ראשונה,81.0,620000,,,1970.0,,1.0,10372139550,1,165354,False,,אשקלון,חנניה,,1653-54-4,1653/54,7654.320987654321,31.6583859209,34.5807426628,2015
2015-11-09,2015-09-11,"אורט 24, אשקלון",אורט 24,1932-70-71,דירה בבית קומות,4.0,שניה,89.4,800000,,,1983.0,,,10371129030,1,193270,False,,אשקלון,אורט,,1932-70-71,1932/70,8948.545861297538,31.6722841871,34.5693020672,2015
2015-11-08,2015-08-11,"שילה 1, אשקלון",שילה 1,2869-8-16,דירה בבית קומות,3.0,שלוש עשרה,70.0,740000,,,2000.0,,13.0,10370277900,1,28698,False,,אשקלון,שילה,,2869-8-16,2869/8,10571.42857142857,31.6698945024,34.5563490531,2015
2015-11-08,2015-08-11,"קדש 2, אשקלון",קדש 2,2754-157-62,דירה בבית קומות,5.0,חמישית,118.0,1355000,,,2013.0,,8.0,10370174040,1,2754157,False,,אשקלון,קדש,,2754-157-62,2754/157,11483.050847457627,31.6892810157,34.5841206984,2015
2015-11-08,2015-08-11,"גולני 11, אשקלון",גולני 11,1938-134-34,דירה בבית קומות,3.0,שלישית,75.0,600000,,,1997.0,,8.0,10368590310,1,1938134,False,,אשקלון,גולני,,1938-134-34,1938/134,8000.0,31.6828118684,34.5610869889,2015
2015-11-08,2015-08-11,"מגידו 6, אשקלון",מגידו 6,2507-12-51,דירה בבית קומות,3.0,ראשונה,75.55,850000,,,2000.0,,7.0,10369354320,1,250712,False,49% ב 6 שנים,אשקלון,מגידו,8.17,2507-12-51,2507/12,11250.827266710789,31.6675204437,34.5759920671,2015
2015-11-07,2015-07-11,,,1225-1-12,דירה,4.0,רביעית,109.0,1080000,1.0,פארק רלון,,,,11181184143,2,12251,False,,אשקלון,לוחמי הגטאות,,1225-1-12,1225/1,9908.256880733945,,,2015
2015-11-06,2015-06-11,"ירושלים 29, אשקלון",ירושלים 29,1933-42-43,דירה בבית קומות,4.0,רביעית,102.97,935000,,,1980.0,,7.0,10363111380,1,193342,False,43% ב 5 שנים,אשקלון,ירושלים,8.6,1933-42-43,1933/42,9080.314654753813,31.6823888193,34.5726520019,2015
2015-11-06,2015-06-11,"יעקב מרידור 11, אשקלון",יעקב מרידור 11,2904-81-4,דירה בבית קומות,5.0,קומה ‎1‏,125.9,1227000,,,2015.0,,10.0,10363934970,1,290481,False,,אשקלון,מרידור יעקב,,2904-81-4,2904/81,9745.830023828436,31.680192209,34.5780865821,2015
2015-11-06,2015-06-11,"איילון 1, אשקלון",איילון 1,1937-425-6,דירה בבית קומות,4.0,שניה,106.4,865000,,,1980.0,,6.0,10363038750,1,1937425,False,18% ב 3.4 שנים,אשקלון,איילון,5.29,1937-425-6,1937/425,8129.699248120301,31.6895803176,34.5716646619,2015
2015-11-06,2015-06-11,"הפנינים 1, אשקלון",הפנינים 1,1216-53-30,משרד,,ראשונה,85.0,505000,,,2009.0,,2.0,10366308720,1,121653,False,,אשקלון,הפנינים,,1216-53-30,1216/53,5941.176470588235,31.6622236408,34.596735984,2015
2015-11-05,2015-05-11,"יעקב מרידור 13, אשקלון",יעקב מרידור 13,2904-81-102,דירה בבית קומות,5.0,קומה ‎8‏,128.0,1724000,,,2015.0,,10.0,10362455820,1,290481,False,,אשקלון,מרידור יעקב,,2904-81-102,2904/81,13468.75,31.680192209,34.5780865821,2015
2015-11-05,2015-05-11,"קיבוץ גלויות 5, אשקלון",קיבוץ גלויות 5,1931-118-66,דירה בבית קומות,4.0,תשיעית,97.75,855000,,,1986.0,,12.0,10360640340,1,1931118,False,113% ב 9 שנים,אשקלון,קיבוץ גלויות,12.56,1931-118-66,1931/118,8746.803069053709,31.6656516147,34.5669114244,2015
2015-11-05,2015-05-11,"אריה בן-אליעזר 5, אשקלון",אריה בן-אליעזר 5,1934-98-18,דירה בבית קומות,4.0,ראשונה,100.0,820000,,,1992.0,,3.0,10360661850,1,193498,False,,אשקלון,בן אליעזר אריה,,1934-98-18,1934/98,8200.0,31.6849029271,34.5767754973,2015
2015-11-05,2015-05-11,"הגת 13, אשקלון",הגת 13,2753-153-171,דירה בבית קומות,5.0,שמינית,135.0,1450000,,,2016.0,,9.0,10361365740,1,2753153,False,,אשקלון,הגת,,2753-153-171,2753/153,10740.74074074074,31.6918760386,34.5790445962,2015
2015-11-05,2015-05-11,"בלפור 28, אשקלון",בלפור 28,2557-48-94,דירה בבית קומות,5.0,תשיעית,133.59,1600000,,,2012.0,,14.0,10361904840,1,255748,False,50% ב 4.3 שנים,אשקלון,בלפור,11.63,2557-48-94,2557/48,11976.944382064525,31.6885219681,34.5801894715,2015
2015-11-05,2015-05-11,"היין 15, אשקלון",היין 15,2754-11-43,דירה בבית קומות,4.0,קומה ‎3‏,111.8,1190000,,,2010.0,,10.0,10362559680,1,275411,False,30% ב 4.5 שנים,אשקלון,היין,6.67,2754-11-43,2754/11,10644.007155635063,31.6940164497,34.5806643522,2015
2015-11-05,2015-05-11,"יונתן נתניהו 12, אשקלון",יונתן נתניהו 12,2557-47-6,דירה בבית קומות,3.0,שניה,101.72,930000,,,2013.0,,14.0,10361073240,1,255747,False,,אשקלון,נתניהו יונתן,,2557-47-6,2557/47,9142.74478961856,31.689138359,34.5797084707,2015
2015-11-05,2015-05-11,"קדש 2, אשקלון",קדש 2,2754-157-66,דירה בבית קומות,5.0,שביעית,117.0,1340000,,,2013.0,,8.0,10361301930,1,2754157,False,,אשקלון,קדש,,2754-157-66,2754/157,11452.991452991451,31.6892810157,34.5841206984,2015
2015-11-05,2015-05-11,"אשתאול 1, אשקלון",אשתאול 1,2869-28-293,דירה בבית קומות,5.0,שלישית,100.0,700000,,,2000.0,,20.0,10363628250,1,286928,False,,אשקלון,אשתאול,,2869-28-293,2869/28,7000.0,31.667375096,34.5578269375,2015
2015-11-05,2015-05-11,"יהודה הלוי 32, אשקלון",יהודה הלוי 32,1962-144-33,דירה בבית קומות,3.0,שביעית,68.0,749000,,,1999.0,,9.0,10361779380,1,1962144,False,137% ב 6.7 שנים,אשקלון,יהודה הלוי,20.45,1962-144-33,1962/144,11014.70588235294,31.6582905527,34.5635557647,2015
2015-11-03,2015-03-11,"איילה 31, אשקלון",איילה 31,1296-7-28,דירה בבית קומות,4.0,רביעית,82.65,700000,,,1992.0,,9.0,10356613920,1,12967,False,11% ב 4.8 שנים,אשקלון,איילה,2.29,1296-7-28,1296/7,8469.449485783423,31.6633411485,34.5748581871,2015
2015-11-03,2015-03-11,"הר תבור 13, אשקלון",הר תבור 13,1934-191-2,בית בודד,6.0,ראשונה,200.0,2240000,,,2009.0,,1.0,10358281530,1,1934191,False,,אשקלון,הר תבור,,1934-191-2,1934/191,11200.0,31.683431287,34.5747213445,2015
2015-11-03,2015-03-11,"ברייר דב 7, אשקלון",ברייר דב 7,1932-72-17,דירה,4.0,שלישית,99.0,995000,1.0,פסגות אפרידר,2008.0,,11.0,11181200833,1,193272,False,,אשקלון,ברייר דב,,1932-72-17,1932/72,10050.505050505051,31.6707478025,34.568352655,2015
2015-11-03,2015-03-11,"מרחשוון 2, אשקלון",מרחשוון 2,1353-41-3,דירה בבית קומות,3.5,קרקע וראשונה,114.2,1300000,,,1993.0,,2.0,10358210250,1,135341,False,85% ב 3.9 שנים,אשקלון,מרחשוון,21.79,1353-41-3,1353/41,11383.53765323993,31.6708647064,34.5826238435,2015
2015-11-03,2015-03-11,"מודיעין 5, אשקלון",מודיעין 5,1940-68-48,דירה,5.0,רביעית,125.0,1480000,1.0,גני אפגד,2021.0,,16.0,11181201489,1,194068,False,,אשקלון,מודיעין,,1940-68-48,1940/68,11840.0,31.6775411974,34.5579888036,2015
2015-11-03,2015-03-11,"הגת 29, אשקלון",הגת 29,2754-18-12,דירה בבית קומות,5.0,רביעית,128.0,1200000,,,2010.0,,9.0,10357460370,1,275418,False,26% ב 4.2 שנים,אשקלון,הגת,6.19,2754-18-12,2754/18,9375.0,31.6920245673,34.5812187983,2015
2015-11-03,2015-03-11,"העונות 1, אשקלון",העונות 1,2856-41-14,דירה בבית קומות,4.0,רביעית,108.2,1150000,,,2011.0,,10.0,10356704460,1,285641,False,39% ב 3.5 שנים,אשקלון,העונות,11.14,2856-41-14,2856/41,10628.465804066544,31.6709094486,34.5747874775,2015
2015-11-03,2015-03-11,"דרום אפריקה 6, אשקלון",דרום אפריקה 6,1932-81-6,דירה בבית קומות,4.0,ראשונה,84.0,650000,,,1970.0,,4.0,10356974010,1,193281,False,15% ב 4.2 שנים,אשקלון,דרום אפריקה,3.57,1932-81-6,1932/81,7738.0952380952385,31.6754633561,34.5703867037,2015
2015-11-03,2015-03-11,"הוורדים 20, אשקלון",הוורדים 20,1960-109-1,קוטג' דו משפחתי,5.0,ראשונה,150.0,2450000,,,1950.0,,1.0,10356420780,1,1960109,False,298% ב 14.3 שנים,אשקלון,הוורדים,20.84,1960-109-1,1960/109,16333.333333333334,31.6747306153,34.5679799102,2015
2015-11-03,2015-03-11,"יעקב מרידור 13, אשקלון",יעקב מרידור 13,2904-81-61,דירה בבית קומות,4.0,קומה ‎3‏,104.7,1094000,,,2015.0,,10.0,10358388450,1,290481,False,,אשקלון,מרידור יעקב,,2904-81-61,2904/81,10448.901623686725,31.680192209,34.5780865821,2015
2015-11-03,2015-03-11,"הקיקיון 1, אשקלון",הקיקיון 1,1942-143-25,דירה בבית קומות,5.0,שביעית,116.52,868000,,,1993.0,,8.0,10359055800,1,1942143,False,5% ב 4 שנים,אשקלון,הקיקיון,1.25,1942-143-25,1942/143,7449.364915894267,31.6682937201,34.5669435933,2015
2015-11-03,2015-03-11,"מודיעין 6, אשקלון",מודיעין 6,1940-64-11,דירה בבית קומות,5.0,קומה ‎3‏,125.61,1512000,,,2013.0,,10.0,10356762330,1,194064,False,,אשקלון,מודיעין,,1940-64-11,1940/64,12037.258180081204,31.6767024315,34.5576598056,2015
2015-11-02,2015-02-11,"רמב""ם 26, אשקלון","רמב""ם 26",1201-95-3,דירה בבית קומות,3.0,ראשונה,68.1,700000,,,1992.0,,4.0,10356330960,1,120195,False,,אשקלון,"רמב""ם",,1201-95-3,1201/95,10279.001468428782,31.673253279,34.5879908545,2015
2015-11-02,2015-02-11,"יעקב מרידור 11, אשקלון",יעקב מרידור 11,2904-81-40,דירה בבית קומות,4.0,קומה ‎4‏,103.4,1100000,,,2015.0,,10.0,10354452300,1,290481,False,,אשקלון,מרידור יעקב,,2904-81-40,2904/81,10638.297872340425,31.680192209,34.5780865821,2015
2015-11-02,2015-02-11,"אליעזר מילרוד 26, אשקלון",אליעזר מילרוד 26,1997-13-9,דירה בבית קומות,3.0,שניה,38.7,340000,,,1970.0,,4.0,10354076640,1,199713,False,,אשקלון,מילרוד אליעזר,,1997-13-9,1997/13,8785.529715762274,31.6503775589,34.5584427983,2015
2015-11-02,2015-02-11,"מלכי ישראל 29, אשקלון",מלכי ישראל 29,1961-134-1,קוטג' דו משפחתי,3.0,ראשונה,60.35,1450000,,,1957.0,,1.0,10353758220,1,1961134,False,146% ב 10.5 שנים,אשקלון,מלכי ישראל,13.9,1961-134-1,1961/134,24026.512013256008,31.6691039097,34.5653062922,2015
2015-11-02,2015-02-11,"שורשים 41, אשקלון",שורשים 41,2753-22-1,קוטג' חד משפחתי,6.0,ראשונה,261.0,2070000,,,1900.0,,1.0,10353796020,1,275322,False,,אשקלון,שורשים,,2753-22-1,2753/22,7931.0344827586205,31.6954445616,34.5816963912,2015
2015-11-02,2015-02-11,"איילה 23, אשקלון",איילה 23,1296-12-36,דירה בבית קומות,3.5,ראשונה,75.1,750000,,,1990.0,,4.0,10355434740,1,129612,False,9% ב 3.8 שנים,אשקלון,איילה,2.37,1296-12-36,1296/12,9986.684420772304,31.6619842881,34.5752215428,2015
2015-11-01,2015-01-11,"הרב פינטו 3, אשקלון",הרב פינטו 3,1997-57-46,דירה בבית קומות,3.0,ראשונה,70.0,700000,,,2000.0,,7.0,10352718630,1,199757,False,,אשקלון,הרב פינטו,,1997-57-46,1997/57,10000.0,31.6523605486,34.5583658625,2015
2015-11-01,2015-01-11,"תנובת השדה 3, אשקלון",תנובת השדה 3,2753-147-83,דירה,5.0,שביעית,106.0,1575000,1.0,נאות יצחק שלב ג',,,11.0,11181207858,1,2753147,False,,אשקלון,תנובת השדה,,2753-147-83,2753/147,14858.490566037735,31.6913392392,34.5789345239,2015
2015-11-01,2015-01-11,"אייר 16, אשקלון",אייר 16,1353-52-3,דירה בבית קומות,4.0,ראשונה,84.6,840000,,,1992.0,,3.0,10352898270,1,135352,False,27% ב 1.7 שנים,אשקלון,אייר,15.88,1353-52-3,1353/52,9929.078014184395,31.6725972113,34.5815755705,2015
2015-11-01,2015-01-11,"נווה שלום 22, אשקלון",נווה שלום 22,1297-8-22,דירה בבית קומות,5.0,שישית,98.8,820000,,,1992.0,,9.0,10351112490,1,12978,False,,אשקלון,נווה שלום,,1297-8-22,1297/8,8299.595141700405,31.6625982037,34.5802016579,2015
2015-11-01,2015-01-11,"ש""י עגנון 169, אשקלון","ש""י עגנון 169",1944-203-114,דירה בבית קומות,3.0,תשיעית,65.3,570000,,,1995.0,,9.0,10354000950,1,1944203,False,,אשקלון,"עגנון ש""י",,1944-203-114,1944/203,8728.943338437979,31.6589316864,34.5565212091,2015
2015-11-01,2015-01-11,"מודיעין 11, אשקלון",מודיעין 11,1940-65-5,דירה בבית קומות,4.0,ראשונה,100.6,1512000,,,2012.0,,9.0,10351670220,1,194065,False,,אשקלון,מודיעין,,1940-65-5,1940/65,15029.821073558647,31.6766562812,34.5568844861,2015
2015-11-01,2015-01-11,"מודיעין 11, אשקלון",מודיעין 11,1940-65-3,דירת גן,5.0,ראשונה,115.7,1700000,,,2012.0,,9.0,10351672380,1,194065,False,12% ב 1.1 שנים,אשקלון,מודיעין,10.91,1940-65-3,1940/65,14693.171996542782,31.6766562812,34.5568844861,2015
2015-11-01,2015-01-11,"סיוון 12, אשקלון",סיוון 12,1353-70-4,דירה בבית קומות,3.0,ראשונה,67.7,720000,,,1993.0,,3.0,10352901330,1,135370,False,,אשקלון,סיון,,1353-70-4,1353/70,10635.155096011817,31.6713773738,34.5797077875,2015
2015-11-01,2015-01-11,"ראובן 52, אשקלון",ראובן 52,1657-41-3,דירה בבית קומות,2.0,קרקע,30.0,502000,,,1960.0,,1.0,10351752570,1,165741,False,35% ב 2.1 שנים,אשקלון,ראובן,16.67,1657-41-3,1657/41,16733.333333333332,31.6497224422,34.583105375,2015
2015-11-01,2015-01-11,"בלפור 41, אשקלון",בלפור 41,2557-44-47,דירה בבית קומות,5.0,שלישית,108.85,1130000,,,2008.0,,9.0,10351114830,1,255744,False,64% ב 6.4 שנים,אשקלון,בלפור,10.0,2557-44-47,2557/44,10381.258612769869,31.689709805,34.580359485,2015
2015-11-01,2015-01-11,"גדעון בן-יואש 41, אשקלון",גדעון בן-יואש 41,1937-421-15,דירה בבית קומות,4.0,רביעית,101.5,700000,,,1980.0,,6.0,10352709720,1,1937421,False,78% ב 9 שנים,אשקלון,גדעון בן יואש,8.67,1937-421-15,1937/421,6896.551724137931,31.6904368008,34.5713593285,2015
2015-10-31,2015-10-31,,,2754-153-17,דירה,4.0,שמינית,108.0,1050000,1.0,ב. מישל בכרם,,,,11181208051,2,2754153,False,,אשקלון,ביכורי ענבים,,2754-153-17,2754/153,9722.222222222224,31.6914957347,34.5853479351,2015
2015-10-30,2015-10-30,"יהדות ספרד 2, אשקלון",יהדות ספרד 2,3053-61-50,דירה בבית קומות,4.0,שניה,78.8,792000,,,1994.0,,3.0,10374064110,1,305361,False,,אשקלון,יהדות ספרד,,3053-61-50,3053/61,10050.761421319798,31.6775208763,34.5803985537,2015
2015-10-30,2015-10-30,"יונתן נתניהו 2, אשקלון",יונתן נתניהו 2,2556-16-23,דירה בבית קומות,4.0,שישית,112.35,1323000,,,2009.0,,13.0,10373713650,1,255616,False,96% ב 6.3 שנים,אשקלון,נתניהו יונתן,15.24,2556-16-23,2556/16,11775.70093457944,31.6897246031,34.5777787226,2015
2015-10-30,2015-10-30,"אברהם בלסבלג 2, אשקלון",אברהם בלסבלג 2,2556-20-35,דירה בבית קומות,5.0,תשיעית,116.7,1300000,,,2013.0,,15.0,10374019560,1,255620,False,,אשקלון,בלסבלג אברהם,,2556-20-35,2556/20,11139.674378748929,31.6879534516,34.5768535402,2015
2015-10-29,2015-10-29,"מלכי ישראל 35, אשקלון",מלכי ישראל 35,1942-156-7,דירה בבית קומות,4.0,חמישית,123.0,840000,,,1975.0,,,10374755310,1,1942156,False,,אשקלון,מלכי ישראל,,1942-156-7,1942/156,6829.268292682927,31.6683519875,34.5647007571,2015
2015-10-29,2015-10-29,"ברייר דב 1, אשקלון",ברייר דב 1,1942-177-61,דירה בבית קומות,3.0,חמישית,70.0,750000,,,2000.0,,9.0,10374405570,1,1942177,False,,אשקלון,ברייר דב,,1942-177-61,1942/177,10714.285714285714,31.6694499419,34.5675342214,2015
2015-10-29,2015-10-29,,,1225-1-214,דירה בבית קומות,4.0,שמינית,115.0,1215000,,,2010.0,,,10373149980,2,12251,False,,אשקלון,לוחמי הגטאות,,1225-1-214,1225/1,10565.217391304348,,,2015
2015-10-29,2015-10-29,"ז'בוטינסקי 3, אשקלון",ז'בוטינסקי 3,1996-38-2,דירה בבית קומות,3.0,ראשונה,51.8,550000,,,1970.0,,4.0,10373868810,1,199638,False,17% ב 1.8 שנים,אשקלון,ז'בוטינסקי,9.44,1996-38-2,1996/38,10617.760617760618,31.6553950905,34.5609414935,2015
2015-10-29,2015-10-29,"עולי הגרדום 60, אשקלון",עולי הגרדום 60,3012-30-5,דירה בבית קומות,3.0,קרקע,74.8,740000,,,1976.0,,4.0,10375097670,1,301230,True,-1% ב 2.1 שנים,אשקלון,עולי הגרדום,-0.48,3012-30-5,3012/30,9893.048128342249,31.6481746918,34.5545553676,2015
2015-10-29,2015-10-29,"בלפור 28, אשקלון",בלפור 28,2557-48-113,דירה בבית קומות,5.0,שלוש עשרה,135.25,1522000,,,2012.0,,14.0,10374902370,1,255748,False,4% ב 1.7 שנים,אשקלון,בלפור,2.35,2557-48-113,2557/48,11253.234750462108,31.6885219681,34.5801894715,2015
2015-10-29,2015-10-29,"הנוער העובד 8, אשקלון",הנוער העובד 8,2390-39-11,דירה בבית קומות,4.0,שלישית,81.0,818000,,,1993.0,,6.0,10373530950,1,239039,False,,אשקלון,הנוער העובד,,2390-39-11,2390/39,10098.765432098766,31.6612702924,34.5722764646,2015
2015-10-28,2015-10-28,"הרב נורוק 3, אשקלון",הרב נורוק 3,1942-177-161,דירה בבית קומות,4.0,ראשונה,110.0,1125000,,,2000.0,,9.0,10373384700,1,1942177,False,,אשקלון,הרב נורוק,,1942-177-161,1942/177,10227.272727272728,31.6694499419,34.5675342214,2015
2015-10-28,2015-10-28,"אבן עזרא 65, אשקלון",אבן עזרא 65,1201-107-7,דירה בבית קומות,4.0,שלישית,83.6,850000,,,1995.0,,3.0,10373734530,1,1201107,False,100% ב 16.8 שנים,אשקלון,אבן עזרא,5.95,1201-107-7,1201/107,10167.464114832535,31.6731072859,34.5895785145,2015
2015-10-28,2015-10-28,"הטייסים 63, אשקלון",הטייסים 63,1941-107-63,דירה בבית קומות,4.0,קרקע,100.6,1070000,,,1990.0,,4.0,10373510880,1,1941107,False,,אשקלון,הטייסים,,1941-107-63,1941/107,10636.182902584496,31.6774448009,34.561492303,2015
2015-10-28,2015-10-28,,,1225-1-26,דירה,4.0,שביעית,126.0,1215000,1.0,פארק רלון,,,,11181184149,2,12251,False,,אשקלון,לוחמי הגטאות,,1225-1-26,1225/1,9642.857142857143,,,2015
2015-10-28,2015-10-28,"מגידו 5, אשקלון",מגידו 5,2507-7-87,דירה בבית קומות,3.0,שביעית,74.15,960000,,,2005.0,,14.0,10373840730,1,25077,False,37% ב 3.7 שנים,אשקלון,מגידו,10.0,2507-7-87,2507/7,12946.729602157788,31.6673218402,34.5747528889,2015
2015-10-28,2015-10-28,"דיזרעאלי 10, אשקלון",דיזרעאלי 10,2557-41-5,דירת גן,5.0,"מרתף ‎-1‏, קומה ‎0‏",157.8,1810000,,,2002.0,,1.0,10373115960,1,255741,False,99% ב 13.5 שנים,אשקלון,דיזראלי,7.33,2557-41-5,2557/41,11470.2154626109,31.6874964706,34.5835578227,2015
2015-10-27,2015-10-27,"משה שרת 30, אשקלון",משה שרת 30,1934-110-25,דירה בבית קומות,4.0,שישית,89.35,940000,,,1995.0,,8.0,10367439570,1,1934110,False,0% ב 0.5 שנים,אשקלון,שרת משה,0.0,1934-110-25,1934/110,10520.425293788472,31.6849502299,34.5775592578,2015
2015-10-27,2015-10-27,"יעקב מרידור 13, אשקלון",יעקב מרידור 13,2904-81-82,דירה בבית קומות,5.0,קומה ‎1‏,125.6,1316000,,,2015.0,,10.0,10374892020,1,290481,False,,אשקלון,מרידור יעקב,,2904-81-82,2904/81,10477.707006369426,31.680192209,34.5780865821,2015
2015-10-27,2015-10-27,"שילה 1, אשקלון",שילה 1,2869-8-72,דירה בבית קומות,4.0,רביעית,97.0,1040000,,,2000.0,,13.0,10373009670,1,28698,False,,אשקלון,שילה,,2869-8-72,2869/8,10721.649484536085,31.6698945024,34.5563490531,2015
2015-10-26,2015-10-26,"קדש 9, אשקלון",קדש 9,2557-4-40,דירה בבית קומות,5.0,ראשונה,136.0,1305000,,,2009.0,,5.0,10373415840,1,25574,False,,אשקלון,קדש,,2557-4-40,2557/4,9595.588235294115,31.6890864082,34.5822508686,2015
2015-10-26,2015-10-26,"כל ישראל חברים 35, אשקלון",כל ישראל חברים 35,3041-109-2,דירה בבית קומות,3.0,,60.0,975000,,,1993.0,,1.0,10373114520,1,3041109,False,,אשקלון,כל ישראל חברים,,3041-109-2,3041/109,16250.0,31.6798228319,34.5872706691,2015
2015-10-26,2015-10-26,"סיני 2, אשקלון",סיני 2,2508-24-27,דירה בבית קומות,4.0,שישית,79.7,980000,,,2000.0,,7.0,10373947380,1,250824,False,100% ב 8 שנים,אשקלון,סיני,12.5,2508-24-27,2508/24,12296.110414052697,31.6679558914,34.5776465155,2015
2015-10-26,2015-10-26,"ביכורי ענבים 27, אשקלון",ביכורי ענבים 27,2754-155-34,דירה בבית קומות,5.0,תשיעית,120.0,1580000,,,2014.0,,10.0,10373664690,1,2754155,False,,אשקלון,ביכורי ענבים,,2754-155-34,2754/155,13166.666666666666,31.6905818725,34.5849589842,2015
2015-10-26,2015-10-26,"קיסריה 9, אשקלון",קיסריה 9,2508-14-1,קוטג' דו משפחתי,6.0,קרקע וראשונה,169.0,2200000,,,1997.0,,1.0,10373360220,1,250814,False,57% ב 4.9 שנים,אשקלון,קיסריה,11.63,2508-14-1,2508/14,13017.75147928994,31.6661732978,34.5795809093,2015
2015-10-26,2015-10-26,"אב""א אחימאיר 107, אשקלון","אב""א אחימאיר 107",1938-53-12,דירה בבית קומות,4.0,שלישית,82.0,820000,,,1970.0,,4.0,10375427430,1,193853,False,17% ב 2 שנים,אשקלון,"אחימאיר אב""א",8.5,1938-53-12,1938/53,10000.0,31.6848570354,34.5673244093,2015
2015-10-26,2015-10-26,"אורט 3, אשקלון",אורט 3,1942-139-11,דירה בבית קומות,4.0,שלישית,99.26,1050000,,,2000.0,,8.0,10372912470,1,1942139,False,81% ב 16.6 שנים,אשקלון,אורט,4.88,1942-139-11,1942/139,10578.279266572636,31.6673770569,34.5681424236,2015
2015-10-26,2015-10-26,"אפרסמון 19, אשקלון",אפרסמון 19,1958-200-4,קוטג' דו משפחתי,5.0,קרקע + ראשונה,125.5,1680000,,,1990.0,,1.0,10373061600,1,1958200,False,76% ב 6.5 שנים,אשקלון,אפרסמון,11.69,1958-200-4,1958/200,13386.454183266933,31.6732082733,34.5574687148,2015
2015-10-25,2015-10-25,"קדש 2, אשקלון",קדש 2,2754-157-57,דירה בבית קומות,5.0,רביעית,118.0,1375000,,,2013.0,,8.0,10373799060,1,2754157,False,,אשקלון,קדש,,2754-157-57,2754/157,11652.542372881357,31.6892810157,34.5841206984,2015
2015-10-25,2015-10-25,"ביאליק 38, אשקלון",ביאליק 38,1964-105-26,דירה בבית קומות,3.0,קרקע,46.0,520000,,,1970.0,,2.0,10372919940,1,1964105,False,30% ב 4.4 שנים,אשקלון,ביאליק,6.82,1964-105-26,1964/105,11304.347826086956,31.656632035,34.5654420767,2015
2015-10-25,2015-10-25,"ציפורי 2, אשקלון",ציפורי 2,2508-29-47,דירה בבית קומות,4.0,שלישית,92.4,950000,,,1998.0,,7.0,10373733810,1,250829,False,42% ב 5.6 שנים,אשקלון,ציפורי,7.5,2508-29-47,2508/29,10281.38528138528,31.6686710942,34.5789462899,2015
2015-10-25,2015-10-25,"אייר 19, אשקלון",אייר 19,1353-55-10,דירת גן,4.0,קרקע,83.7,1150000,,,1993.0,,3.0,10373678730,1,135355,False,,אשקלון,אייר,,1353-55-10,1353/55,13739.545997610514,31.6734635145,34.5814302072,2015
2015-10-23,2015-10-23,"בר-כוכבא 3, אשקלון",בר-כוכבא 3,2872-121-26,דירה בבית קומות,4.0,שביעית,76.0,850000,,,1970.0,,8.0,10373089230,1,2872121,False,7% ב 0.5 שנים,אשקלון,בר כוכבא,14.0,2872-121-26,2872/121,11184.21052631579,31.6798292024,34.5731216463,2015
2015-10-23,2015-10-23,"נורדאו 38, אשקלון",נורדאו 38,1118-85-1,קוטג' חד משפחתי,6.0,ראשונה,200.0,2560000,,,2004.0,,1.0,10374158430,1,111885,False,,אשקלון,נורדאו,,1118-85-1,1118/85,12800.0,31.6841995264,34.5816381837,2015
2015-10-23,2015-10-23,"תשרי 15, אשקלון",תשרי 15,1353-44-2,דירה בבית קומות,3.0,קרקע,67.5,880000,,,1993.0,,3.0,10372921380,1,135344,False,143% ב 8.7 שנים,אשקלון,תשרי,16.44,1353-44-2,1353/44,13037.037037037036,31.6722837738,34.5842862845,2015
2015-10-23,2015-10-23,"יונתן נתניהו 6, אשקלון",יונתן נתניהו 6,2556-14-25,דירה בבית קומות,5.0,שישית,124.8,1410000,,,2009.0,,14.0,10372622130,1,255614,False,57% ב 5.4 שנים,אשקלון,נתניהו יונתן,10.56,2556-14-25,2556/14,11298.076923076924,31.6889528319,34.5785167582,2015
2015-10-23,2015-10-23,"הגת 7, אשקלון",הגת 7,2753-139-66,דירה בבית קומות,5.0,שמינית,122.55,1345000,,,2010.0,,10.0,10373158890,1,2753139,False,55% ב 5.6 שנים,אשקלון,הגת,9.82,2753-139-66,2753/139,10975.112199102408,31.6930961658,34.5790848334,2015
2015-10-23,2015-10-23,"יהודה הלוי 7, אשקלון",יהודה הלוי 7,1964-13-6,דירה בבית קומות,3.0,ראשונה,49.5,590000,,,1970.0,,3.0,10375023420,1,196413,False,,אשקלון,יהודה הלוי,,1964-13-6,1964/13,11919.19191919192,31.6576986522,34.5652528156,2015
2015-10-23,2015-10-23,"פקיעין 8, אשקלון",פקיעין 8,2507-23-19,דירה בבית קומות,4.0,שניה,87.3,1043000,,,1998.0,,7.0,10373116590,1,250723,False,128% ב 15.2 שנים,אשקלון,פקיעין,8.42,2507-23-19,2507/23,11947.308132875143,31.666227997,34.5772294581,2015
2015-10-22,2015-10-22,"חודשי השנה 7, אשקלון",חודשי השנה 7,2856-26-63,דירה בבית קומות,4.0,חמישית,90.6,1190000,,,2011.0,,9.0,10372974750,1,285626,False,47% ב 2.8 שנים,אשקלון,חודשי השנה,16.79,2856-26-63,2856/26,13134.657836644592,31.6729481071,34.5754920284,2015
2015-10-22,2015-10-22,"חודשי השנה 5, אשקלון",חודשי השנה 5,2856-26-9,דירה בבית קומות,4.0,שניה,103.6,1160000,,,2011.0,,9.0,10374296490,1,285626,False,46% ב 4.2 שנים,אשקלון,חודשי השנה,10.95,2856-26-9,2856/26,11196.911196911198,31.6729481071,34.5754920284,2015
2015-10-22,2015-10-22,"נועה 9, אשקלון",נועה 9,1937-126-3,קוטג' דו משפחתי,6.0,,240.0,2900000,,,1990.0,,1.0,10373940810,1,1937126,False,,אשקלון,נועה,,1937-126-3,1937/126,12083.333333333334,31.6899357781,34.5745998385,2015
2015-10-22,2015-10-22,"יוספטל 13, אשקלון",יוספטל 13,1996-51-22,דירה בבית קומות,4.0,שביעית,96.0,800000,,,1995.0,,3.0,10373282190,1,199651,False,,אשקלון,יוספטל,,1996-51-22,1996/51,8333.333333333334,31.6527276071,34.5614914117,2015
2015-10-21,2015-10-21,"אורט 26, אשקלון",אורט 26,1932-70-55,דירה בבית קומות,4.0,רביעית,96.7,840000,,,2000.0,,,10372878990,1,193270,False,,אשקלון,אורט,,1932-70-55,1932/70,8686.659772492243,31.6722841871,34.5693020672,2015
2015-10-21,2015-10-21,"חגי 7, אשקלון",חגי 7,1208-153-1,קוטג' דו משפחתי,8.0,,200.0,1400000,,,1981.0,,1.0,10374757470,1,1208153,False,,אשקלון,חגי,,1208-153-1,1208/153,7000.0,31.6588070783,34.5855833409,2015
2015-10-21,2015-10-21,"האשוח 8, אשקלון",האשוח 8,1961-106-1,קוטג' חד משפחתי,5.0,ראשונה,140.0,2000000,,,1960.0,,1.0,10374163560,1,1961106,False,,אשקלון,האשוח,,1961-106-1,1961/106,14285.714285714286,31.6706655261,34.5643891034,2015
2015-10-21,2015-10-21,"אהוד 8, אשקלון",אהוד 8,1656-14-4,דירה בבית קומות,5.0,ראשונה,97.0,600000,,,1950.0,,1.0,10374742080,1,165614,False,,אשקלון,אהוד,,1656-14-4,1656/14,6185.567010309278,31.6554602247,34.5833898583,2015
2015-10-20,2015-10-20,"אלי כהן 38, אשקלון",אלי כהן 38,2508-27-24,דירה בבית קומות,4.0,שביעית,68.6,1011000,,,2002.0,,8.0,10372424490,1,250827,False,14% ב 0.8 שנים,אשקלון,אלי כהן,17.5,2508-27-24,2508/27,14737.609329446066,31.6690547743,34.5784980252,2015
2015-10-19,2015-10-19,,,1225-1-25,דירה,4.0,חמישית,110.0,1144000,1.0,פארק רלון,,,,11181184148,2,12251,False,,אשקלון,לוחמי הגטאות,,1225-1-25,1225/1,10400.0,,,2015
2015-10-19,2015-10-19,,,1225-1-215,דירה בבית קומות,4.0,ראשונה,100.0,1167000,,,2016.0,,,10372513590,2,12251,False,,אשקלון,לוחמי הגטאות,,1225-1-215,1225/1,11670.0,,,2015
2015-10-19,2015-10-19,"הגת 13, אשקלון",הגת 13,2753-153-153,דירה בבית קומות,4.0,חמישית,107.0,1255000,,,2016.0,,9.0,10373421780,1,2753153,False,,אשקלון,הגת,,2753-153-153,2753/153,11728.971962616824,31.6918760386,34.5790445962,2015
2015-10-19,2015-10-19,"היין 3, אשקלון",היין 3,2753-135-27,דירה בבית קומות,5.0,ראשונה,125.6,1265000,,,2014.0,,9.0,10372982940,1,2753135,False,,אשקלון,היין,,2753-135-27,2753/135,10071.656050955417,31.693949299,34.5784899632,2015
2015-10-19,2015-10-19,"מנחם בגין 33, אשקלון",מנחם בגין 33,3050-51-97,דירה בבית קומות,5.0,שלישית,108.7,860000,,,2000.0,,6.0,10372911750,1,305051,False,55% ב 15.8 שנים,אשקלון,בגין מנחם,3.48,3050-51-97,3050/51,7911.683532658693,31.6742942776,34.5860226529,2015
2015-10-18,2015-10-18,"הגת 7, אשקלון",הגת 7,2753-139-48,דירה בבית קומות,4.0,שלישית,104.0,1180000,,,2010.0,,10.0,10373012730,1,2753139,False,75% ב 6 שנים,אשקלון,הגת,12.5,2753-139-48,2753/139,11346.153846153846,31.6930961658,34.5790848334,2015
2015-10-18,2015-10-18,"אצ""ל 39, אשקלון","אצ""ל 39",2556-11-2,דירה בבית קומות,3.0,ראשונה,69.58,830000,,,2000.0,,9.0,10374009930,1,255611,False,,אשקלון,"אצ""ל",,2556-11-2,2556/11,11928.715148031044,31.6864237645,34.5761188512,2015
2015-10-18,2015-10-18,"שני אליהו 6, אשקלון",שני אליהו 6,3013-12-17,דירה בבית קומות,4.0,ראשונה,79.8,617000,,,1970.0,,4.0,10375057620,1,301312,False,,אשקלון,שני אליהו,,3013-12-17,3013/12,7731.829573934838,31.6525576215,34.5536752932,2015
2015-10-18,2015-10-18,"דוד רזיאל 8, אשקלון",דוד רזיאל 8,1995-17-28,דירה בבית קומות,3.0,שניה,48.3,455000,,,1970.0,,3.0,10372920660,1,199517,False,28% ב 1.7 שנים,אשקלון,רזיאל דוד,16.47,1995-17-28,1995/17,9420.289855072464,31.6654193908,34.5935287855,2015
2015-10-18,2015-10-18,"אריה 10, אשקלון",אריה 10,1296-9-43,דירה בבית קומות,3.5,שלישית,72.95,855000,,,1990.0,,8.0,10372233690,1,12969,False,23% ב 2.8 שנים,אשקלון,אריה,8.21,1296-9-43,1296/9,11720.356408498972,31.6634124972,34.5764498925,2015
2015-10-18,2015-10-18,"ברייר דב 7, אשקלון",ברייר דב 7,1932-72-87,דירה בבית קומות,5.0,חמישית,103.0,1090000,,,2008.0,,11.0,10372842810,1,193272,False,,אשקלון,ברייר דב,,1932-72-87,1932/72,10582.52427184466,31.6707478025,34.568352655,2015
2015-10-18,2015-10-18,"ש""י עגנון 30, אשקלון","ש""י עגנון 30",1944-189-19,דירה בבית קומות,4.0,רביעית,93.3,100000,,,2000.0,,9.0,10372351140,1,1944189,False,,אשקלון,"עגנון ש""י",,1944-189-19,1944/189,1071.8113612004288,31.6612018581,34.5560707224,2015
2015-10-18,2015-10-18,"ההסתדרות 13, אשקלון",ההסתדרות 13,1962-39-13,דירה בבית קומות,4.0,ראשונה,90.0,600000,,,1970.0,,3.0,10373942250,1,196239,False,100% ב 7 שנים,אשקלון,ההסתדרות,14.29,1962-39-13,1962/39,6666.666666666667,31.6604336665,34.5625030546,2015
2015-10-18,2015-10-18,"יעקב מרידור 15, אשקלון",יעקב מרידור 15,2904-81-141,דירה בבית קומות,4.0,קומה ‎3‏,103.5,1158000,,,2015.0,,8.0,10373549490,1,290481,False,,אשקלון,מרידור יעקב,,2904-81-141,2904/81,11188.40579710145,31.680192209,34.5780865821,2015
2015-10-18,2015-10-18,"הגת 13, אשקלון",הגת 13,2753-153-24,דירה,4.0,חמישית,107.0,1250000,1.0,כרמי יצחק,2016.0,,9.0,11181207881,1,2753153,False,,אשקלון,הגת,,2753-153-24,2753/153,11682.242990654206,31.6918760386,34.5790445962,2015
2015-10-17,2015-10-17,"ברייר דב 7, אשקלון",ברייר דב 7,1932-72-41,דירה,5.0,חמישית,103.0,1090000,1.0,פסגות אפרידר,2008.0,,11.0,11181200860,1,193272,False,,אשקלון,ברייר דב,,1932-72-41,1932/72,10582.52427184466,31.6707478025,34.568352655,2015
2015-10-16,2015-10-16,"אבן עזרא 65, אשקלון",אבן עזרא 65,1201-107-13,דירה בבית קומות,3.0,שניה,72.3,775000,,,1995.0,,3.0,10372386060,1,1201107,False,,אשקלון,אבן עזרא,,1201-107-13,1201/107,10719.225449515909,31.6731072859,34.5895785145,2015
2015-10-15,2015-10-15,"אפרסמון 38, אשקלון",אפרסמון 38,1958-195-3,קוטג' דו משפחתי,1.0,מרתף + קרקע + ראשונה,161.0,1870000,,,1998.0,,,10374168060,1,1958195,False,,אשקלון,אפרסמון,,1958-195-3,1958/195,11614.906832298137,31.6735838664,34.5588718939,2015
2015-10-15,2015-10-15,,,1225-1-24,דירה בבית קומות,4.0,שביעית,120.0,1209661,1.0,פארק רלון,2014.0,,,10372497390,2,12251,False,,אשקלון,לוחמי הגטאות,,1225-1-24,1225/1,10080.508333333331,,,2015
2015-10-14,2015-10-14,"קדש 2, אשקלון",קדש 2,2754-157-58,דירה בבית קומות,5.0,שניה,118.0,1365000,,,2013.0,,8.0,10373758200,1,2754157,False,,אשקלון,קדש,,2754-157-58,2754/157,11567.796610169493,31.6892810157,34.5841206984,2015
2015-10-14,2015-10-14,"הבשן 6, אשקלון",הבשן 6,3041-81-1,קוטג' דו משפחתי,3.0,,70.0,900000,,,1992.0,,1.0,10373580720,1,304181,False,,אשקלון,הבשן,,3041-81-1,3041/81,12857.142857142857,31.6798328933,34.5884124552,2015
2015-10-14,2015-10-14,"מחניים 3, אשקלון",מחניים 3,2869-27-15,דירה בבית קומות,5.0,,125.0,1380000,,,1995.0,,3.0,10374489540,1,286927,False,,אשקלון,מחניים,,2869-27-15,2869/27,11040.0,31.6680552157,34.5589074591,2015
2015-10-14,2015-10-14,"החולה 6, אשקלון",החולה 6,3041-39-4,קוטג' דו משפחתי,3.0,,85.0,1090000,,,1992.0,,1.0,10373671260,1,304139,False,,אשקלון,החולה,,3041-39-4,3041/39,12823.529411764706,31.6805287289,34.5888852035,2015
2015-10-14,2015-10-14,"יהדות ספרד 54, אשקלון",יהדות ספרד 54,3050-47-7,דירה בבית קומות,2.0,קרקע,51.75,600000,,,1995.0,,2.0,10372462470,1,305047,False,,אשקלון,יהדות ספרד,,3050-47-7,3050/47,11594.202898550724,31.6752402939,34.5855077029,2015
2015-10-14,2015-10-14,"איילה 9, אשקלון",איילה 9,1296-19-17,דירה בבית קומות,4.0,תשיעית,130.0,955000,,,1990.0,,4.0,10372254480,1,129619,False,,אשקלון,איילה,,1296-19-17,1296/19,7346.153846153846,31.662161115,34.578657536,2015
2015-10-14,2015-10-14,"הגת 13, אשקלון",הגת 13,2753-153-154,דירה בבית קומות,5.0,חמישית,132.0,1536000,,,2016.0,,9.0,10372896090,1,2753153,False,,אשקלון,הגת,,2753-153-154,2753/153,11636.363636363636,31.6918760386,34.5790445962,2015
2015-10-13,2015-10-13,"י""ל פרץ 5, אשקלון","י""ל פרץ 5",1964-40-13,דירה בבית קומות,2.0,רביעית,33.6,360000,,,1970.0,,4.0,10372968000,1,196440,False,,אשקלון,"י""ל פרץ",,1964-40-13,1964/40,10714.285714285714,31.6568245969,34.563104512,2015
2015-10-13,2015-10-13,,,1225-1-217,דירה בבית קומות,4.0,שישית,108.0,1175000,,,2014.0,,,10372101570,2,12251,False,,אשקלון,לוחמי הגטאות,,1225-1-217,1225/1,10879.62962962963,,,2015
2015-10-13,2015-10-13,"הגת 13, אשקלון",הגת 13,2753-153-23,דירה,5.0,חמישית,132.0,1469000,1.0,כרמי יצחק,2016.0,,9.0,11181207880,1,2753153,False,,אשקלון,הגת,,2753-153-23,2753/153,11128.787878787878,31.6918760386,34.5790445962,2015
2015-10-12,2015-12-10,"קדש 2, אשקלון",קדש 2,2754-157-52,דירה בבית קומות,4.0,שלישית,117.0,1225000,,,2013.0,,8.0,10441344330,1,2754157,False,,אשקלון,קדש,,2754-157-52,2754/157,10470.08547008547,31.6892810157,34.5841206984,2015
2015-10-12,2015-12-10,"ביכורי ענבים 49, אשקלון",ביכורי ענבים 49,2754-161-42,דירה בבית קומות,4.0,קומה ‎5‏,112.5,1300000,,,2009.0,,7.0,10376935290,1,2754161,False,68% ב 5.6 שנים,אשקלון,ביכורי ענבים,12.14,2754-161-42,2754/161,11555.555555555557,31.6904970392,34.582663538,2015
2015-10-12,2015-12-10,"מודיעין 5, אשקלון",מודיעין 5,1940-68-211,דירה בבית קומות,3.0,עשירית,110.0,1180000,,,2021.0,,16.0,10377355500,1,194068,False,,אשקלון,מודיעין,,1940-68-211,1940/68,10727.272727272728,31.6775411974,34.5579888036,2015
2015-10-12,2015-12-10,"האילן 261, אשקלון",האילן 261,1942-161-69,דירה בבית קומות,4.0,חמישית,106.3,1250000,,,2016.0,,10.0,10441119240,1,1942161,False,,אשקלון,האילן,,1942-161-69,1942/161,11759.17215428034,31.6670601433,34.5638593674,2015
2015-10-12,2015-12-10,"האופן 6, אשקלון",האופן 6,1216-132-6,תעשיה,,קרקע,91.56,1200000,,,1980.0,,,10441281780,1,1216132,False,,אשקלון,האופן,,1216-132-6,1216/132,13106.15989515072,31.6634831554,34.5977002489,2015
2015-10-12,2015-12-10,"ש""י עגנון 30, אשקלון","ש""י עגנון 30",1944-189-17,דירה בבית קומות,4.0,רביעית,84.0,1050000,,,2000.0,,9.0,10441302570,1,1944189,False,160% ב 8.9 שנים,אשקלון,"עגנון ש""י",17.98,1944-189-17,1944/189,12500.0,31.6612018581,34.5560707224,2015
2015-10-11,2015-11-10,"הגת 13, אשקלון",הגת 13,2753-153-25,דירה,4.0,שביעית,107.0,1289000,1.0,כרמי יצחק,2016.0,,9.0,11181207882,1,2753153,False,,אשקלון,הגת,,2753-153-25,2753/153,12046.728971962615,31.6918760386,34.5790445962,2015
2015-10-11,2015-11-10,"אשתאול 1, אשקלון",אשתאול 1,2869-28-47,דירה,4.0,שלישית,93.0,1210000,1.0,High מול הים אשקלון,2000.0,,20.0,11181209243,1,286928,False,,אשקלון,אשתאול,,2869-28-47,2869/28,13010.752688172042,31.667375096,34.5578269375,2015
2015-10-11,2015-11-10,"חננאל 12, אשקלון",חננאל 12,1994-25-25,דירה בבית קומות,3.0,ראשונה,47.7,450000,,,1960.0,,3.0,10373976450,1,199425,False,0% ב 2.5 שנים,אשקלון,חננאל,0.0,1994-25-25,1994/25,9433.962264150943,31.6674998194,34.5932743291,2015
2015-10-11,2015-11-10,"מנחם בגין 15, אשקלון",מנחם בגין 15,3052-37-23,דירת גן,4.0,קרקע,79.0,1050000,,,1992.0,,3.0,10373892480,1,305237,False,16% ב 3.6 שנים,אשקלון,בגין מנחם,4.44,3052-37-23,3052/37,13291.139240506329,31.6745723736,34.5808312662,2015
2015-10-11,2015-11-10,"אב""א אחימאיר 101, אשקלון","אב""א אחימאיר 101",1938-51-6,חנות,,קרקע,30.0,670000,,,1970.0,,4.0,10374107940,1,193851,False,,אשקלון,"אחימאיר אב""א",,1938-51-6,1938/51,22333.33333333333,31.6854699914,34.5670038728,2015
2015-10-11,2015-11-10,"אשתאול 1, אשקלון",אשתאול 1,2869-28-48,דירה,5.0,רביעית,113.0,1380000,1.0,High מול הים אשקלון,2000.0,,20.0,11181209244,1,286928,False,,אשקלון,אשתאול,,2869-28-48,2869/28,12212.389380530973,31.667375096,34.5578269375,2015
2015-10-11,2015-11-10,"חננאל 12, אשקלון",חננאל 12,1994-25-24,דירה בבית קומות,3.0,ראשונה,47.7,350000,,,1960.0,,3.0,10376342100,1,199425,False,,אשקלון,חננאל,,1994-25-24,1994/25,7337.526205450733,31.6674998194,34.5932743291,2015
2015-10-10,2015-10-10,"מודיעין 5, אשקלון",מודיעין 5,1940-68-67,דירה,5.0,שלישית,125.0,1507119,1.0,גני אפגד,2021.0,,16.0,11181201510,1,194068,False,,אשקלון,מודיעין,,1940-68-67,1940/68,12056.952,31.6775411974,34.5579888036,2015
2015-10-10,2015-10-10,"הגת 13, אשקלון",הגת 13,2753-153-22,דירה,4.0,חמישית,107.0,1297000,1.0,כרמי יצחק,2016.0,,9.0,11181207879,1,2753153,False,,אשקלון,הגת,,2753-153-22,2753/153,12121.495327102804,31.6918760386,34.5790445962,2015
2015-10-09,2015-09-10,"הגת 13, אשקלון",הגת 13,2753-153-159,דירה בבית קומות,4.0,רביעית,107.0,1242000,,,2016.0,,9.0,10371108960,1,2753153,False,,אשקלון,הגת,,2753-153-159,2753/153,11607.476635514018,31.6918760386,34.5790445962,2015
2015-10-09,2015-09-10,"דרום אפריקה 1, אשקלון",דרום אפריקה 1,1960-100-1,משרד,,מרתף,27.0,290000,,,1960.0,,4.0,10371973230,1,1960100,False,,אשקלון,דרום אפריקה,,1960-100-1,1960/100,10740.74074074074,31.6752992238,34.5695251918,2015
2015-10-09,2015-09-10,"דרום אפריקה 1, אשקלון",דרום אפריקה 1,1960-100-2,משרד,,מרתף,21.6,230000,,,1960.0,,4.0,10371969450,1,1960100,False,,אשקלון,דרום אפריקה,,1960-100-2,1960/100,10648.148148148148,31.6752992238,34.5695251918,2015
2015-10-09,2015-09-10,"תמנע 10, אשקלון",תמנע 10,3054-11-3,קוטג' דו משפחתי,5.0,ראשונה,140.0,1500000,,,1990.0,,1.0,10370687940,1,305411,False,,אשקלון,תמנע,,3054-11-3,3054/11,10714.285714285714,31.6753784384,34.5799882295,2015
2015-10-09,2015-09-10,"דרום אפריקה 1, אשקלון",דרום אפריקה 1,1960-100-4,משרד,,מרתף,35.3,380000,,,1960.0,,4.0,10371409650,1,1960100,False,,אשקלון,דרום אפריקה,,1960-100-4,1960/100,10764.87252124646,31.6752992238,34.5695251918,2015
2015-10-09,2015-09-10,"ביאליק 31, אשקלון",ביאליק 31,1965-119-19,דירה בבית קומות,4.0,ראשונה,86.0,810000,,,1970.0,,3.0,10374009210,1,1965119,False,,אשקלון,ביאליק,,1965-119-19,1965/119,9418.60465116279,31.6570275637,34.5668232227,2015
2015-10-09,2015-09-10,"אשתאול 1, אשקלון",אשתאול 1,2869-28-284,דירה בבית קומות,5.0,אחת עשרה,113.0,1455000,,,2000.0,,20.0,10372052610,1,286928,False,,אשקלון,אשתאול,,2869-28-284,2869/28,12876.106194690265,31.667375096,34.5578269375,2015
2015-10-09,2015-09-10,"בלפור 26, אשקלון",בלפור 26,2557-48-2,דירה בבית קומות,4.0,ראשונה,107.25,1210000,,,2011.0,,14.0,10370868300,1,255748,False,59% ב 5.3 שנים,אשקלון,בלפור,11.13,2557-48-2,2557/48,11282.05128205128,31.6885219681,34.5801894715,2015
2015-10-08,2015-08-10,"הוורדים 58, אשקלון",הוורדים 58,1959-124-1,קוטג' חד משפחתי,4.0,ראשונה,84.85,1835000,,,1970.0,,1.0,10369270440,1,1959124,False,52% ב 4.5 שנים,אשקלון,הוורדים,11.56,1959-124-1,1959/124,21626.39952857985,31.6772722834,34.5701107571,2015
2015-10-08,2015-08-10,"הרב מנצור בן-שמעון 5, אשקלון",הרב מנצור בן-שמעון 5,2433-155-3,דירה בבית קומות,4.0,ראשונה,126.0,1400000,,,1900.0,,1.0,10369482750,1,2433155,False,,אשקלון,הרב מנצור בן שמעון,,2433-155-3,2433/155,11111.111111111111,31.6583621748,34.552310713,2015
2015-10-08,2015-08-10,"בלפור 3, אשקלון",בלפור 3,2556-10-45,דירה בבית קומות,4.0,שתים עשרה,100.75,1270000,,,2009.0,,15.0,10370233620,1,255610,False,8% ב 1.7 שנים,אשקלון,בלפור,4.71,2556-10-45,2556/10,12605.45905707196,31.6867352419,34.575301333,2015
2015-10-08,2015-08-10,"קדש 2, אשקלון",קדש 2,2754-157-63,דירה בבית קומות,4.0,שניה,101.0,1200000,,,2013.0,,8.0,10369261530,1,2754157,False,,אשקלון,קדש,,2754-157-63,2754/157,11881.18811881188,31.6892810157,34.5841206984,2015
2015-10-06,2015-06-10,,,1225-1-6,דירה בבית קומות,4.0,שניה,107.0,1065000,1.0,פארק רלון,2010.0,,,10363276980,2,12251,False,,אשקלון,לוחמי הגטאות,,1225-1-6,1225/1,9953.271028037385,,,2015
2015-10-06,2015-06-10,"שפינוזה 9, אשקלון",שפינוזה 9,1963-61-12,דירה בבית קומות,3.0,שלישית,40.7,400000,,,1960.0,,3.0,10363666230,1,196361,False,,אשקלון,שפינוזה,,1963-61-12,1963/61,9828.009828009828,31.6614161845,34.5674115612,2015
2015-10-06,2015-06-10,"ש""י עגנון 6, אשקלון","ש""י עגנון 6",3017-17-30,דירה בבית קומות,4.0,רביעית,80.5,470000,,,1970.0,,4.0,10365148080,1,301717,False,148% ב 11.5 שנים,אשקלון,"עגנון ש""י",12.87,3017-17-30,3017/17,5838.509316770186,31.6586584704,34.5588049612,2015
2015-10-06,2015-06-10,"מחניים 2, אשקלון",מחניים 2,2869-25-15,דירה בבית קומות,5.0,שלישית,157.0,1150000,,,1995.0,,2.0,10363127040,1,286925,False,,אשקלון,מחניים,,2869-25-15,2869/25,7324.84076433121,31.6686826804,34.5586112485,2015
2015-10-06,2015-06-10,"ז'בוטינסקי 12, אשקלון",ז'בוטינסקי 12,1996-82-3,דירה בבית קומות,4.0,שניה,67.2,500000,,,1970.0,,3.0,10366640730,1,199682,False,,אשקלון,ז'בוטינסקי,,1996-82-3,1996/82,7440.47619047619,31.6537245914,34.5599229782,2015
2015-10-06,2015-06-10,"גמלא 12, אשקלון",גמלא 12,2507-17-10,דירה בבית קומות,5.0,קרקע ראשונה ושניה,177.4,1600000,,,1997.0,,,10363283730,1,250717,False,,אשקלון,גמלא,,2507-17-10,2507/17,9019.165727170235,31.6647522885,34.5768217174,2015
2015-10-06,2015-06-10,"ביכורי ענבים 33, אשקלון",ביכורי ענבים 33,2754-156-33,דירה בבית קומות,4.0,רביעית,118.0,1170000,,,2009.0,,7.0,10362986730,1,2754156,False,,אשקלון,ביכורי ענבים,,2754-156-33,2754/156,9915.254237288136,31.6897374208,34.5845783846,2015
2015-10-06,2015-06-10,"השייטת 3, אשקלון",השייטת 3,1941-109-98,דירה בבית קומות,4.0,שלישית,93.6,850000,,,2005.0,,10.0,10366314570,1,1941109,False,60% ב 9.7 שנים,אשקלון,השייטת,6.19,1941-109-98,1941/109,9081.196581196582,31.6764766656,34.5606701547,2015
2015-10-06,2015-06-10,"דוד רזיאל 28, אשקלון",דוד רזיאל 28,2383-38-6,דירה בבית קומות,2.0,ראשונה,46.8,460000,,,1960.0,,3.0,10363207320,1,238338,False,73% ב 2.5 שנים,אשקלון,רזיאל דוד,29.2,2383-38-6,2383/38,9829.05982905983,31.669344595,34.5940585675,2015
2015-10-06,2015-06-10,"ביכורי ענבים 41, אשקלון",ביכורי ענבים 41,2754-159-17,דירה בבית קומות,5.0,חמישית,104.8,1195000,,,2005.0,,10.0,10363539870,1,2754159,False,109% ב 7.8 שנים,אשקלון,ביכורי ענבים,13.97,2754-159-17,2754/159,11402.67175572519,31.6895704662,34.5831659222,2015
2015-10-05,2015-05-10,"יוספטל 21, אשקלון",יוספטל 21,1997-75-17,דירה בבית קומות,4.0,שלישית,69.7,553000,,,1970.0,,3.0,10361377710,1,199775,False,18% ב 3.8 שנים,אשקלון,יוספטל,4.74,1997-75-17,1997/75,7934.002869440459,31.6512242857,34.5584347581,2015
2015-10-05,2015-05-10,"איילה 31, אשקלון",איילה 31,1296-7-43,דירה בבית קומות,3.0,שביעית,66.15,760000,,,1992.0,,9.0,10361358270,1,12967,False,,אשקלון,איילה,,1296-7-43,1296/7,11489.040060468633,31.6633411485,34.5748581871,2015
2015-10-05,2015-05-10,"אבני חן 6, אשקלון",אבני חן 6,1937-480-4,קוטג' חד משפחתי,6.0,ראשונה,250.0,1800000,,,2013.0,,2.0,10362138120,1,1937480,False,,אשקלון,אבני חן,,1937-480-4,1937/480,7200.0,31.6883567308,34.5690116333,2015
2015-10-03,2015-03-10,"ברייר דב 7, אשקלון",ברייר דב 7,1932-72-112,דירה בבית קומות,4.0,רביעית,102.0,1060000,,,2008.0,,11.0,10356416280,1,193272,False,,אשקלון,ברייר דב,,1932-72-112,1932/72,10392.156862745098,31.6707478025,34.568352655,2015
2015-10-03,2015-03-10,"נמר 61, אשקלון",נמר 61,1282-33-1,קוטג' דו משפחתי,6.0,,135.0,1750000,,,1993.0,,2.0,10359003780,1,128233,False,,אשקלון,נמר,,1282-33-1,1282/33,12962.962962962964,31.6657885411,34.5812492176,2015
2015-10-03,2015-03-10,"חנה סנש 6, אשקלון",חנה סנש 6,1657-92-1,דירה בבית קומות,5.0,קרקע,120.0,1100000,,,1970.0,,1.0,10357459650,1,165792,False,94% ב 5.6 שנים,אשקלון,סנש חנה,16.79,1657-92-1,1657/92,9166.666666666666,31.6516616449,34.5851237945,2015
2015-10-03,2015-03-10,"מנחם בגין 30, אשקלון",מנחם בגין 30,2879-46-12,דירה בבית קומות,4.0,קומה ‎2‏,79.6,740000,,,1993.0,,4.0,10357196760,1,287946,False,,אשקלון,בגין מנחם,,2879-46-12,2879/46,9296.482412060304,31.6733355421,34.5860953554,2015
2015-10-03,2015-03-10,"הנוער העובד 6, אשקלון",הנוער העובד 6,2390-40-29,דירה בבית קומות,3.5,שניה,72.8,700000,,,1993.0,,6.0,10357892460,1,239040,False,91% ב 16.1 שנים,אשקלון,הנוער העובד,5.65,2390-40-29,2390/40,9615.384615384615,31.6606011809,34.5727819521,2015
2015-10-03,2015-03-10,"כנפי נשרים 13, אשקלון",כנפי נשרים 13,3053-61-18,דירה בבית קומות,4.0,שלישית,81.3,690000,,,1995.0,,4.0,10358980200,1,305361,False,,אשקלון,כנפי נשרים,,3053-61-18,3053/61,8487.084870848708,31.6775208763,34.5803985537,2015
2015-10-02,2015-02-10,"יעקב מרידור 11, אשקלון",יעקב מרידור 11,2904-81-31,דירה בבית קומות,4.0,קומה ‎1‏,103.4,1108000,,,2015.0,,10.0,10355486040,1,290481,False,,אשקלון,מרידור יעקב,,2904-81-31,2904/81,10715.667311411991,31.680192209,34.5780865821,2015
2015-10-02,2015-02-10,"החבצלת 26, אשקלון",החבצלת 26,1960-90-1,קוטג' דו משפחתי,3.0,ראשונה,42.5,1700000,,,1969.0,,1.0,10355052330,1,196090,False,,אשקלון,החבצלת,,1960-90-1,1960/90,40000.0,31.6756812877,34.5682161273,2015
2015-10-02,2015-02-10,"דוד רזיאל 10, אשקלון",דוד רזיאל 10,1994-28-14,דירה בבית קומות,3.0,ראשונה,51.9,300000,,,1960.0,,3.0,10354208850,1,199428,False,,אשקלון,רזיאל דוד,,1994-28-14,1994/28,5780.346820809249,31.666244567,34.5938183667,2015
2015-10-02,2015-02-10,"הראל 7, אשקלון",הראל 7,2871-126-2,קוטג' חד משפחתי,5.0,,240.0,1950000,,,1986.0,,1.0,10355779980,1,2871126,False,,אשקלון,הראל,,2871-126-2,2871/126,8125.0,31.6808094848,34.5656046616,2015
2015-10-01,2015-01-10,"ביכורי ענבים 4, אשקלון",ביכורי ענבים 4,2754-72-3,בית בודד,8.0,ראשונה,297.0,2400000,,,2006.0,,1.0,10356389730,1,275472,False,,אשקלון,ביכורי ענבים,,2754-72-3,2754/72,8080.80808080808,31.6916980871,34.5837725652,2015
2015-09-30,2015-09-30,"ברייר דב 7, אשקלון",ברייר דב 7,1932-72-88,דירה בבית קומות,4.0,שניה,103.0,1085000,,,2008.0,,11.0,10372287330,1,193272,False,,אשקלון,ברייר דב,,1932-72-88,1932/72,10533.980582524273,31.6707478025,34.568352655,2015
2015-09-30,2015-09-30,"מודיעין 5, אשקלון",מודיעין 5,1940-68-65,דירה,4.0,שישית,92.0,1189830,1.0,גני אפגד,2021.0,,16.0,11181201508,1,194068,False,,אשקלון,מודיעין,,1940-68-65,1940/68,12932.934782608696,31.6775411974,34.5579888036,2015
2015-09-30,2015-09-30,"מודיעין 5, אשקלון",מודיעין 5,1940-68-66,דירה,4.0,שביעית,102.0,1417881,1.0,גני אפגד,2021.0,,16.0,11181201509,1,194068,False,,אשקלון,מודיעין,,1940-68-66,1940/68,13900.79411764706,31.6775411974,34.5579888036,2015
2015-09-30,2015-09-30,"הגת 13, אשקלון",הגת 13,2753-153-156,דירה בבית קומות,5.0,ראשונה,132.0,1620000,,,2016.0,,9.0,10371966390,1,2753153,False,,אשקלון,הגת,,2753-153-156,2753/153,12272.727272727272,31.6918760386,34.5790445962,2015
2015-09-30,2015-09-30,"יונתן נתניהו 8, אשקלון",יונתן נתניהו 8,2556-14-107,דירה בבית קומות,4.0,שתים עשרה,112.59,1190000,,,2009.0,,14.0,10371368700,1,255614,False,43% ב 5.1 שנים,אשקלון,נתניהו יונתן,8.43,2556-14-107,2556/14,10569.32231992184,31.6889528319,34.5785167582,2015
2015-09-29,2015-09-29,"הגת 13, אשקלון",הגת 13,2753-153-21,דירה,5.0,,132.0,1620000,1.0,כרמי יצחק,2016.0,,9.0,11181207878,1,2753153,False,,אשקלון,הגת,,2753-153-21,2753/153,12272.727272727272,31.6918760386,34.5790445962,2015
2015-09-29,2015-09-29,"ברייר דב 7, אשקלון",ברייר דב 7,1932-72-40,דירה,4.0,שביעית,103.0,1120000,1.0,פסגות אפרידר,2008.0,,11.0,11181200859,1,193272,False,,אשקלון,ברייר דב,,1932-72-40,1932/72,10873.786407766993,31.6707478025,34.568352655,2015
2015-09-29,2015-09-29,"ברייר דב 7, אשקלון",ברייר דב 7,1932-72-39,דירה,4.0,שניה,118.0,1085000,1.0,פסגות אפרידר,2008.0,,11.0,11181200857,1,193272,False,,אשקלון,ברייר דב,,1932-72-39,1932/72,9194.915254237289,31.6707478025,34.568352655,2015
2015-09-29,2015-09-29,"בן-גוריון 11, אשקלון",בן-גוריון 11,2869-31-85,דירה בבית קומות,5.0,ראשונה,122.0,1240000,,,2000.0,,10.0,10372034160,1,286931,False,,אשקלון,בן גוריון,,2869-31-85,2869/31,10163.934426229507,31.6666428624,34.5582958049,2015
2015-09-27,2015-09-27,"הגת 13, אשקלון",הגת 13,2753-153-157,דירה בבית קומות,5.0,שישית,132.0,1481000,,,2016.0,,9.0,10371408210,1,2753153,False,,אשקלון,הגת,,2753-153-157,2753/153,11219.69696969697,31.6918760386,34.5790445962,2015
2015-09-27,2015-09-27,"ניסנית 1, אשקלון",ניסנית 1,1966-49-3,קוטג' דו משפחתי,5.0,ראשונה,207.0,1970000,,,2009.0,,1.0,10373606730,1,196649,False,,אשקלון,ניסנית,,1966-49-3,1966/49,9516.908212560387,31.6988054465,34.5811664734,2015
2015-09-26,2015-09-26,"הגת 13, אשקלון",הגת 13,2753-153-20,דירה,5.0,שישית,132.0,1452000,1.0,כרמי יצחק,2016.0,,9.0,11181207877,1,2753153,False,,אשקלון,הגת,,2753-153-20,2753/153,11000.0,31.6918760386,34.5790445962,2015
2015-09-25,2015-09-25,"בלפור 3, אשקלון",בלפור 3,2556-10-69,דירה בבית קומות,4.0,רביעית,100.75,1350000,,,2010.0,,15.0,10373509440,1,255610,False,15% ב 4.6 שנים,אשקלון,בלפור,3.26,2556-10-69,2556/10,13399.503722084368,31.6867352419,34.575301333,2015
2015-09-25,2015-09-25,"ש""י עגנון 21, אשקלון","ש""י עגנון 21",1944-203-8,דירה בבית קומות,3.0,ראשונה,67.7,775000,,,1995.0,,9.0,10371419280,1,1944203,False,154% ב 7.1 שנים,אשקלון,"עגנון ש""י",21.69,1944-203-8,1944/203,11447.562776957164,31.6589316864,34.5565212091,2015
2015-09-24,2015-09-24,"אשתאול 1, אשקלון",אשתאול 1,2869-28-283,דירה בבית קומות,3.0,רביעית,73.0,850000,,,2000.0,,20.0,10372155030,1,286928,False,,אשקלון,אשתאול,,2869-28-283,2869/28,11643.835616438357,31.667375096,34.5578269375,2015
2015-09-24,2015-09-24,"חודשי השנה 4, אשקלון",חודשי השנה 4,2856-29-9,דירה בבית קומות,5.0,שניה,138.65,1350000,,,2011.0,,9.0,10371696210,1,285629,False,42% ב 4.5 שנים,אשקלון,חודשי השנה,9.33,2856-29-9,2856/29,9736.74720519293,31.6717735459,34.5755624145,2015
2015-09-24,2015-09-24,,,1225-6-196,דירה בבית קומות,4.0,,121.0,1150000,,,2010.0,,,10372005090,2,12256,False,,אשקלון,לוחמי הגטאות,,1225-6-196,1225/6,9504.13223140496,,,2015
2015-09-24,2015-09-24,"כל ישראל חברים 67, אשקלון",כל ישראל חברים 67,3041-71-2,דירה בבית קומות,3.0,,60.0,1075000,,,1990.0,,1.0,10371533490,1,304171,False,,אשקלון,כל ישראל חברים,,3041-71-2,3041/71,17916.666666666668,31.6793997408,34.5892190469,2015
2015-09-24,2015-09-24,"זרעית 32, אשקלון",זרעית 32,3048-42-1,קוטג' דו משפחתי,6.5,שניה,170.0,1805000,,,1993.0,,2.0,10372297590,1,304842,False,,אשקלון,זרעית,,3048-42-1,3048/42,10617.64705882353,31.6777221342,34.5828190579,2015
2015-09-24,2015-09-24,"הגת 13, אשקלון",הגת 13,2753-153-158,דירה בבית קומות,4.0,שניה,107.0,1240000,,,2016.0,,9.0,10371405960,1,2753153,False,,אשקלון,הגת,,2753-153-158,2753/153,11588.785046728972,31.6918760386,34.5790445962,2015
2015-09-24,2015-09-24,"הדרור 1, אשקלון",הדרור 1,1958-64-1,קוטג' דו משפחתי,4.0,ראשונה,107.0,1850000,,,1960.0,,1.0,10372753710,1,195864,False,153% ב 12 שנים,אשקלון,הדרור,12.75,1958-64-1,1958/64,17289.719626168226,31.6709350091,34.5617182784,2015
2015-09-24,2015-09-24,"בני עקיבא 7, אשקלון",בני עקיבא 7,2390-16-10,דירה בבית קומות,3.5,ראשונה,67.9,760000,,,1992.0,,2.0,10371532770,1,239016,False,132% ב 11.1 שנים,אשקלון,בני עקיבא,11.89,2390-16-10,2390/16,11192.930780559644,31.6595767714,34.5700415433,2015
2015-09-23,2015-09-23,"הגת 13, אשקלון",הגת 13,2753-153-19,דירה,4.0,שניה,107.0,1240000,1.0,כרמי יצחק,2016.0,,9.0,11181207875,1,2753153,False,,אשקלון,הגת,,2753-153-19,2753/153,11588.785046728972,31.6918760386,34.5790445962,2015
2015-09-22,2015-09-22,"אבשלום חביב 2, אשקלון",אבשלום חביב 2,3014-6-5,דירה בבית קומות,4.0,שלישית,71.4,600000,,,1970.0,,4.0,10374294420,1,30146,False,36% ב 2.2 שנים,אשקלון,חביב אבשלום,16.36,3014-6-5,3014/6,8403.361344537814,31.6550031769,34.5533454915,2015
2015-09-21,2015-09-21,"אריה 22, אשקלון",אריה 22,1296-17-27,דירה בבית קומות,3.0,שלישית,70.55,770000,,,1993.0,,5.0,10372227930,1,129617,False,73% ב 6.7 שנים,אשקלון,אריה,10.9,1296-17-27,1296/17,10914.245216158752,31.6635898151,34.5792610435,2015
2015-09-21,2015-09-21,"רחבעם זאבי 31, אשקלון",רחבעם זאבי 31,1966-392-17,דירה בבית קומות,5.0,שלישית,98.0,1285000,,,2007.0,,5.0,10373160510,1,1966392,False,42% ב 1.7 שנים,אשקלון,זאבי רחבעם,24.71,1966-392-17,1966/392,13112.244897959185,31.6972891592,34.5779661109,2015
2015-09-21,2015-09-21,"יהודה הלוי 32, אשקלון",יהודה הלוי 32,1962-144-72,דירה בבית קומות,3.0,חמישית,67.0,775000,,,2010.0,,9.0,10372250070,1,1962144,False,133% ב 13 שנים,אשקלון,יהודה הלוי,10.23,1962-144-72,1962/144,11567.164179104477,31.6582905527,34.5635557647,2015
2015-09-21,2015-09-21,"עשרת השבטים 37, אשקלון",עשרת השבטים 37,3050-14-1,קוטג' דו משפחתי,4.0,ראשונה,68.0,900000,,,1995.0,,1.0,10371035520,1,305014,False,,אשקלון,עשרת השבטים,,3050-14-1,3050/14,13235.29411764706,31.6753199128,34.584921047,2015
2015-09-20,2015-09-20,"חיד""א 6, אשקלון","חיד""א 6",1963-53-8,דירה בבית קומות,2.0,ראשונה,34.1,400000,,,1970.0,,4.0,10372911030,1,196353,False,122% ב 6.2 שנים,אשקלון,"חיד""א",19.68,1963-53-8,1963/53,11730.205278592375,31.6603259408,34.5671704709,2015
2015-09-20,2015-09-20,"מגידו 8, אשקלון",מגידו 8,2507-11-28,דירה בבית קומות,3.0,שניה,71.7,900000,,,2000.0,,7.0,10371364200,1,250711,False,21% ב 2.1 שנים,אשקלון,מגידו,10.0,2507-11-28,2507/11,12552.301255230124,31.6682058038,34.5765726364,2015
2015-09-20,2015-09-20,"מונטיפיורי 1, אשקלון",מונטיפיורי 1,1934-236-13,דירה בבית קומות,4.0,רביעית,81.13,750000,,,1970.0,,4.0,10371396330,1,1934236,False,8% ב 0.2 שנים,אשקלון,מונטיפיורי,40.0,1934-236-13,1934/236,9244.422531739185,31.682141536,34.573608627,2015
