DEALDATE,DEALDATETIME,FULLADRESS,DISPLAYADRESS,GUSH,DEALNATUREDESCRIPTION,ASSETROOMNUM,FLOORNO,DEALNATURE,DEALAMOUNT,NEWPROJECTTEXT,PROJECTNAME,BUILDINGYEAR,YEARBUILT,BUILDINGFLOORS,KEYVALUE,TYPE,POLYGON_ID,TREND_IS_NEGATIVE,TREND_FORMAT,city_name,street,presentage per year,GUSH - Copy,Gush_Helka,Price per sqm,lat,lon,Year
2009-12-31,2009-12-31,"נורדאו 2, כפר סבא",נורדאו 2,6435-284-21,דירה בבית קומות,4.0,ראשונה,107.0,1335000,,,1998.0,,3.0,8140532800,1,6435284,False,,כפר סבא,נורדאו,,6435-284-21,6435/284,12476.635514018692,32.172468368,34.9189895541,2009
2009-12-31,2009-12-31,"לוונברג 8, כפר סבא",לוונברג 8,7621-561-30,דירה בבית קומות,5.0,קרקע,136.5,2116000,,,2010.0,,5.0,8141099566,1,7621561,False,,כפר סבא,לוונברג,,7621-561-30,7621/561,15501.831501831502,32.1968767949,34.8946452926,2009
2009-12-31,2009-12-31,"קמינסקי 7, כפר סבא",קמינסקי 7,7621-467-85,דירה בבית קומות,4.0,שלישית,114.1,1460000,,,2009.0,,9.0,8140724608,1,7621467,False,,כפר סבא,קמינסקי,,7621-467-85,7621/467,12795.793163891323,32.1967613012,34.8937526803,2009
2009-12-30,2009-12-30,"נחליאלי 5, כפר סבא",נחליאלי 5,7604-70-27,דירה בבית קומות,3.0,ראשונה,71.0,1180000,,,1995.0,,3.0,8140365708,1,760470,False,67% ב 8 שנים,כפר סבא,נחליאלי,8.38,7604-70-27,7604/70,16619.718309859156,32.1865267095,34.9302169779,2009
2009-12-30,2009-12-30,"עמק איילון 7, כפר סבא",עמק איילון 7,7618-196-8,דירה בבית קומות,3.0,רביעית+חמישית,80.0,1050000,,,1999.0,,4.0,8140330780,1,7618196,False,,כפר סבא,עמק אילון,,7618-196-8,7618/196,13125.0,32.1791352623,34.9344124163,2009
2009-12-30,2009-12-30,"עתירי ידע 5, כפר סבא",עתירי ידע 5,9077-6-2,משרד,,,4265.0,29724000,,,2008.0,,1.0,8142161096,1,90776,False,,כפר סבא,עתירי ידע,,9077-6-2,9077/6,6969.284876905041,32.1647086788,34.9296623254,2009
2009-12-30,2009-12-30,"שאול המלך 10, כפר סבא",שאול המלך 10,7601-55-14,דירה בבית קומות,2.0,ראשונה,38.5,605000,,,1960.0,,4.0,8140483442,1,760155,False,,כפר סבא,שאול המלך,,7601-55-14,7601/55,15714.285714285714,32.1839801592,34.9408097303,2009
2009-12-30,2009-12-30,"שיינפיין 17, כפר סבא",שיינפיין 17,7621-478-25,דירה בבית קומות,6.0,שישית+שביעית,203.5,3200000,,,2010.0,,,8140677544,1,7621478,False,,כפר סבא,שיינפיין,,7621-478-25,7621/478,15724.815724815724,32.1971888463,34.8908526205,2009
2009-12-29,2009-12-29,"ג'ו עמר 6, כפר סבא",ג'ו עמר 6,6429-292-13,דירה בבית קומות,4.0,חמישית,92.22,1540000,,,2010.0,,6.0,8140215488,1,6429292,False,,כפר סבא,ג'ו עמר,,6429-292-13,6429/292,16699.19757102581,32.1861219799,34.8923770191,2009
2009-12-29,2009-12-29,"ירושלים 5, כפר סבא",ירושלים 5,6441-222-9,דירה בבית קומות,3.0,ג,79.1,1202000,,,2025.0,,5.0,8140092130,1,6441222,False,,כפר סבא,ירושלים,,6441-222-9,6441/222,15195.954487989888,32.1735451663,34.9048198119,2009
2009-12-29,2009-12-29,"ארלוזורוב 30, כפר סבא",ארלוזורוב 30,6426-952-7,דירה בבית קומות,5.0,חמישית+גג,186.0,2325000,,,1996.0,,7.0,8140474932,1,6426952,False,79% ב 11.5 שנים,כפר סבא,ארלוזורוב,6.87,6426-952-7,6426/952,12500.0,32.1706380587,34.9044461295,2009
2009-12-29,2009-12-29,"שאול המלך 3, כפר סבא",שאול המלך 3,7600-147-31,דירה בבית קומות,2.0,ג',38.9,635000,,,1960.0,,3.0,8140362600,1,7600147,False,111% ב 2 שנים,כפר סבא,שאול המלך,55.5,7600-147-31,7600/147,16323.907455012852,32.183651448,34.9395645122,2009
2009-12-28,2009-12-28,"אנגל 30, כפר סבא",אנגל 30,7621-458-26,דירה בבית קומות,4.0,שניה,104.73,1300000,,,2010.0,,6.0,8140105006,1,7621458,False,,כפר סבא,אנגל,,7621-458-26,7621/458,12412.87119259047,32.1948171151,34.8939772391,2009
2009-12-28,2009-12-28,"לוונברג 8, כפר סבא",לוונברג 8,7621-561-64,דירה בבית קומות,5.0,רביעית,132.5,1815000,,,2010.0,,5.0,8140848558,1,7621561,False,,כפר סבא,לוונברג,,7621-561-64,7621/561,13698.11320754717,32.1968767949,34.8946452926,2009
2009-12-28,2009-12-28,"לוונברג 8, כפר סבא",לוונברג 8,7621-561-39,דירה בבית קומות,4.0,שלישית,101.4,1484000,,,2010.0,,5.0,8140779590,1,7621561,False,,כפר סבא,לוונברג,,7621-561-39,7621/561,14635.108481262328,32.1968767949,34.8946452926,2009
2009-12-28,2009-12-28,"התחייה 14, כפר סבא",התחייה 14,6441-7-11,דירה בבית קומות,2.0,קרקע,59.15,600000,,,2009.0,,3.0,8140039664,1,64417,False,,כפר סבא,התחיה,,6441-7-11,6441/7,10143.70245139476,32.174618035,34.9037643273,2009
2009-12-25,2009-12-25,"רופין 31, כפר סבא",רופין 31,6435-277-8,דירה בבית קומות,5.0,שניה,110.82,1000000,,,1998.0,,4.0,8140589040,1,6435277,False,,כפר סבא,רופין,,6435-277-8,6435/277,9023.641941887749,32.170161729,34.9189242554,2009
2009-12-25,2009-12-25,"רופין 35, כפר סבא",רופין 35,6435-278-9,דירה בבית קומות,3.0,קרקע תחתונה + שניה,79.0,1150000,,,2004.0,,5.0,8140028638,1,6435278,False,47% ב 5.4 שנים,כפר סבא,רופין,8.7,6435-278-9,6435/278,14556.962025316456,32.1698906045,34.9200907661,2009
2009-12-25,2009-12-25,"סוקולוב 13, כפר סבא",סוקולוב 13,6426-610-6,דירה בבית קומות,3.0,א,74.0,1100000,,,1960.0,,4.0,8140387612,1,6426610,False,,כפר סבא,סוקולוב,,6426-610-6,6426/610,14864.864864864863,32.1750084956,34.9025355476,2009
2009-12-25,2009-12-25,"יציאת אירופה 32, כפר סבא",יציאת אירופה 32,6435-210-8,דירה בבית קומות,4.0,שניה,91.4,1340000,,,1999.0,,7.0,8083192420,1,6435210,False,78% ב 9.7 שנים,כפר סבא,יציאת אירופה,8.04,6435-210-8,6435/210,14660.831509846828,32.1713141656,34.9205295058,2009
2009-12-23,2009-12-23,"דב הוז 9, כפר סבא",דב הוז 9,6428-533-8,דירה בבית קומות,1.5,ראשונה,29.0,680000,,,1960.0,,3.0,8141004180,1,6428533,False,,כפר סבא,הוז דב,,6428-533-8,6428/533,23448.275862068964,32.1805930084,34.8990019123,2009
2009-12-23,2009-12-23,"בית הבד 7, כפר סבא",בית הבד 7,7602-240-4,דירה בבית קומות,4.0,ראשונה,80.4,1000000,,,1985.0,,2.0,8083183318,1,7602240,False,,כפר סבא,בית הבד,,7602-240-4,7602/240,12437.810945273632,32.1831442199,34.9369290073,2009
2009-12-23,2009-12-23,"מור 2, כפר סבא",מור 2,7603-71-3,דירה בבית קומות,4.0,ראשונה,79.7,1100000,,,1985.0,,2.0,8140021904,1,760371,False,55% ב 6.4 שנים,כפר סבא,מור,8.59,7603-71-3,7603/71,13801.756587202008,32.1831313802,34.9345746416,2009
2009-12-22,2009-12-22,"הר גריזים 9, כפר סבא",הר גריזים 9,6434-387-1,קוטג' דו משפחתי,6.0,,224.0,5460000,,,2009.0,,,8083202780,1,6434387,False,,כפר סבא,הר גריזים,,6434-387-1,6434/387,24375.0,32.1800347273,34.9231375297,2009
2009-12-22,2009-12-22,"השחר 12, כפר סבא",השחר 12,6433-398-56,דירה בבית קומות,4.0,ששית,94.9,1300000,,,1980.0,,8.0,8082846840,1,6433398,False,,כפר סבא,השחר,,6433-398-56,6433/398,13698.6301369863,32.1802491886,34.9101073494,2009
2009-12-22,2009-12-22,"המפלס 8, כפר סבא",המפלס 8,6433-559-22,דירה בבית קומות,3.5,שישית,72.29,1100000,,,1970.0,,8.0,8140003626,1,6433559,False,70% ב 6.5 שנים,כפר סבא,המפלס,10.77,6433-559-22,6433/559,15216.48914096002,32.1772808974,34.9161275436,2009
2009-12-21,2009-12-21,"קמינסקי 7, כפר סבא",קמינסקי 7,7621-467-7,דירה בבית קומות,4.0,שניה,95.2,1480000,,,2009.0,,9.0,8140025012,1,7621467,False,,כפר סבא,קמינסקי,,7621-467-7,7621/467,15546.218487394955,32.1967613012,34.8937526803,2009
2009-12-21,2009-12-21,"מאיר אריאל 12, כפר סבא",מאיר אריאל 12,6430-233-26,דירה בבית קומות,6.0,שניה,144.1,1833000,,,2009.0,,6.0,8083183910,1,6430233,False,,כפר סבא,מאיר אריאל,,6430-233-26,6430/233,12720.333102012492,32.189120527,34.895709681,2009
2009-12-17,2009-12-17,"אנגל 30, כפר סבא",אנגל 30,7621-458-23,דירה בבית קומות,4.0,ראשונה,108.3,1355000,,,2010.0,,6.0,8082998984,1,7621458,False,,כפר סבא,אנגל,,7621-458-23,7621/458,12511.542012927055,32.1948171151,34.8939772391,2009
2009-12-17,2009-12-17,"אנגל 30, כפר סבא",אנגל 30,7621-458-25,דירה בבית קומות,4.0,שניה,108.3,1266000,,,2010.0,,6.0,8082995876,1,7621458,False,,כפר סבא,אנגל,,7621-458-25,7621/458,11689.750692520776,32.1948171151,34.8939772391,2009
2009-12-17,2009-12-17,"רוטשילד 55, כפר סבא",רוטשילד 55,6440-88-1,בית בודד,4.0,,110.0,5900000,,,1930.0,,1.0,8142029228,1,644088,False,,כפר סבא,רוטשילד,,6440-88-1,6440/88,53636.36363636364,32.1758172973,34.9082798344,2009
2009-12-17,2009-12-17,"דב הוז 13, כפר סבא",דב הוז 13,6428-416-7,דירה בבית קומות,4.0,רביעית,102.15,1395000,,,1995.0,,5.0,8082813910,1,6428416,False,,כפר סבא,הוז דב,,6428-416-7,6428/416,13656.387665198235,32.1804425452,34.8994949889,2009
2009-12-17,2009-12-17,"נורדאו 9, כפר סבא",נורדאו 9,6435-101-8,דירה בבית קומות,3.0,ראשונה,38.5,1050000,,,1960.0,,2.0,8082996468,1,6435101,False,105% ב 5.8 שנים,כפר סבא,נורדאו,18.1,6435-101-8,6435/101,27272.727272727272,32.171453747,34.9193369727,2009
2009-12-16,2009-12-16,"הראשונים 8, כפר סבא",הראשונים 8,6435-212-25,דירה בבית קומות,6.0,רביעית,118.95,1710000,,,1997.0,,5.0,8082432958,1,6435212,False,,כפר סבא,הראשונים,,6435-212-25,6435/212,14375.788146279949,32.1708777664,34.9209940205,2009
2009-12-16,2009-12-16,"הגר""א 16, כפר סבא","הגר""א 16",6426-164-7,דירה בבית קומות,4.0,קומה ‎2‏,113.0,1240000,,,1972.0,,5.0,8082954288,1,6426164,False,,כפר סבא,"הגר""א",,6426-164-7,6426/164,10973.451327433628,32.1714824074,34.9060134035,2009
2009-12-15,2009-12-15,"דוד זהבי 17, כפר סבא",דוד זהבי 17,6429-307-17,דירה בבית קומות,5.0,שניה,130.5,1740000,,,2010.0,,4.0,8082813318,1,6429307,False,,כפר סבא,זהבי דוד,,6429-307-17,6429/307,13333.333333333334,32.1848265112,34.8928185091,2009
2009-12-14,2009-12-14,"עמק חורון 2, כפר סבא",עמק חורון 2,7618-82-9,דירה בבית קומות,5.0,רביעית+חמישית,116.19,1650000,,,2003.0,,4.0,8082307824,1,761882,False,,כפר סבא,עמק חורון,,7618-82-9,7618/82,14200.877872450295,32.1795547602,34.9320082014,2009
2009-12-14,2009-12-14,"נורית 4, כפר סבא",נורית 4,6428-600-2,קוטג' דו משפחתי,6.0,קרקע + ראשונה + גג,168.22,2925000,,,1993.0,,,8082777280,1,6428600,False,,כפר סבא,נורית,,6428-600-2,6428/600,17387.944358578054,32.1832917156,34.9010266437,2009
2009-12-14,2009-12-14,"טשרניחובסקי 28, כפר סבא",טשרניחובסקי 28,6427-499-3,דירה בבית קומות,4.0,ראשונה,100.83,1050000,,,1980.0,,8.0,8082293764,1,6427499,False,,כפר סבא,טשרניחובסקי,,6427-499-3,6427/499,10413.567390657545,32.1774949215,34.8942438495,2009
2009-12-13,2009-12-13,"ששת הימים 40, כפר סבא",ששת הימים 40,6427-260-2,דירה בבית קומות,4.0,ראשונה,102.0,1460000,,,2005.0,,6.0,8082689960,1,6427260,False,,כפר סבא,ששת הימים,,6427-260-2,6427/260,14313.72549019608,32.176583089,34.894055022,2009
2009-12-13,2009-12-13,"השרון 10, כפר סבא",השרון 10,6427-641-17,משרד,,שלישית,37.0,374000,,,1996.0,,2.0,8142841230,1,6427641,True,-16% ב 11.8 שנים,כפר סבא,השרון,-1.36,6427-641-17,6427/641,10108.108108108108,32.1740382094,34.8919694876,2009
2009-12-13,2009-12-13,"מבצע יונתן 3, כפר סבא",מבצע יונתן 3,6433-631-2,דירה בבית קומות,4.0,ראשונה,93.26,1187000,,,1980.0,,5.0,8082304790,1,6433631,False,,כפר סבא,מבצע יונתן,,6433-631-2,6433/631,12727.857602401886,32.1796128765,34.9164147743,2009
2009-12-11,2009-11-12,"תל חי 22, כפר סבא",תל חי 22,6437-87-15,דירה בבית קומות,3.0,רביעית,67.8,885000,,,1970.0,2009.0,4.0,8080352522,1,643787,False,,כפר סבא,תל חי,,6437-87-15,6437/87,13053.097345132745,32.1725291236,34.9138318361,2009
2009-12-11,2009-11-12,"ג'ו עמר 2, כפר סבא",ג'ו עמר 2,6429-299-23,דירה בבית קומות,5.0,שלישית,150.0,1920000,,,2010.0,,5.0,8080717638,1,6429299,False,,כפר סבא,ג'ו עמר,,6429-299-23,6429/299,12800.0,32.1855820197,34.8917942319,2009
2009-12-11,2009-11-12,"עתירי ידע 11, כפר סבא",עתירי ידע 11,9077-14-3,מלאכה,,קרקע,805.0,4000000,,,2000.0,,3.0,8081152832,1,907714,False,,כפר סבא,עתירי ידע,,9077-14-3,9077/14,4968.944099378882,32.162642563,34.9333986724,2009
2009-12-11,2009-11-12,"ויצמן 59, כפר סבא",ויצמן 59,6428-713-21,דירה בבית קומות,4.0,חמישית,103.75,1600000,,,2008.0,,8.0,8080951774,1,6428713,False,,כפר סבא,ויצמן,,6428-713-21,6428/713,15421.686746987953,32.1769824604,34.9024286762,2009
2009-12-10,2009-10-12,"נחליאלי 3, כפר סבא",נחליאלי 3,7604-70-24,דירה בבית קומות,5.5,שניה + שלישית,117.0,1455000,,,1995.0,,3.0,8078443914,1,760470,False,39% ב 1.5 שנים,כפר סבא,נחליאלי,26.0,7604-70-24,7604/70,12435.897435897436,32.1865267095,34.9302169779,2009
2009-12-08,2009-08-12,"קבוצת ל""ג 7, כפר סבא","קבוצת ל""ג 7",6431-243-1,קוטג' דו משפחתי,7.0,,220.0,2750000,,,1993.0,,,8075782134,1,6431243,False,,כפר סבא,"קבוצת ל""ג",,6431-243-1,6431/243,12500.0,32.180211725,34.9086704989,2009
2009-12-08,2009-08-12,"עפרוני 12, כפר סבא",עפרוני 12,7604-66-35,דירה בבית קומות,6.0,שניה ושלישית,116.0,1355000,,,1993.0,,5.0,8075620962,1,760466,False,,כפר סבא,עפרוני,,7604-66-35,7604/66,11681.03448275862,32.1857233699,34.9296683283,2009
2009-12-08,2009-08-12,"תל חי 81, כפר סבא",תל חי 81,6433-524-16,דירה בבית קומות,3.0,רביעית,50.5,765000,,,1970.0,,4.0,8075732184,1,6433524,False,85% ב 5.5 שנים,כפר סבא,תל חי,15.45,6433-524-16,6433/524,15148.514851485148,32.1797362059,34.9155692628,2009
2009-12-08,2009-08-12,"דוד זהבי 7, כפר סבא",דוד זהבי 7,6429-305-10,דירה בבית קומות,6.0,ראשונה,147.16,1756000,,,2009.0,,4.0,8076003764,1,6429305,False,,כפר סבא,זהבי דוד,,6429-305-10,6429/305,11932.59037782006,32.1848343713,34.8937002953,2009
2009-12-08,2009-08-12,"ויינברג 9, כפר סבא",ויינברג 9,7621-474-42,דירה בבית קומות,5.0,רביעית,141.12,1563000,,,2010.0,,10.0,8075854802,1,7621474,False,,כפר סבא,ויינברג,,7621-474-42,7621/474,11075.680272108842,32.1971360908,34.8918797681,2009
2009-12-08,2009-08-12,"לוונברג 2, כפר סבא",לוונברג 2,7621-562-21,דירה בבית קומות,5.0,חמישית,132.5,1748000,,,2009.0,,,8077041614,1,7621562,False,,כפר סבא,לוונברג,,7621-562-21,7621/562,13192.452830188678,32.1958632006,34.8947243478,2009
2009-12-07,2009-07-12,"רבקה גובר 5, כפר סבא",רבקה גובר 5,6435-158-18,דירה בבית קומות,4.0,שישית,105.47,1500000,,,1988.0,,6.0,8073957960,1,6435158,False,,כפר סבא,גובר רבקה,,6435-158-18,6435/158,14222.05366454916,32.1725020984,34.9172818358,2009
2009-12-07,2009-07-12,"אח""י אילת 14, כפר סבא","אח""י אילת 14",6435-68-16,דירה בבית קומות,3.0,רביעית,53.4,600000,,,1960.0,,4.0,8075314528,1,643568,False,,כפר סבא,"אח""י אילת",,6435-68-16,6435/68,11235.955056179777,32.1738013698,34.9214315731,2009
2009-12-07,2009-07-12,"רופין 46, כפר סבא",רופין 46,6435-248-2,קוטג' חד משפחתי,5.0,ראשונה,104.0,1750000,,,2000.0,,6.0,8074049646,1,6435248,False,76% ב 9.2 שנים,כפר סבא,רופין,8.26,6435-248-2,6435/248,16826.923076923078,32.1688879516,34.9225072002,2009
2009-12-05,2009-05-12,"הרעות 17, כפר סבא",הרעות 17,6435-242-5,דירה בבית קומות,3.0,קרקע תחתונה+שניה,78.0,1125000,,,1999.0,,4.0,8074085536,1,6435242,False,61% ב 10.1 שנים,כפר סבא,הרעות,6.04,6435-242-5,6435/242,14423.076923076924,32.169973235,34.9224583329,2009
2009-12-05,2009-05-12,"חסידה 2, כפר סבא",חסידה 2,9088-43-10,דירה בבית קומות,4.0,שלישית,103.0,1349000,,,2010.0,,7.0,8071418354,1,908843,False,,כפר סבא,חסידה,,9088-43-10,9088/43,13097.087378640776,32.1863311622,34.9267991889,2009
2009-12-05,2009-05-12,"חסידה 2, כפר סבא",חסידה 2,9088-43-14,דירה בבית קומות,4.0,רביעית,108.0,1326000,,,2010.0,,7.0,8071414654,1,908843,False,,כפר סבא,חסידה,,9088-43-14,9088/43,12277.777777777776,32.1863311622,34.9267991889,2009
2009-12-05,2009-05-12,"חסידה 2, כפר סבא",חסידה 2,9088-43-17,דירה בבית קומות,4.0,חמישית,107.0,1339000,,,2010.0,,7.0,8071414062,1,908843,False,,כפר סבא,חסידה,,9088-43-17,9088/43,12514.018691588784,32.1863311622,34.9267991889,2009
2009-12-05,2009-05-12,"עמק חפר 2, כפר סבא",עמק חפר 2,7618-84-17,דירה בבית קומות,3.0,שניה,82.94,900000,,,2005.0,,6.0,8071180814,1,761884,False,,כפר סבא,עמק חפר,,7618-84-17,7618/84,10851.217747769471,32.1800133863,34.9319951855,2009
2009-12-05,2009-05-12,"משה וילנסקי 9, כפר סבא",משה וילנסקי 9,6429-293-1,דירה בבית קומות,6.0,קרקע וראשונה,151.54,1870000,,,2009.0,,6.0,8071083208,1,6429293,False,,כפר סבא,וילנסקי משה,,6429-293-1,6429/293,12339.976243896002,32.1859695007,34.8927406328,2009
2009-12-04,2009-04-12,"תל חי 22, כפר סבא",תל חי 22,6437-87-6,דירה בבית קומות,3.0,שניה,67.8,845000,,,1970.0,,4.0,8069956780,1,643787,False,,כפר סבא,תל חי,,6437-87-6,6437/87,12463.126843657818,32.1725291236,34.9138318361,2009
2009-12-03,2009-03-12,,,6438-171-1,חנות,,,670.0,7249000,,,1967.0,,,8070001328,2,6438171,False,,כפר סבא,המיסדים,,6438-171-1,6438/171,10819.402985074626,32.1758006467,34.909833038,2009
2009-12-01,2009-01-12,"המייסדים 1, כפר סבא",המייסדים 1,6438-146-12,דירה בבית קומות,3.0,ב,45.6,658000,,,1960.0,,2.0,8066438524,1,6438146,False,2% ב 0.6 שנים,כפר סבא,המיסדים,3.33,6438-146-12,6438/146,14429.824561403508,32.1751817838,34.9140055908,2009
2009-11-30,2009-11-30,"דוד זהבי 17, כפר סבא",דוד זהבי 17,6429-307-13,דירה בבית קומות,6.0,קרקע וראשונה,142.98,2350000,,,2010.0,,4.0,8081136848,1,6429307,False,,כפר סבא,זהבי דוד,,6429-307-13,6429/307,16435.865155965872,32.1848265112,34.8928185091,2009
2009-11-30,2009-11-30,"דוד זהבי 10, כפר סבא",דוד זהבי 10,6429-297-7,דירה בבית קומות,4.0,ראשונה,108.0,1464000,,,2010.0,,4.0,8082207628,1,6429297,False,,כפר סבא,זהבי דוד,,6429-297-7,6429/297,13555.555555555557,32.1852933224,34.8919919111,2009
2009-11-30,2009-11-30,"השקמה 16, כפר סבא",השקמה 16,7602-187-8,דירה בבית קומות,3.0,רביעית,60.2,625000,,,1970.0,,4.0,8081075946,1,7602187,False,,כפר סבא,השקמה,,7602-187-8,7602/187,10382.05980066445,32.1795301218,34.9387873358,2009
2009-11-30,2009-11-30,"שחף 7, כפר סבא",שחף 7,9088-10-8,דירה בבית קומות,4.0,שלישית,99.1,1600000,,,2007.0,,8.0,8080953106,1,908810,False,55% ב 2.7 שנים,כפר סבא,שחף,20.37,9088-10-8,9088/10,16145.307769929364,32.1869728745,34.9277535271,2009
2009-11-29,2009-11-29,"העמק 19, כפר סבא",העמק 19,6437-112-14,דירה בבית קומות,3.0,שלישית,64.67,805000,,,1970.0,,4.0,8080812580,1,6437112,False,,כפר סבא,העמק,,6437-112-14,6437/112,12447.811968455237,32.1733291752,34.9151200463,2009
2009-11-29,2009-11-29,"רופין 44, כפר סבא",רופין 44,6435-247-8,דירה בבית קומות,4.0,קרקע תחתונה+שניה,94.1,1580000,,,2000.0,,5.0,8081039168,1,6435247,False,86% ב 10.7 שנים,כפר סבא,רופין,8.04,6435-247-8,6435/247,16790.64824654623,32.1688329982,34.9220839382,2009
2009-11-29,2009-11-29,"לוונברג 2, כפר סבא",לוונברג 2,7621-562-18,דירה בבית קומות,4.0,רביעית,101.3,1482000,,,2010.0,,,8083069136,1,7621562,False,,כפר סבא,לוונברג,,7621-562-18,7621/562,14629.812438302071,32.1958632006,34.8947243478,2009
2009-11-29,2009-11-29,"אהוד מנור 17, כפר סבא",אהוד מנור 17,6430-251-28,דירה בבית קומות,5.0,ראשונה,130.41,1630000,,,2009.0,,8.0,8081135146,1,6430251,False,,כפר סבא,מנור אהוד,,6430-251-28,6430/251,12499.041484548732,32.1876028305,34.8949352677,2009
2009-11-29,2009-11-29,"החרושת 6, כפר סבא",החרושת 6,7606-82-11,תעשיה,,,860.0,6520000,,,2000.0,,4.0,8083073428,1,760682,False,,כפר סבא,החרושת,,7606-82-11,7606/82,7581.395348837209,32.1765995806,34.9276315868,2009
2009-11-27,2009-11-27,"ויצמן 160, כפר סבא",ויצמן 160,6439-429-9,דירה בבית קומות,4.0,ראשונה,92.8,930000,,,1980.0,,4.0,8140546860,1,6439429,False,8% ב 0.6 שנים,כפר סבא,ויצמן,13.33,6439-429-9,6439/429,10021.551724137931,32.1738173156,34.9136688378,2009
2009-11-27,2009-11-27,"גורדון 3, כפר סבא",גורדון 3,6426-207-16,דירה בבית קומות,4.0,ב,95.55,1275000,,,1970.0,,4.0,8081118570,1,6426207,False,66% ב 7 שנים,כפר סבא,גורדון,9.43,6426-207-16,6426/207,13343.799058084773,32.177027683,34.8995065682,2009
2009-11-26,2009-11-26,"מענית 8, כפר סבא",מענית 8,6429-230-4,דירה בבית קומות,5.0,קרקע תחתונה+עליונה,104.8,1700000,,,1994.0,,3.0,8080951256,1,6429230,False,65% ב 7.3 שנים,כפר סבא,מענית,8.9,6429-230-4,6429/230,16221.374045801527,32.1832749183,34.8972603456,2009
2009-11-26,2009-11-26,"עמק חורון 4, כפר סבא",עמק חורון 4,7618-316-14,דירה בבית קומות,4.0,ראשונה,92.31,1440000,,,2004.0,,4.0,8080763962,1,7618316,False,,כפר סבא,עמק חורון,,7618-316-14,7618/316,15599.610009749757,32.179032074,34.9320034689,2009
2009-11-26,2009-11-26,"אהוד מנור 23, כפר סבא",אהוד מנור 23,6430-245-8,דירה בבית קומות,5.0,שניה,127.42,1714000,,,2010.0,,8.0,8081321700,1,6430245,False,,כפר סבא,מנור אהוד,,6430-245-8,6430/245,13451.577460367287,32.1883695633,34.8939386481,2009
2009-11-26,2009-11-26,"ויצמן 58, כפר סבא",ויצמן 58,6426-602-28,דירה בבית קומות,3.0,ו,82.3,1050000,,,1970.0,,8.0,8080810286,1,6426602,False,,כפר סבא,ויצמן,,6426-602-28,6426/602,12758.20170109356,32.1763514701,34.9023369471,2009
2009-11-25,2009-11-25,"תל חי 99, כפר סבא",תל חי 99,6432-90-17,דירה בבית קומות,4.0,שניה,77.89,1450000,,,1998.0,,5.0,8080898198,1,643290,False,,כפר סבא,תל חי,,6432-90-17,6432/90,18615.996918731544,32.1831044951,34.9163637537,2009
2009-11-25,2009-11-25,"מאיר אריאל 12, כפר סבא",מאיר אריאל 12,6430-233-19,דירה בבית קומות,7.0,"שישית, שביעית",171.6,2445000,,,2009.0,,6.0,8080894498,1,6430233,False,,כפר סבא,מאיר אריאל,,6430-233-19,6430/233,14248.251748251749,32.189120527,34.895709681,2009
2009-11-25,2009-11-25,"שמחה הולצברג 3, כפר סבא",שמחה הולצברג 3,6429-309-23,דירה בבית קומות,9.0,רביעית וחמישית,214.01,2800000,,,2009.0,,4.0,8080902416,1,6429309,False,,כפר סבא,שמחה הולצברג,,6429-309-23,6429/309,13083.50077099201,32.1843915719,34.8933735481,2009
2009-11-25,2009-11-25,"התפוז 1, כפר סבא",התפוז 1,6437-110-14,דירה בבית קומות,3.0,שניה,58.45,870000,,,1970.0,,4.0,8082396920,1,6437110,False,68% ב 2.2 שנים,כפר סבא,התפוז,30.91,6437-110-14,6437/110,14884.516680923864,32.1736056007,34.914267003,2009
2009-11-25,2009-11-25,"דוד זהבי 15, כפר סבא",דוד זהבי 15,6429-307-5,דירה בבית קומות,4.0,שניה,103.4,1530000,,,2010.0,,4.0,8080895682,1,6429307,False,,כפר סבא,זהבי דוד,,6429-307-5,6429/307,14796.905222437135,32.1848265112,34.8928185091,2009
2009-11-25,2009-11-25,"עמק האלה 2, כפר סבא",עמק האלה 2,7618-305-3,דירה בבית קומות,4.0,ראשונה,97.8,1460000,,,2008.0,,5.0,8081103326,1,7618305,False,15% ב 1.4 שנים,כפר סבא,עמק האלה,10.71,7618-305-3,7618/305,14928.425357873211,32.1782448232,34.9332649015,2009
2009-11-25,2009-11-25,"סירני 35, כפר סבא",סירני 35,6427-221-2,קוטג' דו משפחתי,6.0,א,200.0,2190000,,,1984.0,,1.0,8080957990,1,6427221,False,,כפר סבא,סירני,,6427-221-2,6427/221,10950.0,32.1804855073,34.8910219632,2009
2009-11-24,2009-11-24,"מאיר אריאל 12, כפר סבא",מאיר אריאל 12,6430-233-35,דירה בבית קומות,6.0,חמישית,144.1,1866000,,,2009.0,,6.0,8080891464,1,6430233,False,,כפר סבא,מאיר אריאל,,6430-233-35,6430/233,12949.34073560028,32.189120527,34.895709681,2009
2009-11-24,2009-11-24,"ג'ו עמר 2, כפר סבא",ג'ו עמר 2,6429-299-22,דירה בבית קומות,6.0,שלישית,163.0,2060000,,,2010.0,,5.0,8080718822,1,6429299,False,,כפר סבא,ג'ו עמר,,6429-299-22,6429/299,12638.03680981595,32.1855820197,34.8917942319,2009
2009-11-24,2009-11-24,"אברהם פררה 1, כפר סבא",אברהם פררה 1,6430-249-10,דירה בבית קומות,6.0,חמישית,131.8,2555000,,,2009.0,,6.0,8081159566,1,6430249,False,,כפר סבא,פררה אברהם,,6430-249-10,6430/249,19385.432473444613,32.1879767611,34.8944026003,2009
2009-11-24,2009-11-24,"הגליל 43, כפר סבא",הגליל 43,6433-668-53,דירה בבית קומות,5.0,חמישית,113.2,1305000,,,1983.0,,8.0,8146664810,1,6433668,False,,כפר סבא,הגליל,,6433-668-53,6433/668,11528.268551236748,32.1785861703,34.9180027916,2009
2009-11-24,2009-11-24,"שלום אש 5, כפר סבא",שלום אש 5,6426-547-1,דירה בבית קומות,4.5,ראשונה,44.92,1370000,,,1954.0,,,8080876812,1,6426547,False,,כפר סבא,אש שלום,,6426-547-1,6426/547,30498.6642920748,32.1717276682,34.8995648086,2009
2009-11-23,2009-11-23,"תל חי 71, כפר סבא",תל חי 71,6433-722-16,דירה בבית קומות,6.0,"קומה ‎4‏, קומה ‎5‏",179.49,2470000,,,2009.0,,5.0,8080698028,1,6433722,False,,כפר סבא,תל חי,,6433-722-16,6433/722,13761.21232380634,32.178113212,34.9149276921,2009
2009-11-23,2009-11-23,"יסמין 4, כפר סבא",יסמין 4,6427-701-9,דירה בבית קומות,6.0,חמישית + שישית,199.0,2350000,,,2008.0,,5.0,8080611966,1,6427701,False,,כפר סבא,יסמין,,6427-701-9,6427/701,11809.045226130653,32.1777441632,34.8951802147,2009
2009-11-23,2009-11-23,"קמינסקי 7, כפר סבא",קמינסקי 7,7621-467-64,דירה בבית קומות,5.0,שלישית,131.1,1690000,,,2009.0,,9.0,8080896274,1,7621467,False,,כפר סבא,קמינסקי,,7621-467-64,7621/467,12890.922959572848,32.1967613012,34.8937526803,2009
2009-11-23,2009-11-23,"המעפילים 16, כפר סבא",המעפילים 16,6428-448-8,דירה בבית קומות,5.0,שניה,116.0,1380000,,,1982.0,,6.0,8081149798,1,6428448,False,,כפר סבא,המעפילים,,6428-448-8,6428/448,11896.551724137931,32.1800741221,34.9007883884,2009
2009-11-22,2009-11-22,"אהוד מנור 23, כפר סבא",אהוד מנור 23,6430-245-1,דירה בבית קומות,6.0,קרקע עליונה,126.9,2099000,,,2010.0,,8.0,8081324216,1,6430245,False,,כפר סבא,מנור אהוד,,6430-245-1,6430/245,16540.583136327816,32.1883695633,34.8939386481,2009
2009-11-22,2009-11-22,"גאולה 26, כפר סבא",גאולה 26,6426-667-3,דירה בבית קומות,4.0,ראשונה,103.02,1200000,,,1985.0,,6.0,8080748126,1,6426667,False,,כפר סבא,גאולה,,6426-667-3,6426/667,11648.223645894002,32.1740992448,34.899264056,2009
2009-11-19,2009-11-19,"שיינפיין 26, כפר סבא",שיינפיין 26,7621-474-136,דירה בבית קומות,5.0,קרקע,114.02,1800000,,,2010.0,,10.0,8080607008,1,7621474,False,,כפר סבא,שיינפיין,,7621-474-136,7621/474,15786.70408700228,32.1971360908,34.8918797681,2009
2009-11-19,2009-11-19,"הרעות 17, כפר סבא",הרעות 17,6435-242-24,דירה בבית קומות,4.0,ק. תחתונה+שניה,96.8,1370000,,,1999.0,,4.0,8082944594,1,6435242,False,,כפר סבא,הרעות,,6435-242-24,6435/242,14152.892561983472,32.169973235,34.9224583329,2009
2009-11-19,2009-11-19,"הוז דב 1, כפר סבא",הוז דב 1,6428-529-2,דירה בבית קומות,5.0,ראשונה,114.0,1200000,,,1990.0,,5.0,8080692626,1,6428529,False,,כפר סבא,הוז דב,,6428-529-2,6428/529,10526.315789473683,32.1808727229,34.8979044607,2009
2009-11-18,2009-11-18,"אברהם פררה 1, כפר סבא",אברהם פררה 1,6430-249-29,דירה בבית קומות,6.0,שישית,127.98,2550000,,,2009.0,,6.0,8081158308,1,6430249,False,,כפר סבא,פררה אברהם,,6430-249-29,6430/249,19924.98827941866,32.1879767611,34.8944026003,2009
2009-11-18,2009-11-18,"שיינפיין 17, כפר סבא",שיינפיין 17,7621-478-11,דירה בבית קומות,4.0,שניה,100.5,1379000,,,2009.0,,,8080776838,1,7621478,False,,כפר סבא,שיינפיין,,7621-478-11,7621/478,13721.393034825873,32.1971888463,34.8908526205,2009
2009-11-17,2009-11-17,"שיינפיין 17, כפר סבא",שיינפיין 17,7621-478-17,דירה בבית קומות,5.0,רביעית,128.8,1630000,,,2009.0,,,8081100218,1,7621478,False,,כפר סבא,שיינפיין,,7621-478-17,7621/478,12655.279503105588,32.1971888463,34.8908526205,2009
2009-11-17,2009-11-17,"ג'ו עמר 2, כפר סבא",ג'ו עמר 2,6429-299-10,דירה בבית קומות,5.0,שלישית,140.0,1935000,,,2010.0,,5.0,8080717046,1,6429299,False,,כפר סבא,ג'ו עמר,,6429-299-10,6429/299,13821.42857142857,32.1855820197,34.8917942319,2009
2009-11-17,2009-11-17,"דב הוז 3, כפר סבא",דב הוז 3,6428-528-6,דירה בבית קומות,5.0,שלישית,100.3,1470000,,,1990.0,,5.0,8080586214,1,6428528,False,,כפר סבא,הוז דב,,6428-528-6,6428/528,14656.03190428714,32.180753998,34.8980929082,2009
2009-11-16,2009-11-16,"טשרניחובסקי 120, כפר סבא",טשרניחובסקי 120,7595-87-1,קרקע למגורים,,,1498.0,2924000,,,,,,8080792082,1,759587,False,,כפר סבא,טשרניחובסקי,,7595-87-1,7595/87,1951.935914552737,32.1901575506,34.9075858939,2009
2009-11-16,2009-11-16,"הכרמל 44, כפר סבא",הכרמל 44,6438-345-9,דירה בבית קומות,4.0,שלישית,110.0,1380000,,,1994.0,,6.0,8080554542,1,6438345,False,,כפר סבא,הכרמל,,6438-345-9,6438/345,12545.454545454546,32.1775667102,34.9104331497,2009
2009-11-16,2009-11-16,"אהוד מנור 23, כפר סבא",אהוד מנור 23,6430-245-2,דירה בבית קומות,5.0,קרקע עליונה,114.12,1925000,,,2010.0,,8.0,8080619884,1,6430245,False,,כפר סבא,מנור אהוד,,6430-245-2,6430/245,16868.208902909217,32.1883695633,34.8939386481,2009
2009-11-16,2009-11-16,"כינרת 18, כפר סבא",כינרת 18,6440-200-1,דירה בבית קומות,5.0,קרקע,115.0,2130000,,,1991.0,,7.0,8080253658,1,6440200,False,,כפר סבא,כנרת,,6440-200-1,6440/200,18521.739130434784,32.1772581882,34.9081951876,2009
2009-11-15,2009-11-15,"ויצמן 60, כפר סבא",ויצמן 60,6426-596-12,דירה בבית קומות,3.0,ב,62.0,990000,,,1960.0,,5.0,8080398254,1,6426596,False,,כפר סבא,ויצמן,,6426-596-12,6426/596,15967.741935483871,32.1763111188,34.902949902,2009
2009-11-15,2009-11-15,"זאב גולד 9, כפר סבא",זאב גולד 9,6433-266-3,דירה בבית קומות,3.0,שניה,35.05,1000000,,,1950.0,,2.0,8080359700,1,6433266,False,,כפר סבא,גולד זאב,,6433-266-3,6433/266,28530.670470756064,32.1805271848,34.9139961432,2009
2009-11-15,2009-11-15,"בן גוריון 38, כפר סבא",בן גוריון 38,6426-914-1,דירה בבית קומות,5.0,ראשונה,112.0,1680000,,,1992.0,,4.0,8083124118,1,6426914,False,82% ב 10 שנים,כפר סבא,בן גוריון,8.2,6426-914-1,6426/914,15000.0,32.1721292981,34.9083983686,2009
2009-11-15,2009-11-15,"בן גוריון 32, כפר סבא",בן גוריון 32,6426-941-2,דירת גן,5.0,ראשונה,100.8,1800000,,,1998.0,,4.0,8080690110,1,6426941,False,,כפר סבא,בן גוריון,,6426-941-2,6426/941,17857.14285714286,32.1725374145,34.9069177792,2009
2009-11-13,2009-11-13,"גאולה 30, כפר סבא",גאולה 30,6426-668-6,דירה בבית קומות,4.0,שניה,103.02,1112000,,,1986.0,,6.0,8080251734,1,6426668,False,,כפר סבא,גאולה,,6426-668-6,6426/668,10794.020578528442,32.1733205873,34.8990029527,2009
2009-11-12,2009-12-11,"ביאליק 12, כפר סבא",ביאליק 12,6426-99-5,דירה בבית קומות,3.5,שניה,91.11,1170000,,,1973.0,,3.0,8082384192,1,642699,False,,כפר סבא,ביאליק,,6426-99-5,6426/99,12841.62001975634,32.1708338291,34.9085768749,2009
2009-11-11,2009-11-11,"ויינברג 9, כפר סבא",ויינברג 9,7621-474-33,דירה בבית קומות,4.0,שניה,110.12,1390000,,,2010.0,,10.0,8080180990,1,7621474,False,,כפר סבא,ויינברג,,7621-474-33,7621/474,12622.59353432619,32.1971360908,34.8918797681,2009
2009-11-11,2009-11-11,"ברקן 5, כפר סבא",ברקן 5,6430-199-37,דירה בבית קומות,4.0,ראשונה,83.0,1420000,,,1996.0,,5.0,8080497266,1,6430199,False,42% ב 3.5 שנים,כפר סבא,ברקן,12.0,6430-199-37,6430/199,17108.433734939757,32.186726299,34.8971262616,2009
2009-11-11,2009-11-11,"יהודה המכבי 2, כפר סבא",יהודה המכבי 2,7601-98-5,דירה בבית קומות,3.0,ראשונה,56.0,680000,,,1970.0,2009.0,3.0,8081138772,1,760198,False,,כפר סבא,יהודה המכבי,,7601-98-5,7601/98,12142.857142857143,32.1841888699,34.9409865097,2009
2009-11-11,2009-11-11,"בר אילן 5, כפר סבא",בר אילן 5,6433-53-0,קוטג' טורי,5.0,,854.0,2300000,,,2009.0,,1.0,8080331728,1,643353,False,,כפר סבא,בר אילן,,6433-53-0,6433/53,2693.208430913349,32.178234797,34.9120043378,2009
2009-11-10,2009-10-11,"חטיבת אלכסנדרוני 7, כפר סבא",חטיבת אלכסנדרוני 7,7603-103-5,דירה בבית קומות,5.0,שלישית,118.0,1400000,,,1995.0,,1.0,8078653482,1,7603103,False,,כפר סבא,חטיבת אלכסנדרוני,,7603-103-5,7603/103,11864.406779661016,32.1830684996,34.9327627278,2009
2009-11-10,2009-10-11,"קמינסקי 7, כפר סבא",קמינסקי 7,7621-467-10,דירה בבית קומות,4.0,שלישית,95.2,1400000,,,2009.0,,9.0,8078635722,1,7621467,False,,כפר סבא,קמינסקי,,7621-467-10,7621/467,14705.882352941177,32.1967613012,34.8937526803,2009
2009-11-10,2009-10-11,"ארלוזורוב 17, כפר סבא",ארלוזורוב 17,6426-1021-11,דירה בבית קומות,4.0,שלישית,96.0,1500000,,,2005.0,,5.0,8078451240,1,64261021,False,,כפר סבא,ארלוזורוב,,6426-1021-11,6426/1021,15625.0,32.1713267752,34.9033643247,2009
2009-11-10,2009-10-11,"מאיר אריאל 12, כפר סבא",מאיר אריאל 12,6430-233-14,דירה בבית קומות,4.0,רביעית,103.2,1435000,,,2009.0,,6.0,8078799410,1,6430233,False,,כפר סבא,מאיר אריאל,,6430-233-14,6430/233,13905.038759689922,32.189120527,34.895709681,2009
2009-11-10,2009-10-11,"ארבל 4, כפר סבא",ארבל 4,6440-181-39,דירה בבית קומות,4.0,שניה,93.19,1420000,,,1990.0,,5.0,8078251070,1,6440181,False,,כפר סבא,ארבל,,6440-181-39,6440/181,15237.686447043674,32.1763886261,34.9070122502,2009
2009-11-09,2009-09-11,"חסידה 2, כפר סבא",חסידה 2,9088-43-19,דירה בבית קומות,5.0,שישית,122.0,2180000,,,2010.0,,7.0,8078013678,1,908843,False,,כפר סבא,חסידה,,9088-43-19,9088/43,17868.852459016394,32.1863311622,34.9267991889,2009
2009-11-09,2009-09-11,"חסידה 2, כפר סבא",חסידה 2,9088-43-6,דירה בבית קומות,5.0,ראשונה,116.0,1573000,,,2010.0,,7.0,8078014788,1,908843,False,,כפר סבא,חסידה,,9088-43-6,9088/43,13560.344827586208,32.1863311622,34.9267991889,2009
2009-11-08,2009-08-11,"לוונברג 4, כפר סבא",לוונברג 4,7621-562-41,דירה בבית קומות,5.0,רביעית,132.5,1747000,,,2009.0,,,8077039838,1,7621562,False,,כפר סבא,לוונברג,,7621-562-41,7621/562,13184.90566037736,32.1958632006,34.8947243478,2009
2009-11-08,2009-08-11,"ארבל 4, כפר סבא",ארבל 4,6440-181-25,דירה בבית קומות,5.0,רביעית,95.8,1200000,,,1990.0,,5.0,8076165528,1,6440181,False,29% ב 9.6 שנים,כפר סבא,ארבל,3.02,6440-181-25,6440/181,12526.096033402922,32.1763886261,34.9070122502,2009
2009-11-08,2009-08-11,"הגליל 21, כפר סבא",הגליל 21,6436-81-13,דירה בבית קומות,4.0,רביעית,80.62,1300000,,,1976.0,,6.0,8075699772,1,643681,False,,כפר סבא,הגליל,,6436-81-13,6436/81,16125.031009675018,32.1754490589,34.9171162277,2009
2009-11-06,2009-06-11,"אהוד מנור 17, כפר סבא",אהוד מנור 17,6430-251-38,דירה בבית קומות,5.0,חמישית,131.06,1540000,,,2009.0,,8.0,8073589292,1,6430251,False,,כפר סבא,מנור אהוד,,6430-251-38,6430/251,11750.34335418892,32.1876028305,34.8949352677,2009
2009-11-06,2009-06-11,"תל חי 71, כפר סבא",תל חי 71,6433-722-1,דירה בבית קומות,4.0,קומה ‎0‏,102.31,1580000,,,2009.0,,5.0,8072735850,1,6433722,False,,כפר סבא,תל חי,,6433-722-1,6433/722,15443.260678330564,32.178113212,34.9149276921,2009
2009-11-06,2009-06-11,"יציאת אירופה 32, כפר סבא",יציאת אירופה 32,6435-210-26,דירה בבית קומות,5.0,שביעית,106.5,1465000,,,1999.0,,7.0,8072724972,1,6435210,False,53% ב 10 שנים,כפר סבא,יציאת אירופה,5.3,6435-210-26,6435/210,13755.86854460094,32.1713141656,34.9205295058,2009
2009-11-06,2009-06-11,"עמק חורון 8, כפר סבא",עמק חורון 8,7618-290-7,דירה בבית קומות,3.0,שלישית,71.79,1102000,,,2001.0,,4.0,8072291998,1,7618290,False,96% ב 7.7 שנים,כפר סבא,עמק חורון,12.47,7618-290-7,7618/290,15350.327343641176,32.1784909575,34.931648023,2009
2009-11-06,2009-06-11,"ויינברג 8, כפר סבא",ויינברג 8,7621-468-86,דירה בבית קומות,4.0,שלישית,104.6,1290000,,,2009.0,,9.0,8072978200,1,7621468,False,,כפר סבא,ויינברג,,7621-468-86,7621/468,12332.695984703634,32.1968144607,34.8929793729,2009
2009-11-05,2009-05-11,"המפלס 12, כפר סבא",המפלס 12,6433-548-34,דירה בבית קומות,3.0,ראשונה,62.56,865000,,,1970.0,,8.0,8070958666,1,6433548,False,,כפר סבא,המפלס,,6433-548-34,6433/548,13826.726342710996,32.1775000503,34.9163727512,2009
2009-11-05,2009-05-11,"בקעת סיירים 5, כפר סבא",בקעת סיירים 5,7606-136-1,בית בודד,6.0,מרתף+קרקע+ראשונה,220.8,2650000,,,2009.0,,,8070828500,1,7606136,False,,כפר סבא,בקעת סיירים,,7606-136-1,7606/136,12001.811594202898,32.1787120285,34.9302098464,2009
2009-11-05,2009-05-11,"בר-אילן 9, כפר סבא",בר-אילן 9,6433-403-31,דירה בבית קומות,3.0,שמינית,57.96,890000,,,1970.0,,8.0,8071826834,1,6433403,False,40% ב 3.4 שנים,כפר סבא,בר אילן,11.76,6433-403-31,6433/403,15355.417529330573,32.1792157266,34.9117792154,2009
2009-11-03,2009-03-11,"שמחה הולצברג 3, כפר סבא",שמחה הולצברג 3,6429-309-20,דירה בבית קומות,4.0,שלישית,102.82,1370000,,,2009.0,,4.0,8068935506,1,6429309,False,,כפר סבא,שמחה הולצברג,,6429-309-20,6429/309,13324.25598132659,32.1843915719,34.8933735481,2009
2009-11-03,2009-03-11,"תל חי 48, כפר סבא",תל חי 48,6436-109-14,דירה בבית קומות,4.0,שלישית,98.45,1080000,,,1982.0,,4.0,8069289522,1,6436109,False,,כפר סבא,תל חי,,6436-109-14,6436/109,10970.035551041135,32.1762289746,34.9150799358,2009
2009-11-03,2009-03-11,"חסידה 2, כפר סבא",חסידה 2,9088-43-18,דירה בבית קומות,5.0,חמישית,116.0,1450000,,,2010.0,,7.0,8069095420,1,908843,False,,כפר סבא,חסידה,,9088-43-18,9088/43,12500.0,32.1863311622,34.9267991889,2009
2009-11-02,2009-02-11,"נחשון 11, כפר סבא",נחשון 11,6441-316-1,משרד,,קרקע + מרתף,257.0,1175000,,,1984.0,,8.0,8068137564,1,6441316,False,,כפר סבא,נחשון,,6441-316-1,6441/316,4571.984435797665,32.174665345,34.9073348471,2009
2009-11-02,2009-02-11,"הידיד 7, כפר סבא",הידיד 7,6429-140-2,בית בודד,2.0,א,32.86,650000,,,1950.0,,1.0,8067716208,1,6429140,False,0% ב 1 שנים,כפר סבא,הידיד,0.0,6429-140-2,6429/140,19780.88861838101,32.1831470177,34.8939426548,2009
2009-11-02,2009-02-11,"הכרמל 74, כפר סבא",הכרמל 74,6436-163-8,דירה בבית קומות,5.0,רביעית + קומת גג,131.5,1332000,,,1990.0,,5.0,8067864578,1,6436163,False,,כפר סבא,הכרמל,,6436-163-8,6436/163,10129.277566539924,32.1764642533,34.915262321,2009
2009-11-02,2009-02-11,"ארלוזורוב 40, כפר סבא",ארלוזורוב 40,6426-1031-7,דירה בבית קומות,5.0,שלישית,106.14,1660000,,,2010.0,,5.0,8067928588,1,64261031,False,,כפר סבא,ארלוזורוב,,6426-1031-7,6426/1031,15639.721123045034,32.1704396465,34.9052179061,2009
2009-11-01,2009-01-11,"עמק האלה 2, כפר סבא",עמק האלה 2,7618-305-4,דירה בבית קומות,4.0,ראשונה,111.9,1540000,,,2008.0,,5.0,8067564878,1,7618305,False,,כפר סבא,עמק האלה,,7618-305-4,7618/305,13762.287756925823,32.1782448232,34.9332649015,2009
2009-11-01,2009-01-11,"ויצמן 80, כפר סבא",ויצמן 80,6441-216-3,חנות,,קרקע,,475000,,,1960.0,,7.0,8067748620,1,6441216,False,,כפר סבא,ויצמן,,6441-216-3,6441/216,,32.1755441433,34.9060963307,2009
2009-11-01,2009-01-11,"ברל כצנלסון 47, כפר סבא",ברל כצנלסון 47,6428-479-11,דירה בבית קומות,5.0,שלישית + רביעית,178.83,1960000,,,1988.0,,3.0,8066801790,1,6428479,False,32% ב 0.7 שנים,כפר סבא,כצנלסון ברל,45.71,6428-479-11,6428/479,10960.129732147849,32.1823177278,34.9039680439,2009
2009-11-01,2009-01-11,"עמק עירון 5, כפר סבא",עמק עירון 5,7618-319-53,דירה בבית קומות,5.0,ראשונה,110.2,1435000,,,2007.0,,7.0,8067572722,1,7618319,False,,כפר סבא,עמק עירון,,7618-319-53,7618/319,13021.778584392014,32.177993855,34.9343234253,2009
2009-10-29,2009-10-29,"ויצמן 107, כפר סבא",ויצמן 107,6438-302-22,משרד,,שניה,40.57,350000,,,1998.0,,4.0,8080700470,1,6438302,False,,כפר סבא,ויצמן,,6438-302-22,6438/302,8627.06433325117,32.1754107002,34.9089415779,2009
2009-10-29,2009-10-29,"לוונברג 2, כפר סבא",לוונברג 2,7621-562-12,דירה בבית קומות,5.0,שלישית,132.5,1770000,,,2009.0,,,8080458712,1,7621562,False,,כפר סבא,לוונברג,,7621-562-12,7621/562,13358.490566037735,32.1958632006,34.8947243478,2009
2009-10-29,2009-10-29,"הרצל 68, כפר סבא",הרצל 68,6438-250-14,דירה בבית קומות,4.0,חמישית,93.65,1320000,,,1987.0,,6.0,8079630800,1,6438250,False,,כפר סבא,הרצל,,6438-250-14,6438/250,14095.034703683928,32.1769073466,34.9122071971,2009
2009-10-29,2009-10-29,"המייסדים 28, כפר סבא",המייסדים 28,6440-255-7,דירה בבית קומות,4.0,רביעית,104.0,1540000,,,2002.0,,6.0,8079396960,1,6440255,False,70% ב 7.7 שנים,כפר סבא,המיסדים,9.09,6440-255-7,6440/255,14807.692307692309,32.1765444388,34.9084407844,2009
2009-10-28,2009-10-28,"אמבר 6, כפר סבא",אמבר 6,6426-477-3,דירה בבית קומות,4.5,א,86.4,1211000,,,1972.0,,3.0,8079252882,1,6426477,False,51% ב 6.2 שנים,כפר סבא,אימבר,8.23,6426-477-3,6426/477,14016.203703703704,32.1727145543,34.9020893437,2009
2009-10-28,2009-10-28,"דב הוז 9, כפר סבא",דב הוז 9,6428-533-2,דירה בבית קומות,1.5,ראשונה,29.0,650000,,,1960.0,,3.0,8080628394,1,6428533,False,,כפר סבא,הוז דב,,6428-533-2,6428/533,22413.793103448275,32.1805930084,34.8990019123,2009
2009-10-28,2009-10-28,"הנביאים 9, כפר סבא",הנביאים 9,7322-60-20,דירה בבית קומות,4.0,חמישית,72.31,1000000,,,2000.0,,7.0,8079610154,1,732260,False,55% ב 2.7 שנים,כפר סבא,הנביאים,20.37,7322-60-20,7322/60,13829.345871940255,32.1867823824,34.9389936085,2009
2009-10-28,2009-10-28,"המחתרות 17, כפר סבא",המחתרות 17,6434-215-1,קוטג' דו משפחתי,5.0,מרתף+קרקע+ראשונה,178.3,2800000,,,1982.0,,2.0,8079350044,1,6434215,False,,כפר סבא,המחתרות,,6434-215-1,6434/215,15703.869882220975,32.1793831224,34.9208655093,2009
2009-10-28,2009-10-28,"תרי עשר 21, כפר סבא",תרי עשר 21,7593-125-0,בית בודד,2.0,,25.0,4080000,,,1960.0,,,8080354446,1,7593125,False,,כפר סבא,תרי עשר,,7593-125-0,7593/125,163200.0,32.1915621801,34.9388239073,2009
2009-10-28,2009-10-28,"קמינסקי 7, כפר סבא",קמינסקי 7,7621-467-45,דירה בבית קומות,4.0,שלישית,111.2,1495000,,,2009.0,,9.0,8079629024,1,7621467,False,,כפר סבא,קמינסקי,,7621-467-45,7621/467,13444.244604316546,32.1967613012,34.8937526803,2009
2009-10-28,2009-10-28,"יאיר רוזנבלום 22, כפר סבא",יאיר רוזנבלום 22,6430-276-77,דירה בבית קומות,6.0,שישית+ שביעית,167.04,2200000,,,2008.0,,7.0,8080247516,1,6430276,False,,כפר סבא,רוזנבלום יאיר,,6430-276-77,6430/276,13170.498084291188,32.1896177943,34.8950223097,2009
2009-10-28,2009-10-28,"עמק חורון 6, כפר סבא",עמק חורון 6,7618-317-11,דירה בבית קומות,4.0,קרקע,91.92,1740000,,,2005.0,,4.0,8082101512,1,7618317,False,,כפר סבא,עמק חורון,,7618-317-11,7618/317,18929.503916449084,32.1786034828,34.9320327832,2009
2009-10-28,2009-10-28,"הרמה 2, כפר סבא",הרמה 2,6433-536-14,דירה בבית קומות,3.0,רביעית,73.4,720000,,,1975.0,,4.0,8080599090,1,6433536,False,,כפר סבא,הרמה,,6433-536-14,6433/536,9809.26430517711,32.1776731253,34.9177575372,2009
2009-10-28,2009-10-28,"התפוז 12, כפר סבא",התפוז 12,6437-113-5,דירה בבית קומות,3.0,ראשונה,64.67,890000,,,1970.0,,4.0,8080955474,1,6437113,False,,כפר סבא,התפוז,,6437-113-5,6437/113,13762.177207360444,32.1729877442,34.9149022774,2009
2009-10-27,2009-10-27,"לוונברג 4, כפר סבא",לוונברג 4,7621-562-29,דירה בבית קומות,5.0,ראשונה,132.5,1744000,,,2010.0,,,8080262760,1,7621562,False,,כפר סבא,לוונברג,,7621-562-29,7621/562,13162.264150943396,32.1958632006,34.8947243478,2009
2009-10-27,2009-10-27,"קמינסקי 7, כפר סבא",קמינסקי 7,7621-467-9,דירה בבית קומות,4.0,שלישית,97.7,1445000,,,2009.0,,9.0,8079618664,1,7621467,False,,כפר סבא,קמינסקי,,7621-467-9,7621/467,14790.174002047082,32.1967613012,34.8937526803,2009
2009-10-27,2009-10-27,"אהוד מנור 2, כפר סבא",אהוד מנור 2,6430-259-9,דירה בבית קומות,6.0,שלישית,140.5,1880000,,,2010.0,,4.0,8079508182,1,6430259,False,,כפר סבא,מנור אהוד,,6430-259-9,6430/259,13380.782918149464,32.1873160719,34.8965453022,2009
2009-10-27,2009-10-27,"מאיר אריאל 12, כפר סבא",מאיר אריאל 12,6430-233-13,דירה בבית קומות,4.0,רביעית,103.1,1452000,,,2009.0,,6.0,8079506998,1,6430233,False,,כפר סבא,מאיר אריאל,,6430-233-13,6430/233,14083.41416100873,32.189120527,34.895709681,2009
2009-10-27,2009-10-27,"מבצע יונתן 10, כפר סבא",מבצע יונתן 10,6433-669-38,דירה בבית קומות,4.0,שניה,78.16,1165000,,,1970.0,,9.0,8079436772,1,6433669,False,63% ב 2 שנים,כפר סבא,מבצע יונתן,31.5,6433-669-38,6433/669,14905.32241555783,32.1787522413,34.9171636267,2009
2009-10-27,2009-10-27,"העמק 18, כפר סבא",העמק 18,6437-166-21,דירה בבית קומות,4.0,שלישית,80.13,1025000,,,1983.0,,5.0,8080598498,1,6437166,False,,כפר סבא,העמק,,6437-166-21,6437/166,12791.713465618372,32.1727519929,34.9155822771,2009
2009-10-26,2009-10-26,"השחר 5, כפר סבא",השחר 5,6440-28-2,קוטג' דו משפחתי,6.0,,240.0,3900000,,,1948.0,,,8079344494,1,644028,False,,כפר סבא,השחר,,6440-28-2,6440/28,16250.0,32.1788315321,34.9088907803,2009
2009-10-26,2009-10-26,"העמק 33, כפר סבא",העמק 33,6436-149-15,דירה בבית קומות,4.0,חמישית,89.61,1170000,,,1980.0,,7.0,8080884138,1,6436149,False,,כפר סבא,העמק,,6436-149-15,6436/149,13056.578506863074,32.1757694758,34.9157960899,2009
2009-10-26,2009-10-26,"צייטלין 17, כפר סבא",צייטלין 17,7621-256-2,קוטג' דו משפחתי,5.0,,189.0,2100000,,,1976.0,,1.0,8080481874,1,7621256,False,,כפר סבא,צייטלין,,7621-256-2,7621/256,11111.111111111111,32.1933966261,34.8949218744,2009
2009-10-25,2009-10-25,"גאולה 4, כפר סבא",גאולה 4,6426-780-13,דירה בבית קומות,5.0,רביעית,113.0,2100000,,,1987.0,,4.0,8079716862,1,6426780,False,,כפר סבא,גאולה,,6426-780-13,6426/780,18584.07079646017,32.1765140368,34.9000865859,2009
2009-10-25,2009-10-25,"המיסדים 6, כפר סבא",המיסדים 6,6438-233-10,דירה בבית קומות,4.0,ד' + ה',105.8,1400000,,,1980.0,,4.0,8080193866,1,6438233,False,,כפר סבא,המיסדים,,6438-233-10,6438/233,13232.514177693762,32.1756353617,34.9135846645,2009
2009-10-25,2009-10-25,"אהוד מנור 11, כפר סבא",אהוד מנור 11,6430-255-1,דירה בבית קומות,4.0,קרקע,94.16,1570000,,,2009.0,,6.0,8079714420,1,6430255,False,,כפר סבא,מנור אהוד,,6430-255-1,6430/255,16673.74681393373,32.1871055646,34.8957080456,2009
2009-10-25,2009-10-25,"רמח""ל 5, כפר סבא","רמח""ל 5",7614-135-2,בית בודד,4.0,קרקע,110.0,1114000,,,1950.0,,,8141094016,1,7614135,False,,כפר סבא,"רמח""ל",,7614-135-2,7614/135,10127.272727272728,32.1680498717,34.9248645055,2009
2009-10-25,2009-10-25,"בן גוריון 35, כפר סבא",בן גוריון 35,6441-306-12,דירה בבית קומות,5.0,חמישית,114.91,1680000,,,1982.0,,5.0,8079778578,1,6441306,False,,כפר סבא,בן גוריון,,6441-306-12,6441/306,14620.137498912192,32.1727933947,34.9073623116,2009
2009-10-25,2009-10-25,"הכרמל 11, כפר סבא",הכרמל 11,6428-556-103,דירה בבית קומות,3.0,קרקע,57.0,1300000,,,1995.0,,8.0,8079328658,1,6428556,False,,כפר סבא,הכרמל,,6428-556-103,6428/556,22807.01754385965,32.1793999061,34.9051380213,2009
2009-10-25,2009-10-25,"הגליל 43, כפר סבא",הגליל 43,6433-668-77,דירה בבית קומות,4.0,רביעית,99.55,1190000,,,1983.0,,8.0,8079405026,1,6433668,False,,כפר סבא,הגליל,,6433-668-77,6433/668,11953.792064289302,32.1785861703,34.9180027916,2009
2009-10-22,2009-10-22,"אהוד מנור 2, כפר סבא",אהוד מנור 2,6430-259-1,דירה בבית קומות,6.0,קרקע,127.5,2160000,,,2010.0,,4.0,8079343310,1,6430259,False,,כפר סבא,מנור אהוד,,6430-259-1,6430/259,16941.176470588234,32.1873160719,34.8965453022,2009
2009-10-22,2009-10-22,"משה וילנסקי 9, כפר סבא",משה וילנסקי 9,6429-293-15,דירה בבית קומות,4.0,רביעית,91.37,1456000,,,2009.0,,6.0,8079029994,1,6429293,False,,כפר סבא,וילנסקי משה,,6429-293-15,6429/293,15935.20849294079,32.1859695007,34.8927406328,2009
2009-10-22,2009-10-22,"מורן 5, כפר סבא",מורן 5,6430-193-37,דירה בבית קומות,4.5,ראשונה,96.0,1530000,,,1996.0,,4.0,8079622882,1,6430193,False,,כפר סבא,מורן,,6430-193-37,6430/193,15937.5,32.1864284379,34.8993480635,2009
2009-10-22,2009-10-22,"הדרור 6, כפר סבא",הדרור 6,6426-649-5,דירה בבית קומות,5.0,שניה,115.57,1460000,,,1980.0,,7.0,8079268866,1,6426649,False,,כפר סבא,הדרור,,6426-649-5,6426/649,12633.0362550835,32.1741497669,34.90074722,2009
2009-10-21,2009-10-21,"ג'ו עמר 2, כפר סבא",ג'ו עמר 2,6429-299-21,דירה בבית קומות,4.0,שניה,95.0,1420000,,,2010.0,,5.0,8080715714,1,6429299,False,,כפר סבא,ג'ו עמר,,6429-299-21,6429/299,14947.368421052632,32.1855820197,34.8917942319,2009
2009-10-21,2009-10-21,"יחזקאל 7, כפר סבא",יחזקאל 7,7594-131-72,דירה בבית קומות,4.0,שישית,77.6,970000,,,1970.0,,7.0,8080063034,1,7594131,False,66% ב 7.4 שנים,כפר סבא,יחזקאל,8.92,7594-131-72,7594/131,12500.000000000002,32.1839005743,34.9377145469,2009
2009-10-20,2009-10-20,"אמבר 9, כפר סבא",אמבר 9,6426-459-8,דירה בבית קומות,5.0,ד' ה' ו',149.66,1750000,,,1980.0,,6.0,8078995880,1,6426459,False,,כפר סבא,אימבר,,6426-459-8,6426/459,11693.171188026194,32.1730693535,34.9026873186,2009
2009-10-19,2009-10-19,"נחליאלי 3, כפר סבא",נחליאלי 3,7604-70-22,דירה בבית קומות,3.0,ראשונה,71.0,1165000,,,1995.0,,3.0,8079007572,1,760470,False,,כפר סבא,נחליאלי,,7604-70-22,7604/70,16408.450704225354,32.1865267095,34.9302169779,2009
2009-10-19,2009-10-19,"חצרות הדר 9, כפר סבא",חצרות הדר 9,6428-110-1,דירה בבית קומות,4.0,קרקע,110.0,1700000,,,1950.0,,1.0,8079406136,1,6428110,False,,כפר סבא,חצרות הדר,,6428-110-1,6428/110,15454.545454545454,32.1801596679,34.9023634754,2009
2009-10-19,2009-10-19,"קורצ'אק 13, כפר סבא",קורצ'אק 13,7621-275-1,בית בודד,4.0,,115.0,1389000,,,1950.0,,,8079421380,1,7621275,False,,כפר סבא,קורצ'ק,,7621-275-1,7621/275,12078.260869565218,32.1922952893,34.895040018,2009
2009-10-19,2009-10-19,"הכרמל 28, כפר סבא",הכרמל 28,6440-265-2,דירה בבית קומות,5.0,ראשונה,129.79,1850000,,,2010.0,,6.0,8080481282,1,6440265,False,,כפר סבא,הכרמל,,6440-265-2,6440/265,14253.79459126281,32.1781444827,34.9078879976,2009
2009-10-18,2009-10-18,"המעפילים 29, כפר סבא",המעפילים 29,6428-474-1,קוטג' דו משפחתי,7.0,,175.0,2600000,,,1988.0,,,8080393444,1,6428474,False,,כפר סבא,המעפילים,,6428-474-1,6428/474,14857.142857142857,32.1828961608,34.9011977986,2009
2009-10-15,2009-10-15,"קמינסקי 7, כפר סבא",קמינסקי 7,7621-467-29,דירה בבית קומות,5.0,רביעית,132.2,1656000,,,2009.0,,9.0,8079625398,1,7621467,False,,כפר סבא,קמינסקי,,7621-467-29,7621/467,12526.475037821485,32.1967613012,34.8937526803,2009
2009-10-15,2009-10-15,"קמינסקי 7, כפר סבא",קמינסקי 7,7621-467-52,דירה בבית קומות,4.0,חמישית,101.3,1450000,,,2009.0,,9.0,8079623474,1,7621467,False,,כפר סבא,קמינסקי,,7621-467-52,7621/467,14313.919052319843,32.1967613012,34.8937526803,2009
2009-10-15,2009-10-15,"יאיר רוזנבלום 28, כפר סבא",יאיר רוזנבלום 28,6430-239-13,דירה בבית קומות,5.0,שלישית,121.78,1670000,,,2009.0,,6.0,8079281594,1,6430239,False,,כפר סבא,רוזנבלום יאיר,,6430-239-13,6430/239,13713.253407784528,32.1889401805,34.8960754118,2009
2009-10-15,2009-10-15,"דמארי שושנה 2, כפר סבא",דמארי שושנה 2,6429-311-15,דירה בבית קומות,5.0,חמישית,109.66,1679000,,,2009.0,,6.0,8079031326,1,6429311,False,,כפר סבא,דמארי שושנה,,6429-311-15,6429/311,15310.961152653656,32.1859367551,34.893941163,2009
2009-10-13,2009-10-13,"חצרות הדר 23, כפר סבא",חצרות הדר 23,6428-99-4,דירה בבית קומות,2.0,א,44.9,1115000,,,1950.0,,1.0,8078691888,1,642899,False,,כפר סבא,חצרות הדר,,6428-99-4,6428/99,24832.962138084637,32.1805443716,34.9007364763,2009
2009-10-13,2009-10-13,"עמק חורון 8, כפר סבא",עמק חורון 8,7618-290-4,דירה בבית קומות,4.0,שניה,82.09,1380000,,,2001.0,,4.0,8078650374,1,7618290,False,38% ב 2 שנים,כפר סבא,עמק חורון,19.0,7618-290-4,7618/290,16810.81739554148,32.1784909575,34.931648023,2009
2009-10-13,2009-10-13,"ג'ו עמר 6, כפר סבא",ג'ו עמר 6,6429-292-16,דירה בבית קומות,7.0,שישית ושביעית,176.1,2630000,,,2010.0,,6.0,8079033694,1,6429292,False,,כפר סבא,ג'ו עמר,,6429-292-16,6429/292,14934.696195343557,32.1861219799,34.8923770191,2009
2009-10-12,2009-12-10,"ויצמן 194, כפר סבא",ויצמן 194,6435-93-16,דירה בבית קומות,3.0,שניה,39.6,800000,,,1960.0,,3.0,8082315150,1,643593,False,,כפר סבא,ויצמן,,6435-93-16,6435/93,20202.0202020202,32.1721754709,34.9209746703,2009
2009-10-12,2009-12-10,"דוד זהבי 17, כפר סבא",דוד זהבי 17,6429-307-20,דירה בבית קומות,5.0,שלישית,130.5,1758000,,,2010.0,,4.0,8082812726,1,6429307,False,,כפר סבא,זהבי דוד,,6429-307-20,6429/307,13471.264367816091,32.1848265112,34.8928185091,2009
2009-10-12,2009-12-10,"הגליל 43, כפר סבא",הגליל 43,6433-668-41,דירה בבית קומות,5.0,שניה,113.2,1300000,,,1983.0,,8.0,8140198320,1,6433668,False,,כפר סבא,הגליל,,6433-668-41,6433/668,11484.098939929328,32.1785861703,34.9180027916,2009
2009-10-12,2009-12-10,"משה סנה 19, כפר סבא",משה סנה 19,6429-241-5,דירה בבית קומות,6.0,קרקע+שלישית+רביעית,126.24,1730000,,,1995.0,,,8141052428,1,6429241,False,69% ב 8.8 שנים,כפר סבא,סנה משה,7.84,6429-241-5,6429/241,13704.05576679341,32.1850913836,34.895863732,2009
2009-10-11,2009-11-10,"קמינסקי 7, כפר סבא",קמינסקי 7,7621-467-82,דירה בבית קומות,4.0,שניה,114.1,1463000,,,2009.0,,9.0,8080419048,1,7621467,False,,כפר סבא,קמינסקי,,7621-467-82,7621/467,12822.085889570551,32.1967613012,34.8937526803,2009
2009-10-11,2009-11-10,"סוקולוב 5, כפר סבא",סוקולוב 5,6426-605-4,דירה בבית קומות,4.0,שניה,92.2,1270000,,,1970.0,,5.0,8080181582,1,6426605,False,,כפר סבא,סוקולוב,,6426-605-4,6426/605,13774.403470715835,32.1759756085,34.9028643123,2009
2009-10-11,2009-11-10,"אהוד מנור 23, כפר סבא",אהוד מנור 23,6430-245-10,דירה בבית קומות,4.0,שלישית,103.0,1470000,,,2010.0,,8.0,8080268902,1,6430245,False,,כפר סבא,מנור אהוד,,6430-245-10,6430/245,14271.844660194174,32.1883695633,34.8939386481,2009
2009-10-11,2009-11-10,"אהוד מנור 11, כפר סבא",אהוד מנור 11,6430-255-6,דירה בבית קומות,5.0,שניה,129.51,1609000,,,2009.0,,6.0,8080155904,1,6430255,False,,כפר סבא,מנור אהוד,,6430-255-6,6430/255,12423.751061694078,32.1871055646,34.8957080456,2009
2009-10-11,2009-11-10,"ארלוזורוב 48, כפר סבא",ארלוזורוב 48,6426-177-9,דירה בבית קומות,4.0,רביעית,85.0,1000000,,,1973.0,,4.0,8079871300,1,6426177,False,,כפר סבא,ארלוזורוב,,6426-177-9,6426/177,11764.70588235294,32.1701776065,34.9060127067,2009
2009-10-08,2009-08-10,"ויצמן 121, כפר סבא",ויצמן 121,6438-319-4,חנות,,קרקע וראשונה,39.39,1100000,,,1994.0,,2.0,8076729852,1,6438319,False,,כפר סבא,ויצמן,,6438-319-4,6438/319,27925.86951002793,32.1751139884,34.910261194,2009
2009-10-08,2009-08-10,"מאיר אריאל 12, כפר סבא",מאיר אריאל 12,6430-233-17,דירה בבית קומות,4.0,חמישית,103.2,1395000,,,2009.0,,6.0,8076009906,1,6430233,False,,כפר סבא,מאיר אריאל,,6430-233-17,6430/233,13517.441860465116,32.189120527,34.895709681,2009
2009-10-08,2009-08-10,"ברקן 8, כפר סבא",ברקן 8,6430-201-62,דירה בבית קומות,4.0,קרקע,95.0,1640000,,,1995.0,,5.0,8076408618,1,6430201,False,,כפר סבא,ברקן,,6430-201-62,6430/201,17263.157894736843,32.185874872,34.896253818,2009
2009-10-07,2009-07-10,"ויינברג 8, כפר סבא",ויינברג 8,7621-468-75,דירה בבית קומות,6.0,חמישית+שישית,177.0,2471000,,,2009.0,,9.0,8073950634,1,7621468,False,,כפר סבא,ויינברג,,7621-468-75,7621/468,13960.45197740113,32.1968144607,34.8929793729,2009
2009-10-06,2009-06-10,"הידידות 4, כפר סבא",הידידות 4,6435-272-11,דירה בבית קומות,3.0,קרקע תחתונה+קרקע,79.0,1300000,,,2006.0,,5.0,8072310276,1,6435272,False,69% ב 5.4 שנים,כפר סבא,הידידות,12.78,6435-272-11,6435/272,16455.696202531646,32.1704707975,34.9189620285,2009
2009-10-06,2009-06-10,"הרצל 62, כפר סבא",הרצל 62,6438-177-6,דירה בבית קומות,4.0,שניה,78.0,1100000,,,1970.0,,6.0,8072411138,1,6438177,False,,כפר סבא,הרצל,,6438-177-6,6438/177,14102.564102564103,32.176277878,34.9120184427,2009
2009-10-05,2009-05-10,"הרדוף 5, כפר סבא",הרדוף 5,6435-129-11,דירה בבית קומות,4.0,רביעית,94.55,1400000,,,2000.0,,5.0,8071017274,1,6435129,False,,כפר סבא,הרדוף,,6435-129-11,6435/129,14806.980433632998,32.1738200597,34.917934443,2009
2009-10-05,2009-05-10,"בקעת הירח 4, כפר סבא",בקעת הירח 4,7606-125-13,דירת גן,4.0,קרקע,89.69,1700000,,,2004.0,,4.0,8071126572,1,7606125,False,39% ב 3.3 שנים,כפר סבא,בקעת הירח,11.82,7606-125-13,7606/125,18954.17549336604,32.1797136055,34.929759445,2009
2009-10-03,2009-03-10,"הגליל 47, כפר סבא",הגליל 47,6433-601-42,דירה בבית קומות,4.0,שלישית,97.0,1110000,,,1983.0,,8.0,8068800012,1,6433601,False,44% ב 9.9 שנים,כפר סבא,הגליל,4.44,6433-601-42,6433/601,11443.298969072164,32.1793646735,34.9182798624,2009
2009-10-03,2009-03-10,"האיקליפטוס 11, כפר סבא",האיקליפטוס 11,6433-698-1,דירה בבית קומות,4.0,ראשונה,95.6,1420000,,,1997.0,,4.0,8068619156,1,6433698,False,,כפר סבא,האקליפטוס,,6433-698-1,6433/698,14853.55648535565,32.1802818879,34.9181679308,2009
2009-10-02,2009-02-10,"הגליל 3, כפר סבא",הגליל 3,6436-122-5,דירה בבית קומות,5.0,שניה,112.39,1105000,,,1985.0,,6.0,8067651606,1,6436122,False,,כפר סבא,הגליל,,6436-122-5,6436/122,9831.835572559836,32.1740481366,34.9167326318,2009
2009-09-30,2009-09-30,"לוונברג 4, כפר סבא",לוונברג 4,7621-562-33,דירה בבית קומות,5.0,שניה,132.5,1760000,,,2011.0,,,8078793860,1,7621562,False,,כפר סבא,לוונברג,,7621-562-33,7621/562,13283.018867924528,32.1958632006,34.8947243478,2009
2009-09-30,2009-09-30,"הראשונים 12, כפר סבא",הראשונים 12,6435-273-1,דירת גן,4.0,קרקע תחתונה + קרקע,97.7,1500000,,,2004.0,,5.0,8078165008,1,6435273,False,43% ב 6.7 שנים,כפר סבא,הראשונים,6.42,6435-273-1,6435/273,15353.121801432955,32.1700694437,34.920698512,2009
2009-09-30,2009-09-30,"הגליל 1, כפר סבא",הגליל 1,6436-123-20,דירה בבית קומות,4.0,שניה,90.0,1150000,,,1980.0,,5.0,8078215624,1,6436123,False,,כפר סבא,הגליל,,6436-123-20,6436/123,12777.777777777776,32.1737391805,34.9165299336,2009
2009-09-30,2009-09-30,"הזית 7, כפר סבא",הזית 7,7590-72-2,דירה בבית קומות,3.0,קרקע,56.5,920000,,,1980.0,,,8079202932,1,759072,False,,כפר סבא,הזית,,7590-72-2,7590/72,16283.185840707964,32.179678025,34.9385841884,2009
2009-09-29,2009-09-29,"בז 5, כפר סבא",בז 5,9088-43-40,דירה בבית קומות,5.0,שניה,123.0,1645000,,,2010.0,,7.0,8078645564,1,908843,False,,כפר סבא,בז,,9088-43-40,9088/43,13373.983739837398,32.1863311622,34.9267991889,2009
2009-09-29,2009-09-29,"יאיר רוזנבלום 28, כפר סבא",יאיר רוזנבלום 28,6430-239-16,דירה בבית קומות,4.0,רביעית,91.72,1440000,,,2009.0,,6.0,8078163232,1,6430239,False,,כפר סבא,רוזנבלום יאיר,,6430-239-16,6430/239,15699.95638901003,32.1889401805,34.8960754118,2009
2009-09-29,2009-09-29,"יאיר רוזנבלום 28, כפר סבא",יאיר רוזנבלום 28,6430-239-9,דירה בבית קומות,5.0,שניה,121.48,1660000,,,2009.0,,6.0,8078163824,1,6430239,False,,כפר סבא,רוזנבלום יאיר,,6430-239-9,6430/239,13664.80079025354,32.1889401805,34.8960754118,2009
2009-09-29,2009-09-29,"שיינפיין 26, כפר סבא",שיינפיין 26,7621-474-141,דירה בבית קומות,4.0,שניה,111.76,1390000,,,2010.0,,10.0,8078172334,1,7621474,False,,כפר סבא,שיינפיין,,7621-474-141,7621/474,12437.365783822475,32.1971360908,34.8918797681,2009
2009-09-24,2009-09-24,"ברנר 7, כפר סבא",ברנר 7,6428-702-2,דירה בבית קומות,4.0,ראשונה,90.33,1745000,,,1998.0,,4.0,8078215032,1,6428702,False,,כפר סבא,ברנר,,6428-702-2,6428/702,19318.05601682719,32.178152062,34.9001620293,2009
2009-09-24,2009-09-24,"נורדאו 13, כפר סבא",נורדאו 13,6435-103-28,דירה בבית קומות,3.0,שלישית,46.9,750000,,,1960.0,,2.0,8078768256,1,6435103,False,,כפר סבא,נורדאו,,6435-103-28,6435/103,15991.471215351812,32.1710216024,34.9193556381,2009
2009-09-24,2009-09-24,"קמינסקי 7, כפר סבא",קמינסקי 7,7621-467-59,דירה בבית קומות,5.0,ראשונה,128.1,1640000,,,2009.0,,9.0,8078175442,1,7621467,False,,כפר סבא,קמינסקי,,7621-467-59,7621/467,12802.498048399688,32.1967613012,34.8937526803,2009
2009-09-23,2009-09-23,"מענית 9, כפר סבא",מענית 9,6429-214-10,דירה בבית קומות,5.0,שלישית,114.3,2200000,,,1994.0,,3.0,8077958104,1,6429214,False,,כפר סבא,מענית,,6429-214-10,6429/214,19247.594050743657,32.1833948579,34.8978227485,2009
2009-09-23,2009-09-23,"אהוד מנור 11, כפר סבא",אהוד מנור 11,6430-255-12,דירה בבית קומות,5.0,רביעית,129.17,1664000,,,2009.0,,6.0,8078430594,1,6430255,False,,כפר סבא,מנור אהוד,,6430-255-12,6430/255,12882.248200046452,32.1871055646,34.8957080456,2009
2009-09-22,2009-09-22,"הכרמל 28, כפר סבא",הכרמל 28,6440-265-9,דירה בבית קומות,4.0,רביעית,113.84,1540000,,,2010.0,,6.0,8077954996,1,6440265,False,,כפר סבא,הכרמל,,6440-265-9,6440/265,13527.758257203091,32.1781444827,34.9078879976,2009
2009-09-22,2009-09-22,"יבנה 7, כפר סבא",יבנה 7,6433-239-4,דירה בבית קומות,6.0,ראשונה,110.0,1425000,,,1970.0,,1.0,8077895278,1,6433239,False,,כפר סבא,יבנה,,6433-239-4,6433/239,12954.545454545454,32.1812592877,34.9140520416,2009
2009-09-22,2009-09-22,"השחר 2, כפר סבא",השחר 2,6433-658-1,דירה בבית קומות,5.0,ראשונה +שניה,113.82,1500000,,,1989.0,,9.0,8078477066,1,6433658,False,,כפר סבא,השחר,,6433-658-1,6433/658,13178.703215603586,32.1785154538,34.9094246911,2009
2009-09-21,2009-09-21,"קמינסקי 7, כפר סבא",קמינסקי 7,7621-467-40,דירה בבית קומות,4.0,שניה,101.3,1475000,,,2009.0,,9.0,8078179068,1,7621467,False,,כפר סבא,קמינסקי,,7621-467-40,7621/467,14560.71076011846,32.1967613012,34.8937526803,2009
2009-09-21,2009-09-21,"אברהם פררה 1, כפר סבא",אברהם פררה 1,6430-249-12,דירה בבית קומות,5.5,קרקע עליונה,126.39,1900000,,,2009.0,,6.0,8078216216,1,6430249,False,,כפר סבא,פררה אברהם,,6430-249-12,6430/249,15032.834876176912,32.1879767611,34.8944026003,2009
2009-09-18,2009-09-18,"מזור 1, כפר סבא",מזור 1,6429-249-17,דירה בבית קומות,3.5,ראשונה,83.0,1300000,,,1996.0,,,8077663140,1,6429249,False,,כפר סבא,מזור,,6429-249-17,6429/249,15662.650602409638,32.1853491383,34.8954995915,2009
2009-09-17,2009-09-17,"אברהם פררה 1, כפר סבא",אברהם פררה 1,6430-249-8,דירה בבית קומות,5.5,רביעית,126.26,1745000,,,2009.0,,6.0,8078216808,1,6430249,False,,כפר סבא,פררה אברהם,,6430-249-8,6430/249,13820.68747029938,32.1879767611,34.8944026003,2009
2009-09-17,2009-09-17,"נורית 7, כפר סבא",נורית 7,6428-595-7,דירה בבית קומות,5.0,שניה+שלישית,123.54,1300000,,,1993.0,,1.0,8077972164,1,6428595,False,,כפר סבא,נורית,,6428-595-7,6428/595,10522.907560304357,32.1837265918,34.9009924935,2009
2009-09-17,2009-09-17,"קמינסקי 7, כפר סבא",קמינסקי 7,7621-467-57,דירה בבית קומות,5.0,קרקע,127.0,1990000,,,2009.0,,9.0,8078180992,1,7621467,False,,כפר סבא,קמינסקי,,7621-467-57,7621/467,15669.291338582678,32.1967613012,34.8937526803,2009
2009-09-16,2009-09-16,"חסידה 4, כפר סבא",חסידה 4,9088-43-31,דירה בבית קומות,4.0,רביעית,103.0,1500000,,,2010.0,,7.0,8078011754,1,908843,False,,כפר סבא,חסידה,,9088-43-31,9088/43,14563.106796116504,32.1863311622,34.9267991889,2009
2009-09-16,2009-09-16,"משה וילנסקי 9, כפר סבא",משה וילנסקי 9,6429-293-18,דירה בבית קומות,4.0,חמישית,90.62,1470000,,,2009.0,,6.0,8077598538,1,6429293,False,,כפר סבא,וילנסקי משה,,6429-293-18,6429/293,16221.584639152505,32.1859695007,34.8927406328,2009
2009-09-16,2009-09-16,"קמינסקי 7, כפר סבא",קמינסקי 7,7621-467-68,דירה בבית קומות,4.0,רביעית,112.2,1460000,,,2009.0,,9.0,8078185210,1,7621467,False,,כפר סבא,קמינסקי,,7621-467-68,7621/467,13012.47771836007,32.1967613012,34.8937526803,2009
2009-09-16,2009-09-16,"קמינסקי 7, כפר סבא",קמינסקי 7,7621-467-72,דירה בבית קומות,4.0,חמישית,101.7,1380000,,,2009.0,,9.0,8078184618,1,7621467,False,,כפר סבא,קמינסקי,,7621-467-72,7621/467,13569.321533923305,32.1967613012,34.8937526803,2009
2009-09-16,2009-09-16,"שיינפיין 17, כפר סבא",שיינפיין 17,7621-478-1,דירה בבית קומות,5.0,קרקע,123.4,1880000,,,2009.0,,,8078555728,1,7621478,False,,כפר סבא,שיינפיין,,7621-478-1,7621/478,15235.008103727714,32.1971888463,34.8908526205,2009
2009-09-15,2009-09-15,"יהודה המכבי 7, כפר סבא",יהודה המכבי 7,7601-69-18,דירה בבית קומות,2.0,ג',36.3,620000,,,1960.0,,4.0,8077538746,1,760169,False,100% ב 1.5 שנים,כפר סבא,יהודה המכבי,66.67,7601-69-18,7601/69,17079.889807162537,32.1834301989,34.9422516838,2009
2009-09-15,2009-09-15,"שיינפיין 26, כפר סבא",שיינפיין 26,7621-474-159,דירה בבית קומות,5.0,שלישית,143.96,1638000,,,2010.0,,10.0,8078108324,1,7621474,False,,כפר סבא,שיינפיין,,7621-474-159,7621/474,11378.160600166711,32.1971360908,34.8918797681,2009
2009-09-15,2009-09-15,"לוונברג 2, כפר סבא",לוונברג 2,7621-562-23,דירה בבית קומות,5.0,שישית,124.9,2461000,,,2009.0,,,8078699214,1,7621562,False,,כפר סבא,לוונברג,,7621-562-23,7621/562,19703.763010408325,32.1958632006,34.8947243478,2009
2009-09-14,2009-09-14,"נחשון 9, כפר סבא",נחשון 9,6441-249-1,דירה בבית קומות,4.0,ראשונה,99.4,1320000,,,1980.0,,5.0,8077399996,1,6441249,False,,כפר סבא,נחשון,,6441-249-1,6441/249,13279.67806841046,32.1748319848,34.9065451857,2009
2009-09-14,2009-09-14,"סשה ארגוב 7, כפר סבא",סשה ארגוב 7,6430-240-15,דירה בבית קומות,4.0,ראשונה,92.0,1570000,,,2009.0,,5.0,8077577670,1,6430240,False,,כפר סבא,ארגוב סשה,,6430-240-15,6430/240,17065.217391304348,32.1887087922,34.896325854,2009
2009-09-14,2009-09-14,"אמבר 1, כפר סבא",אמבר 1,6426-870-1,דירה בבית קומות,4.0,קרקע+ראשונה,106.15,1320000,,,1992.0,,4.0,8077978306,1,6426870,False,54% ב 10 שנים,כפר סבא,אימבר,5.4,6426-870-1,6426/870,12435.23316062176,32.1732582086,34.9018911791,2009
2009-09-13,2009-09-13,"אז""ר 38, כפר סבא","אז""ר 38",6431-339-2,קוטג' דו משפחתי,5.0,קרקע+ראשונה,125.88,2140000,,,1986.0,,,8077522170,1,6431339,False,,כפר סבא,"אז""ר",,6431-339-2,6431/339,17000.317762948842,32.1834318123,34.9104098779,2009
2009-09-13,2009-09-13,"העמק 31, כפר סבא",העמק 31,6436-91-8,דירה בבית קומות,4.0,שניה,91.0,1150000,,,1970.0,,5.0,8077542964,1,643691,False,,כפר סבא,העמק,,6436-91-8,6436/91,12637.362637362638,32.1755630755,34.9156602245,2009
2009-09-12,2009-12-09,"דב הוז 16, כפר סבא",דב הוז 16,6428-724-5,דירה בבית קומות,5.0,שלישית,125.0,1900000,,,2010.0,,5.0,8140572686,1,6428724,False,,כפר סבא,הוז דב,,6428-724-5,6428/724,15200.0,32.1801181328,34.8981904912,2009
2009-09-12,2009-12-09,"הבנים 20, כפר סבא",הבנים 20,6439-335-7,דירה בבית קומות,5.0,קרקע +שלושית+רביעית,141.54,1252000,,,1980.0,,4.0,8140841232,1,6439335,False,,כפר סבא,הבנים,,6439-335-7,6439/335,8845.55602656493,32.1739288855,34.9105880264,2009
2009-09-11,2009-11-09,"משה סנה 31, כפר סבא",משה סנה 31,6430-259-21,דירה בבית קומות,4.0,שניה,103.6,1465000,,,2010.0,,4.0,8080249366,1,6430259,False,,כפר סבא,סנה משה,,6430-259-21,6430/259,14140.926640926642,32.1873160719,34.8965453022,2009
2009-09-11,2009-11-09,"מענית 3, כפר סבא",מענית 3,6429-207-8,דירה בבית קומות,4.0,שניה,82.24,1450000,,,1995.0,,4.0,8080065476,1,6429207,False,50% ב 4.1 שנים,כפר סבא,מענית,12.2,6429-207-8,6429/207,17631.322957198445,32.1840055165,34.8972124612,2009
2009-09-09,2009-09-09,"התע""ש 26, כפר סבא","התע""ש 26",7606-91-19,תעשיה,,ראשונה+ביניים,176.52,1200000,,,1995.0,,4.0,8079292028,1,760691,False,,כפר סבא,"התע""ש",,7606-91-19,7606/91,6798.096532970768,32.1776580001,34.928133225,2009
2009-09-09,2009-09-09,"הבנים 7, כפר סבא",הבנים 7,6439-242-20,דירה בבית קומות,4.0,חמישית,115.64,1190000,,,1985.0,,7.0,8077362256,1,6439242,False,,כפר סבא,הבנים,,6439-242-20,6439/242,10290.556900726391,32.1729941679,34.9127380058,2009
2009-09-09,2009-09-09,"הכרמל 83, כפר סבא",הכרמל 83,6433-552-10,דירה בבית קומות,3.0,שלישית,81.66,870000,,,1973.0,,7.0,8077816394,1,6433552,False,,כפר סבא,הכרמל,,6433-552-10,6433/552,10653.9309331374,32.1766974681,34.916115904,2009
2009-09-08,2009-08-09,"ויינברג 8, כפר סבא",ויינברג 8,7621-468-21,דירה בבית קומות,5.0,שביעית+שמינית,151.0,2260000,,,2009.0,,9.0,8075735810,1,7621468,False,,כפר סבא,ויינברג,,7621-468-21,7621/468,14966.887417218542,32.1968144607,34.8929793729,2009
2009-09-08,2009-08-09,"זליוונסקי 3, כפר סבא",זליוונסקי 3,7621-444-1,דירה בבית קומות,5.0,שניה,121.0,1434000,,,2011.0,,6.0,8076382274,1,7621444,False,,כפר סבא,זליוונסקי,,7621-444-1,7621/444,11851.239669421488,32.1928769048,34.8920170923,2009
2009-09-08,2009-08-09,"משה וילנסקי 9, כפר סבא",משה וילנסקי 9,6429-293-6,דירה בבית קומות,4.0,שניה,90.21,1340000,,,2009.0,,6.0,8075484802,1,6429293,False,,כפר סבא,וילנסקי משה,,6429-293-6,6429/293,14854.22902117282,32.1859695007,34.8927406328,2009
2009-09-07,2009-07-09,"גלעד 6, כפר סבא",גלעד 6,6439-146-5,דירה בבית קומות,4.0,שלישית,84.64,1105000,,,1977.0,,5.0,8074620334,1,6439146,False,,כפר סבא,גלעד,,6439-146-5,6439/146,13055.293005671076,32.1726765178,34.9127907555,2009
2009-09-07,2009-07-09,"האקליפטוס 13, כפר סבא",האקליפטוס 13,6433-691-2,דירה בבית קומות,4.0,ראשונה,95.6,1485000,,,1997.0,,4.0,8074105812,1,6433691,False,44% ב 5.7 שנים,כפר סבא,האקליפטוס,7.72,6433-691-2,6433/691,15533.472803347282,32.1801841362,34.9185890712,2009
2009-09-06,2009-06-09,"עמק חרוד 6, כפר סבא",עמק חרוד 6,7618-180-14,דירה בבית קומות,3.5,רביעית חמישית,118.41,1240000,,,2005.0,,6.0,8072219922,1,7618180,False,,כפר סבא,עמק חרוד,,7618-180-14,7618/180,10472.088506038344,32.1792005705,34.9359232114,2009
2009-09-06,2009-06-09,"אברהם פררה 1, כפר סבא",אברהם פררה 1,6430-249-18,דירה בבית קומות,4.5,שניה,121.96,1450000,,,2009.0,,6.0,8072728672,1,6430249,False,,כפר סבא,פררה אברהם,,6430-249-18,6430/249,11889.143981633322,32.1879767611,34.8944026003,2009
2009-09-06,2009-06-09,"אז""ר 137, כפר סבא","אז""ר 137",6434-299-1,קוטג' דו משפחתי,7.0,,160.0,2450000,,,2006.0,,,8072255442,1,6434299,False,,כפר סבא,"אז""ר",,6434-299-1,6434/299,15312.5,32.1812360935,34.9222063211,2009
2009-09-06,2009-06-09,"חבצלת השרון 11, כפר סבא",חבצלת השרון 11,6427-192-9,דירה בבית קומות,3.0,שלישית,76.5,1065000,,,1970.0,,3.0,8072153988,1,6427192,False,99% ב 4.2 שנים,כפר סבא,חבצלת השרון,23.57,6427-192-9,6427/192,13921.56862745098,32.1746768369,34.8957565646,2009
2009-09-06,2009-06-09,"הגליל 13, כפר סבא",הגליל 13,6436-208-5,דירה בבית קומות,4.0,קרקע+שלישית,105.66,1400000,,,2002.0,,5.0,8077221286,1,6436208,False,,כפר סבא,הגליל,,6436-208-5,6436/208,13250.047321597578,32.174903104,34.9169973402,2009
2009-09-06,2009-06-09,"האקליפטוס 9, כפר סבא",האקליפטוס 9,6433-695-12,דירה בבית קומות,4.0,שלישית,89.3,1220000,,,1997.0,,4.0,8073104592,1,6433695,False,,כפר סבא,האקליפטוס,,6433-695-12,6433/695,13661.81410974244,32.1803773164,34.9177455937,2009
2009-09-06,2009-06-09,"ויינברג 8, כפר סבא",ויינברג 8,7621-468-54,דירה בבית קומות,4.0,שלישית,110.2,1265000,,,2009.0,,9.0,8072306650,1,7621468,False,,כפר סבא,ויינברג,,7621-468-54,7621/468,11479.128856624318,32.1968144607,34.8929793729,2009
2009-09-06,2009-06-09,"יציאת אירופה 3, כפר סבא",יציאת אירופה 3,6435-123-4,דירה בבית קומות,3.0,שניה,65.9,800000,,,1960.0,,2.0,8072239606,1,6435123,False,,כפר סבא,יציאת אירופה,,6435-123-4,6435/123,12139.605462822456,32.1721083814,34.920062462,2009
2009-09-03,2009-03-09,"ויינברג 8, כפר סבא",ויינברג 8,7621-468-30,דירה בבית קומות,4.0,שלישית,118.9,1258000,,,2009.0,,9.0,8068804230,1,7621468,False,,כפר סבא,ויינברג,,7621-468-30,7621/468,10580.31959629941,32.1968144607,34.8929793729,2009
2009-09-03,2009-03-09,"תל חי 22, כפר סבא",תל חי 22,6437-87-14,דירה בבית קומות,3.0,רביעית,67.8,845000,,,1970.0,,4.0,8068801714,1,643787,False,,כפר סבא,תל חי,,6437-87-14,6437/87,12463.126843657818,32.1725291236,34.9138318361,2009
2009-09-02,2009-02-09,"אהוד מנור 17, כפר סבא",אהוד מנור 17,6430-251-23,דירת גן,5.0,קרקע עליונה,116.78,1620000,,,2009.0,,8.0,8068416544,1,6430251,False,,כפר סבא,מנור אהוד,,6430-251-23,6430/251,13872.238396985786,32.1876028305,34.8949352677,2009
2009-09-02,2009-02-09,"גיל 7, כפר סבא",גיל 7,6427-671-43,דירה בבית קומות,3.0,שביעית,81.95,1150000,,,2007.0,,15.0,8067779108,1,6427671,False,30% ב 3 שנים,כפר סבא,גיל,10.0,6427-671-43,6427/671,14032.946918852958,32.1763628154,34.8912225112,2009
2009-09-02,2009-02-09,"חוחית 7, כפר סבא",חוחית 7,7604-57-21,דירה בבית קומות,3.0,ראשונה,71.0,950000,,,1991.0,,2.0,8068000146,1,760457,False,,כפר סבא,חוחית,,7604-57-21,7604/57,13380.281690140846,32.183860672,34.9303733185,2009
2009-08-31,2009-08-31,"זאב גולד 13, כפר סבא",זאב גולד 13,6433-744-9,דירה בבית קומות,6.0,"חמישית, שישית",185.5,2100000,,,2008.0,,5.0,8079035544,1,6433744,False,,כפר סבא,גולד זאב,,6433-744-9,6433/744,11320.754716981131,32.1803697416,34.9146907787,2009
2009-08-31,2009-08-31,"הגליל 47, כפר סבא",הגליל 47,6433-601-43,דירה בבית קומות,4.5,שלישית,97.0,1200000,,,1983.0,,8.0,8077710722,1,6433601,False,,כפר סבא,הגליל,,6433-601-43,6433/601,12371.134020618556,32.1793646735,34.9182798624,2009
2009-08-31,2009-08-31,"יוחנן הסנדלר 9, כפר סבא",יוחנן הסנדלר 9,7607-67-3,תעשיה,,ראשונה,600.0,1600000,,,1950.0,,1.0,8078384714,1,760767,False,,כפר סבא,יוחנן הסנדלר,,7607-67-3,7607/67,2666.6666666666665,32.1757463226,34.9284823707,2009
2009-08-31,2009-08-31,"המעלות 4, כפר סבא",המעלות 4,6429-164-1,אופציה,3.0,,80.0,260000,,,1960.0,,1.0,8078074580,1,6429164,False,,כפר סבא,המעלות,,6429-164-1,6429/164,3250.0,32.1794305876,34.8953348338,2009
2009-08-31,2009-08-31,"אהוד מנור 15, כפר סבא",אהוד מנור 15,6430-251-22,דירה בבית קומות,6.0,שביעית + שמינית,184.23,2270000,,,2009.0,,8.0,8077261394,1,6430251,False,,כפר סבא,מנור אהוד,,6430-251-22,6430/251,12321.554578515988,32.1876028305,34.8949352677,2009
2009-08-31,2009-08-31,"הרצל 42, כפר סבא",הרצל 42,6439-344-13,דירה בבית קומות,4.0,רביעית,94.3,1290000,,,1989.0,,5.0,8077096670,1,6439344,False,,כפר סבא,הרצל,,6439-344-13,6439/344,13679.745493107106,32.1741074093,34.91131272,2009
2009-08-31,2009-08-31,"תל חי 39, כפר סבא",תל חי 39,6438-149-14,חנות,,ראשונה,,124000,,,1990.0,,1.0,8076939198,1,6438149,False,7% ב 2 שנים,כפר סבא,תל חי,3.5,6438-149-14,6438/149,,32.1748973096,34.9140917395,2009
2009-08-31,2009-08-31,"מאיר אריאל 12, כפר סבא",מאיר אריאל 12,6430-233-28,דירה בבית קומות,6.0,שלישית,143.9,1775000,,,2009.0,,6.0,8076960436,1,6430233,False,,כפר סבא,מאיר אריאל,,6430-233-28,6430/233,12334.954829742876,32.189120527,34.895709681,2009
2009-08-30,2009-08-30,"ירמיהו 22, כפר סבא",ירמיהו 22,7594-10-1,בית בודד,3.0,קרקע,73.6,1315000,,,1958.0,,,8077896388,1,759410,False,,כפר סבא,ירמיהו,,7594-10-1,7594/10,17866.84782608696,32.1860155275,34.9343542286,2009
2009-08-30,2009-08-30,"ויצמן 163, כפר סבא",ויצמן 163,6435-130-33,דירה בבית קומות,5.0,חמישית+שישית,142.73,1800000,,,1998.0,,6.0,8076683972,1,6435130,False,52% ב 7.4 שנים,כפר סבא,ויצמן,7.03,6435-130-33,6435/130,12611.223989350525,32.1734958351,34.9176567387,2009
2009-08-30,2009-08-30,"השחר 12, כפר סבא",השחר 12,6433-398-39,דירה בבית קומות,4.0,שניה,95.3,1230000,,,1980.0,,8.0,8077232238,1,6433398,False,,כפר סבא,השחר,,6433-398-39,6433/398,12906.610703043025,32.1802491886,34.9101073494,2009
2009-08-30,2009-08-30,"קמינסקי 7, כפר סבא",קמינסקי 7,7621-467-61,דירה בבית קומות,5.0,שניה,131.1,1660000,,,2009.0,,9.0,8076747982,1,7621467,False,,כפר סבא,קמינסקי,,7621-467-61,7621/467,12662.090007627765,32.1967613012,34.8937526803,2009
2009-08-30,2009-08-30,"ג'ו עמר 6, כפר סבא",ג'ו עמר 6,6429-292-18,דירה בבית קומות,6.0,קרקע,128.0,2160000,,,2010.0,,6.0,8076666878,1,6429292,False,,כפר סבא,ג'ו עמר,,6429-292-18,6429/292,16875.0,32.1861219799,34.8923770191,2009
2009-08-28,2009-08-28,"הרמה 6, כפר סבא",הרמה 6,6433-535-9,דירה בבית קומות,3.0,שלישית,73.4,1040000,,,2018.0,,4.0,8077992810,1,6433535,False,72% ב 1.8 שנים,כפר סבא,הרמה,40.0,6433-535-9,6433/535,14168.937329700271,32.1777771045,34.9173037134,2009
2009-08-27,2009-08-27,"חצרות הדר 22, כפר סבא",חצרות הדר 22,6428-93-4,דירה בבית קומות,2.0,א,33.5,990000,,,1940.0,,1.0,8078538042,1,642893,False,,כפר סבא,חצרות הדר,,6428-93-4,6428/93,29552.238805970148,32.1809063367,34.900854772,2009
2009-08-27,2009-08-27,"קמינסקי 7, כפר סבא",קמינסקי 7,7621-467-5,דירה בבית קומות,5.0,שניה,131.1,1690000,,,2009.0,,9.0,8076743690,1,7621467,False,,כפר סבא,קמינסקי,,7621-467-5,7621/467,12890.922959572848,32.1967613012,34.8937526803,2009
2009-08-27,2009-08-27,"העמק 10, כפר סבא",העמק 10,6437-106-11,דירה בבית קומות,3.0,שלישית,73.0,1120000,,,1973.0,,4.0,8076701732,1,6437106,False,,כפר סבא,העמק,,6437-106-11,6437/106,15342.465753424658,32.172006928,34.9152054206,2009
2009-08-27,2009-08-27,"העמק 2, כפר סבא",העמק 2,6437-93-23,דירה בבית קומות,3.0,שלישית,63.0,990000,,,1970.0,,4.0,8076546554,1,643793,False,56% ב 6.2 שנים,כפר סבא,העמק,9.03,6437-93-23,6437/93,15714.285714285714,32.171165409,34.9149416839,2009
2009-08-27,2009-08-27,"אוסטשינסקי 16, כפר סבא",אוסטשינסקי 16,6426-236-5,דירה בבית קומות,3.0,ב,63.3,1080000,,,2023.0,,3.0,8077166304,1,6426236,False,,כפר סבא,אוסטשינסקי,,6426-236-5,6426/236,17061.611374407585,32.172070312,34.9046966658,2009
2009-08-27,2009-08-27,"לסל 5, כפר סבא",לסל 5,7595-110-0,בית בודד,4.0,,80.0,2400000,,,1948.0,,,8078036174,1,7595110,True,-17% ב 1.3 שנים,כפר סבא,לסל,-13.08,7595-110-0,7595/110,30000.0,32.1872262643,34.9055739976,2009
2009-08-26,2009-08-26,"ויינברג 9, כפר סבא",ויינברג 9,7621-474-31,דירה בבית קומות,5.0,שניה,141.05,1600000,,,2010.0,,10.0,8076611304,1,7621474,False,,כפר סבא,ויינברג,,7621-474-31,7621/474,11343.495214462955,32.1971360908,34.8918797681,2009
2009-08-25,2009-08-25,"ששת הימים 34, כפר סבא",ששת הימים 34,6427-525-17,דירה בבית קומות,5.0,ראשונה,118.0,1255000,,,1980.0,,7.0,8076416536,1,6427525,False,,כפר סבא,ששת הימים,,6427-525-17,6427/525,10635.593220338984,32.1762763816,34.8953610752,2009
2009-08-25,2009-08-25,"ויצמן 52, כפר סבא",ויצמן 52,6426-417-13,דירה בבית קומות,3.0,שניה,66.9,900000,,,1970.0,,6.0,8076911078,1,6426417,False,,כפר סבא,ויצמן,,6426-417-13,6426/417,13452.914798206277,32.1764876665,34.9018930531,2009
2009-08-25,2009-08-25,"סשה ארגוב 7, כפר סבא",סשה ארגוב 7,6430-240-11,דירה בבית קומות,5.0,רביעית,123.0,1700000,,,2009.0,,5.0,8076577782,1,6430240,False,,כפר סבא,ארגוב סשה,,6430-240-11,6430/240,13821.138211382116,32.1887087922,34.896325854,2009
2009-08-24,2009-08-24,"לוונברג 8, כפר סבא",לוונברג 8,7621-561-43,דירה בבית קומות,4.0,רביעית,101.4,1461000,,,2010.0,,5.0,8077037322,1,7621561,False,,כפר סבא,לוונברג,,7621-561-43,7621/561,14408.28402366864,32.1968767949,34.8946452926,2009
2009-08-24,2009-08-24,"שאול המלך 7, כפר סבא",שאול המלך 7,7600-155-13,דירה בבית קומות,3.0,שלישית,56.0,310000,,,1956.0,,4.0,8077802334,1,7600155,False,,כפר סבא,שאול המלך,,7600-155-13,7600/155,5535.714285714285,32.184293601,34.940326411,2009
2009-08-23,2009-08-23,"הכרמל 40, כפר סבא",הכרמל 40,6438-300-9,דירה בבית קומות,5.0,רביעית + גג,125.4,1469000,,,1970.0,,6.0,8076431780,1,6438300,False,,כפר סבא,הכרמל,,6438-300-9,6438/300,11714.51355661882,32.1778162052,34.9096863958,2009
2009-08-23,2009-08-23,"משה וילנסקי 9, כפר סבא",משה וילנסקי 9,6429-293-21,דירה בבית קומות,6.0,חמישית,132.56,1845000,,,2009.0,,6.0,8076666286,1,6429293,False,,כפר סבא,וילנסקי משה,,6429-293-21,6429/293,13918.225709112854,32.1859695007,34.8927406328,2009
2009-08-23,2009-08-23,"רוטשילד 13, כפר סבא",רוטשילד 13,6426-686-2,דירה בבית קומות,5.0,ראשונה,112.27,1480000,,,1983.0,,4.0,8077054490,1,6426686,False,,כפר סבא,רוטשילד,,6426-686-2,6426/686,13182.506457646745,32.1713024001,34.9069717038,2009
2009-08-23,2009-08-23,"הכלנית 3, כפר סבא",הכלנית 3,6427-534-9,דירה בבית קומות,4.0,שלישית,110.32,1414000,,,1981.0,,6.0,8076248630,1,6427534,False,55% ב 5.4 שנים,כפר סבא,הכלנית,10.19,6427-534-9,6427/534,12817.25888324873,32.175437007,34.8951075529,2009
2009-08-23,2009-08-23,"ג'ו עמר 6, כפר סבא",ג'ו עמר 6,6429-292-25,דירה בבית קומות,4.0,שניה,92.21,1450000,,,2010.0,,6.0,8076100926,1,6429292,False,,כפר סבא,ג'ו עמר,,6429-292-25,6429/292,15724.975599175796,32.1861219799,34.8923770191,2009
2009-08-23,2009-08-23,"שועלי שמשון 7, כפר סבא",שועלי שמשון 7,6435-213-2,דירה בבית קומות,3.0,ראשונה,70.8,1205000,,,1995.0,,5.0,8076804074,1,6435213,False,,כפר סבא,שועלי שמשון,,6435-213-2,6435/213,17019.774011299436,32.170806387,34.9205702719,2009
2009-08-20,2009-08-20,"אהוד מנור 15, כפר סבא",אהוד מנור 15,6430-251-21,דירה בבית קומות,6.0,שביעית + שמינית,180.3,2300000,,,2009.0,,8.0,8076608788,1,6430251,False,,כפר סבא,מנור אהוד,,6430-251-21,6430/251,12756.516916250692,32.1876028305,34.8949352677,2009
2009-08-20,2009-08-20,"האהבה 13, כפר סבא",האהבה 13,6435-256-2,דירה בבית קומות,4.0,ראשונה,104.0,1600000,,,2000.0,,5.0,8076766260,1,6435256,False,35% ב 4 שנים,כפר סבא,האהבה,8.75,6435-256-2,6435/256,15384.615384615385,32.1701611606,34.9215956475,2009
2009-08-19,2009-08-19,"תל חי 13, כפר סבא",תל חי 13,6439-224-13,דירה בבית קומות,4.0,חמישית,93.26,1240000,,,1970.0,,8.0,8076244412,1,6439224,False,55% ב 4.1 שנים,כפר סבא,תל חי,13.41,6439-224-13,6439/224,13296.161269568944,32.1719466843,34.9130045311,2009
2009-08-19,2009-08-19,"ויצמן 70, כפר סבא",ויצמן 70,6426-826-1,חנות,,קרקע,23.0,1200000,,,1988.0,,2.0,8077207744,1,6426826,False,,כפר סבא,ויצמן,,6426-826-1,6426/826,52173.91304347826,32.1760654123,34.9040829362,2009
2009-08-19,2009-08-19,"מאיר אריאל 12, כפר סבא",מאיר אריאל 12,6430-233-21,דירה בבית קומות,5.0,קרקע,131.15,2060000,,,2009.0,,6.0,8076476920,1,6430233,False,,כפר סבא,מאיר אריאל,,6430-233-21,6430/233,15707.205489897064,32.189120527,34.895709681,2009
2009-08-19,2009-08-19,"השלום 6, כפר סבא",השלום 6,6433-395-1,דירה בבית קומות,4.0,ראשונה,112.13,1400000,,,1985.0,,8.0,8076235754,1,6433395,False,59% ב 4.7 שנים,כפר סבא,השלום,12.55,6433-395-1,6433/395,12485.507892624631,32.1804247782,34.9106809176,2009
2009-08-18,2009-08-18,"הרעות 17, כפר סבא",הרעות 17,6435-242-2,דירה בבית קומות,4.0,קרקע תחתונה+קרקע,95.0,1660000,,,1999.0,,4.0,8076569272,1,6435242,False,53% ב 3.5 שנים,כפר סבא,הרעות,15.14,6435-242-2,6435/242,17473.684210526317,32.169973235,34.9224583329,2009
2009-08-18,2009-08-18,"אהוד מנור 17, כפר סבא",אהוד מנור 17,6430-251-45,דירה בבית קומות,6.0,שביעית + שמינית,184.23,2299000,,,2009.0,,8.0,8076484986,1,6430251,False,,כפר סבא,מנור אהוד,,6430-251-45,6430/251,12478.966509254737,32.1876028305,34.8949352677,2009
2009-08-18,2009-08-18,"מאיר אריאל 12, כפר סבא",מאיר אריאל 12,6430-233-31,דירה בבית קומות,6.0,רביעית,143.9,1750000,,,2009.0,,6.0,8076314564,1,6430233,False,,כפר סבא,מאיר אריאל,,6430-233-31,6430/233,12161.223071577484,32.189120527,34.895709681,2009
2009-08-18,2009-08-18,"ג'ו עמר 6, כפר סבא",ג'ו עמר 6,6429-292-34,דירה בבית קומות,4.0,חמישית,92.2,1480000,,,2010.0,,6.0,8076101518,1,6429292,False,,כפר סבא,ג'ו עמר,,6429-292-34,6429/292,16052.060737527114,32.1861219799,34.8923770191,2009
2009-08-17,2009-08-17,"המייסדים 1, כפר סבא",המייסדים 1,6438-146-9,דירה בבית קומות,3.5,א,45.6,1265000,,,1960.0,,2.0,8076169820,1,6438146,False,217% ב 8 שנים,כפר סבא,המיסדים,27.12,6438-146-9,6438/146,27741.22807017544,32.1751817838,34.9140055908,2009
2009-08-17,2009-08-17,"רוטשילד 17, כפר סבא",רוטשילד 17,6426-773-11,דירה בבית קומות,5.0,שלישית,111.0,1500000,,,1989.0,,4.0,8075952556,1,6426773,False,,כפר סבא,רוטשילד,,6426-773-11,6426/773,13513.513513513511,32.1717013268,34.9070970842,2009
2009-08-17,2009-08-17,"אהוד מנור 17, כפר סבא",אהוד מנור 17,6430-251-39,דירה בבית קומות,4.0,חמישית,106.07,1310000,,,2009.0,,8.0,8076478252,1,6430251,False,,כפר סבא,מנור אהוד,,6430-251-39,6430/251,12350.334684642216,32.1876028305,34.8949352677,2009
2009-08-17,2009-08-17,"העמק 16, כפר סבא",העמק 16,6437-165-11,דירה בבית קומות,4.0,רביעית,95.42,1585000,,,2006.0,,5.0,8077072250,1,6437165,False,56% ב 3 שנים,כפר סבא,העמק,18.67,6437-165-11,6437/165,16610.773422762522,32.172467533,34.9154805683,2009
2009-08-16,2009-08-16,"גיל 7, כפר סבא",גיל 7,6427-671-57,דירה בבית קומות,4.0,תשיעית,93.92,1450000,,,2007.0,,15.0,8076011090,1,6427671,False,24% ב 1.7 שנים,כפר סבא,גיל,14.12,6427-671-57,6427/671,15438.671209540034,32.1763628154,34.8912225112,2009
2009-08-16,2009-08-16,"יאיר רוזנבלום 28, כפר סבא",יאיר רוזנבלום 28,6430-239-17,דירה בבית קומות,5.0,רביעית,121.55,1660000,,,2009.0,,6.0,8076148434,1,6430239,False,,כפר סבא,רוזנבלום יאיר,,6430-239-17,6430/239,13656.931303990128,32.1889401805,34.8960754118,2009
2009-08-16,2009-08-16,"האהבה 13, כפר סבא",האהבה 13,6435-256-8,דירה בבית קומות,4.0,שלישית,76.0,1360000,,,2000.0,,5.0,8076224136,1,6435256,False,,כפר סבא,האהבה,,6435-256-8,6435/256,17894.736842105263,32.1701611606,34.9215956475,2009
2009-08-16,2009-08-16,"אהוד מנור 17, כפר סבא",אהוד מנור 17,6430-251-37,דירה בבית קומות,5.0,רביעית,130.41,1610000,,,2009.0,,8.0,8076480028,1,6430251,False,,כפר סבא,מנור אהוד,,6430-251-37,6430/251,12345.67901234568,32.1876028305,34.8949352677,2009
2009-08-13,2009-08-13,"ליאון בלום 4, כפר סבא",ליאון בלום 4,6426-520-4,דירה בבית קומות,2.5,שניה,44.92,800000,,,1950.0,,2.0,8076325590,1,6426520,False,24% ב 5.2 שנים,כפר סבא,בלום ליאון,4.62,6426-520-4,6426/520,17809.439002671414,32.1724879067,34.8995981096,2009
2009-08-13,2009-08-13,"הפרסה 5, כפר סבא",הפרסה 5,7606-213-1,משרד,,,8335.0,67000000,,,1996.0,,,8077937902,1,7606213,False,,כפר סבא,הפרסה,,7606-213-1,7606/213,8038.392321535693,32.1776588744,34.9292704806,2009
2009-08-13,2009-08-13,"חסידה 2, כפר סבא",חסידה 2,9088-43-9,דירה בבית קומות,5.0,שניה,116.0,1532000,,,2010.0,,7.0,8076549588,1,908843,False,,כפר סבא,חסידה,,9088-43-9,9088/43,13206.896551724138,32.1863311622,34.9267991889,2009
2009-08-13,2009-08-13,"יציאת אירופה 34, כפר סבא",יציאת אירופה 34,6435-211-19,דירה בבית קומות,5.5,שניה,118.95,1490000,,,1998.0,,6.0,8075732776,1,6435211,False,,כפר סבא,יציאת אירופה,,6435-211-19,6435/211,12526.271542664985,32.1713245769,34.921033617,2009
2009-08-13,2009-08-13,"צאלון 7, כפר סבא",צאלון 7,6438-270-3,דירה בבית קומות,5.0,שניה,113.44,1560000,,,1988.0,,5.0,8075784650,1,6438270,False,48% ב 6.8 שנים,כפר סבא,צאלון,7.06,6438-270-3,6438/270,13751.763046544427,32.1768603914,34.9110047192,2009
2009-08-13,2009-08-13,"לוונברג 2, כפר סבא",לוונברג 2,7621-562-13,דירה בבית קומות,5.0,שלישית,132.5,1717000,,,2009.0,,,8077044130,1,7621562,False,,כפר סבא,לוונברג,,7621-562-13,7621/562,12958.490566037735,32.1958632006,34.8947243478,2009
2009-08-13,2009-08-13,"גיסות השריון 5, כפר סבא",גיסות השריון 5,6435-80-22,דירה בבית קומות,3.0,שלישית,53.4,730000,,,1970.0,,4.0,8075974534,1,643580,False,,כפר סבא,גיסות השריון,,6435-80-22,6435/80,13670.411985018727,32.1727829301,34.9209145821,2009
2009-08-12,2009-12-08,"ג'ו עמר 2, כפר סבא",ג'ו עמר 2,6429-299-3,דירה בבית קומות,5.0,קרקע,121.0,1763000,,,2010.0,,5.0,8082207036,1,6429299,False,,כפר סבא,ג'ו עמר,,6429-299-3,6429/299,14570.247933884297,32.1855820197,34.8917942319,2009
2009-08-12,2009-12-08,"אמבר 10, כפר סבא",אמבר 10,6426-479-21,דירה בבית קומות,4.0,שישית,97.25,1670000,,,1970.0,,6.0,8082407354,1,6426479,False,,כפר סבא,אימבר,,6426-479-21,6426/479,17172.236503856042,32.1726307329,34.9024666898,2009
2009-08-12,2009-12-08,"האקליפטוס 13, כפר סבא",האקליפטוס 13,6433-691-5,דירה בבית קומות,3.5,שלישית,89.3,1380000,,,1997.0,,4.0,8081335242,1,6433691,False,74% ב 6.5 שנים,כפר סבא,האקליפטוס,11.38,6433-691-5,6433/691,15453.527435610304,32.1801841362,34.9185890712,2009
2009-08-11,2009-11-08,"ויצמן 74, כפר סבא",ויצמן 74,6441-12-56,דירה בבית קומות,3.0,א,74.0,1000000,,,1960.0,,5.0,8080045422,1,644112,False,61% ב 2.7 שנים,כפר סבא,ויצמן,22.59,6441-12-56,6441/12,13513.513513513511,32.1758121254,34.9050732626,2009
2009-08-11,2009-11-08,"תדהר 2, כפר סבא",תדהר 2,6433-458-1,קוטג' דו משפחתי,6.0,,200.0,2475000,,,1993.0,,,8079969054,1,6433458,False,,כפר סבא,תדהר,,6433-458-1,6433/458,12375.0,32.1811356654,34.9114535784,2009
2009-08-11,2009-11-08,"קמינסקי 7, כפר סבא",קמינסקי 7,7621-467-21,דירה בבית קומות,4.0,שניה,95.2,1405000,,,2009.0,,9.0,8080417346,1,7621467,False,,כפר סבא,קמינסקי,,7621-467-21,7621/467,14758.403361344535,32.1967613012,34.8937526803,2009
2009-08-11,2009-11-08,"הראשונים 21, כפר סבא",הראשונים 21,6435-254-3,דירה בבית קומות,4.0,ק.תחתונה+ראשונה,100.4,1520000,,,2001.0,,7.0,8079915848,1,6435254,False,83% ב 8.7 שנים,כפר סבא,הראשונים,9.54,6435-254-3,6435/254,15139.442231075696,32.1698472408,34.9212972269,2009
2009-08-09,2009-09-08,"שמעון פרוג 5, כפר סבא",שמעון פרוג 5,7621-316-4,דירה בבית קומות,2.0,ב',34.97,890000,,,1957.0,,2.0,8077622810,1,7621316,False,,כפר סבא,פרוג שמעון,,7621-316-4,7621/316,25450.386045181585,32.1915918623,34.8955714918,2009
2009-08-09,2009-09-08,"אברהם קרן 1, כפר סבא",אברהם קרן 1,6439-446-16,דירה בבית קומות,4.0,רביעית,96.12,1200000,,,1983.0,,6.0,8077299948,1,6439446,False,,כפר סבא,קרן אברהם,,6439-446-16,6439/446,12484.394506866416,32.1700777999,34.9108411716,2009
2009-08-09,2009-09-08,"סשה ארגוב 7, כפר סבא",סשה ארגוב 7,6430-240-22,דירה בבית קומות,5.0,שלישית,123.0,1710000,,,2009.0,,5.0,8077288922,1,6430240,False,,כפר סבא,ארגוב סשה,,6430-240-22,6430/240,13902.439024390244,32.1887087922,34.896325854,2009
2009-08-09,2009-09-08,"הכלנית 13, כפר סבא",הכלנית 13,6427-162-4,דירה בבית קומות,4.0,ראשונה,90.18,1243000,,,1973.0,,4.0,8078192536,1,6427162,False,55% ב 8.4 שנים,כפר סבא,הכלנית,6.55,6427-162-4,6427/162,13783.54402306498,32.1741610024,34.8946026622,2009
2009-08-09,2009-09-08,"יגאל ידין 6, כפר סבא",יגאל ידין 6,6437-139-2,קוטג' דו משפחתי,7.0,,215.0,2815000,,,1995.0,,,8077651522,1,6437139,False,,כפר סבא,ידין יגאל,,6437-139-2,6437/139,13093.023255813954,32.1708860796,34.9183368941,2009
2009-08-09,2009-09-08,"ויצמן 49, כפר סבא",ויצמן 49,6428-52-6,דירה בבית קומות,5.0,שניה+מרתף,105.3,1550000,,,1993.0,,4.0,8077301872,1,642852,False,,כפר סבא,ויצמן,,6428-52-6,6428/52,14719.848053181388,32.177221751,34.9013414483,2009
2009-08-09,2009-09-08,"אגרון 15, כפר סבא",אגרון 15,6426-284-11,דירה בבית קומות,5.0,רביעית,125.7,1480000,,,1970.0,,5.0,8077224912,1,6426284,False,,כפר סבא,אגרון,,6426-284-11,6426/284,11774.06523468576,32.1757782894,34.8981223557,2009
2009-08-07,2009-07-08,"מורן 12, כפר סבא",מורן 12,6430-192-17,דירה בבית קומות,3.5,שניה,82.0,1240000,,,1994.0,,3.0,8073781470,1,6430192,False,34% ב 8 שנים,כפר סבא,מורן,4.25,6430-192-17,6430/192,15121.951219512195,32.1872506866,34.8994487496,2009
2009-08-07,2009-07-08,"ויינברג 9, כפר סבא",ויינברג 9,7621-474-29,דירה בבית קומות,4.0,ראשונה,110.4,1301000,,,2010.0,,10.0,8073959810,1,7621474,False,,כפר סבא,ויינברג,,7621-474-29,7621/474,11784.420289855072,32.1971360908,34.8918797681,2009
2009-08-06,2009-06-08,"חסידה 2, כפר סבא",חסידה 2,9088-43-12,דירה בבית קומות,5.0,שלישית,116.0,1500000,,,2010.0,,7.0,8073299360,1,908843,False,,כפר סבא,חסידה,,9088-43-12,9088/43,12931.03448275862,32.1863311622,34.9267991889,2009
2009-08-06,2009-06-08,"ויתקין 27, כפר סבא",ויתקין 27,7621-205-1,בית בודד,2.0,,70.0,1199000,,,1956.0,,,8073289666,1,7621205,False,,כפר סבא,ויתקין,,7621-205-1,7621/205,17128.571428571428,32.1897475719,34.8981868747,2009
2009-08-04,2009-04-08,"ברנר 12, כפר סבא",ברנר 12,6428-43-7,דירה בבית קומות,4.0,רביעית,97.47,1187000,,,1977.0,,5.0,8070534350,1,642843,False,36% ב 9.7 שנים,כפר סבא,ברנר,3.71,6428-43-7,6428/43,12178.106083923258,32.1783240149,34.9007797001,2009
2009-08-03,2009-03-08,"דוד רמז 11, כפר סבא",דוד רמז 11,7620-232-10,דירה בבית קומות,3.5,שניה,35.0,800000,,,1960.0,,2.0,8069192434,1,7620232,False,53% ב 2.6 שנים,כפר סבא,רמז דוד,20.38,7620-232-10,7620/232,22857.14285714286,32.1892517608,34.9029049916,2009
2009-08-03,2009-03-08,"חניתה 15, כפר סבא",חניתה 15,6428-561-47,דירה בבית קומות,4.0,מרתף+שלישית,107.0,1545000,,,1996.0,,6.0,8068837826,1,6428561,False,,כפר סבא,חניתה,,6428-561-47,6428/561,14439.2523364486,32.1800989553,34.9057820543,2009
2009-08-02,2009-02-08,"טשרניחובסקי 24, כפר סבא",טשרניחובסקי 24,6427-546-60,משרד,,שלישית,51.0,491000,,,1990.0,,6.0,8069355456,1,6427546,False,,כפר סבא,טשרניחובסקי,,6427-546-60,6427/546,9627.450980392156,32.1771182814,34.8939186816,2009
2009-08-02,2009-02-08,"ביאליק 2, כפר סבא",ביאליק 2,6426-841-12,דירה בבית קומות,6.0,רביעית+חמישית,173.55,1625000,,,1991.0,,6.0,8067851702,1,6426841,False,,כפר סבא,ביאליק,,6426-841-12,6426/841,9363.295880149812,32.1700305014,34.9083052305,2009
2009-08-02,2009-02-08,"קפלנסקי 1, כפר סבא",קפלנסקי 1,7620-188-13,דירה בבית קומות,4.0,שניה,100.0,1100000,,,2001.0,,4.0,8067889664,1,7620188,False,,כפר סבא,קפלנסקי,,7620-188-13,7620/188,11000.0,32.1897313921,34.9040751416,2009
2009-08-01,2009-01-08,"הכרמל 39, כפר סבא",הכרמל 39,6433-738-8,דירה בבית קומות,4.0,שניה,100.0,1380000,,,1950.0,2008.0,9.0,8066493432,1,6433738,False,,כפר סבא,הכרמל,,6433-738-8,6433/738,13800.0,32.1781821647,34.9096232997,2009
2009-08-01,2009-01-08,"הרב אסף שמחה 3, כפר סבא",הרב אסף שמחה 3,6433-302-4,דירה בבית קומות,2.0,ראשונה,66.4,500000,,,1954.0,,1.0,8066342028,1,6433302,False,,כפר סבא,הרב אסף שמחה,,6433-302-4,6433/302,7530.12048192771,32.1811587228,34.9188384936,2009
2009-07-31,2009-07-31,"לוונברג 2, כפר סבא",לוונברג 2,7621-562-19,דירה בבית קומות,4.0,חמישית,106.2,1428000,,,2009.0,,,8076297988,1,7621562,False,,כפר סבא,לוונברג,,7621-562-19,7621/562,13446.327683615818,32.1958632006,34.8947243478,2009
2009-07-31,2009-07-31,"בקעת באר שבע 2, כפר סבא",בקעת באר שבע 2,7606-127-24,דירה בבית קומות,3.0,שלישית,73.5,1112000,,,2001.0,,7.0,8075090012,1,7606127,False,,כפר סבא,בקעת באר שבע,,7606-127-24,7606/127,15129.251700680272,32.1796780233,34.9305542941,2009
2009-07-31,2009-07-31,"הפרדס 8, כפר סבא",הפרדס 8,6426-670-20,דירה בבית קומות,5.0,חמישית,114.0,1700000,,,1991.0,,6.0,8075149212,1,6426670,False,,כפר סבא,הפרדס,,6426-670-20,6426/670,14912.280701754386,32.1739425348,34.8983103781,2009
2009-07-31,2009-07-31,"יאיר רוזנבלום 28, כפר סבא",יאיר רוזנבלום 28,6430-239-2,דירה בבית קומות,5.0,קרקע,121.79,1880000,,,2009.0,,6.0,8076120388,1,6430239,False,,כפר סבא,רוזנבלום יאיר,,6430-239-2,6430/239,15436.406929961408,32.1889401805,34.8960754118,2009
2009-07-30,2009-07-30,"לוונברג 4, כפר סבא",לוונברג 4,7621-562-37,דירה בבית קומות,5.0,שלישית,132.5,1736000,,,2011.0,,,8076299912,1,7621562,False,,כפר סבא,לוונברג,,7621-562-37,7621/562,13101.88679245283,32.1958632006,34.8947243478,2009
2009-07-30,2009-07-30,"לוונברג 4, כפר סבא",לוונברג 4,7621-562-44,דירה בבית קומות,5.0,רביעית+חמישית,134.5,2047000,,,2011.0,,,8076301096,1,7621562,False,,כפר סבא,לוונברג,,7621-562-44,7621/562,15219.330855018588,32.1958632006,34.8947243478,2009
2009-07-30,2009-07-30,"בקעת הירח 4, כפר סבא",בקעת הירח 4,7606-125-25,משרד,,שלישית,45.0,288000,,,2004.0,,4.0,8077442250,1,7606125,False,,כפר סבא,בקעת הירח,,7606-125-25,7606/125,6400.0,32.1797136055,34.929759445,2009
2009-07-29,2009-07-29,"אצ""ג 10, כפר סבא","אצ""ג 10",6431-385-3,קוטג' דו משפחתי,6.0,מרתף+קרקע+ראשונה+גג,194.28,2150000,,,1995.0,,,8074890878,1,6431385,False,,כפר סבא,"אצ""ג",,6431-385-3,6431/385,11066.50195593988,32.1864701575,34.9077972963,2009
2009-07-29,2009-07-29,"משה וילנסקי 9, כפר סבא",משה וילנסקי 9,6429-293-12,דירה בבית קומות,5.0,שלישית,118.3,1658000,,,2009.0,,6.0,8075083796,1,6429293,False,,כפר סבא,וילנסקי משה,,6429-293-12,6429/293,14015.215553677092,32.1859695007,34.8927406328,2009
2009-07-28,2009-07-28,"נחשון 7, כפר סבא",נחשון 7,6441-248-18,דירה בבית קומות,4.0,חמישית,93.69,1550000,,,1975.0,,5.0,8075542966,1,6441248,False,,כפר סבא,נחשון,,6441-248-18,6441/248,16543.92144305689,32.174910549,34.9062036446,2009
2009-07-27,2009-07-27,"אברהם פררה 1, כפר סבא",אברהם פררה 1,6430-249-24,דירה בבית קומות,4.0,רביעית,121.96,1452000,,,2009.0,,6.0,8075318228,1,6430249,False,,כפר סבא,פררה אברהם,,6430-249-24,6430/249,11905.542800918334,32.1879767611,34.8944026003,2009
2009-07-27,2009-07-27,"אהוד מנור 17, כפר סבא",אהוד מנור 17,6430-251-32,דירה בבית קומות,5.0,שלישית,131.06,1620000,,,2009.0,,8.0,8075304760,1,6430251,False,,כפר סבא,מנור אהוד,,6430-251-32,6430/251,12360.750801159777,32.1876028305,34.8949352677,2009
2009-07-26,2009-07-26,"חטיבת אלכסנדרוני 6, כפר סבא",חטיבת אלכסנדרוני 6,7603-87-8,דירה בבית קומות,4.0,קרקע,83.9,870000,,,1988.0,,4.0,8075041024,1,760387,False,,כפר סבא,חטיבת אלכסנדרוני,,7603-87-8,7603/87,10369.48748510131,32.1826254484,34.9320135749,2009
2009-07-23,2009-07-23,"ישעיהו 4, כפר סבא",ישעיהו 4,7593-48-2,בית בודד,4.0,קרקע,114.2,3020000,,,1950.0,,,8075199754,1,759348,False,,כפר סבא,ישעיהו,,7593-48-2,7593/48,26444.833625218915,32.1881418058,34.939384982,2009
2009-07-23,2009-07-23,"אהוד מנור 15, כפר סבא",אהוד מנור 15,6430-251-9,דירה בבית קומות,6.0,שלישית,144.97,1684000,,,2009.0,,8.0,8075086904,1,6430251,False,,כפר סבא,מנור אהוד,,6430-251-9,6430/251,11616.19645443885,32.1876028305,34.8949352677,2009
2009-07-23,2009-07-23,"אהוד מנור 17, כפר סבא",אהוד מנור 17,6430-251-35,דירה בבית קומות,5.0,רביעית,131.06,1593000,,,2009.0,,8.0,8075113692,1,6430251,False,,כפר סבא,מנור אהוד,,6430-251-35,6430/251,12154.738287807111,32.1876028305,34.8949352677,2009
2009-07-23,2009-07-23,"משה וילנסקי 9, כפר סבא",משה וילנסקי 9,6429-293-17,דירה בבית קומות,5.0,רביעית,118.2,1667000,,,2009.0,,6.0,8075084980,1,6429293,False,,כפר סבא,וילנסקי משה,,6429-293-17,6429/293,14103.21489001692,32.1859695007,34.8927406328,2009
2009-07-22,2009-07-22,"ויינברג 8, כפר סבא",ויינברג 8,7621-468-45,דירה בבית קומות,5.0,קרקע,128.0,1790000,,,2009.0,,9.0,8075736402,1,7621468,False,,כפר סבא,ויינברג,,7621-468-45,7621/468,13984.375,32.1968144607,34.8929793729,2009
2009-07-22,2009-07-22,"ויינברג 8, כפר סבא",ויינברג 8,7621-468-23,דירה בבית קומות,4.0,קרקע,111.7,1662000,,,2009.0,,9.0,8074771886,1,7621468,False,,כפר סבא,ויינברג,,7621-468-23,7621/468,14879.140555058191,32.1968144607,34.8929793729,2009
2009-07-22,2009-07-22,"יאיר רוזנבלום 28, כפר סבא",יאיר רוזנבלום 28,6430-239-20,דירה בבית קומות,5.0,חמישית,121.79,1583000,,,2009.0,,6.0,8074876892,1,6430239,False,,כפר סבא,רוזנבלום יאיר,,6430-239-20,6430/239,12997.783069217505,32.1889401805,34.8960754118,2009
2009-07-22,2009-07-22,"תל חי 11, כפר סבא",תל חי 11,6439-225-6,דירה בבית קומות,4.0,שניה,103.43,1150000,,,1980.0,,8.0,8074657112,1,6439225,False,,כפר סבא,תל חי,,6439-225-6,6439/225,11118.630958135936,32.1716362319,34.9129526873,2009
2009-07-22,2009-07-22,"נורדאו 2, כפר סבא",נורדאו 2,6435-284-8,דירה בבית קומות,5.0,קרקע+שלישית,124.3,1120000,,,1998.0,,3.0,8076809624,1,6435284,False,,כפר סבא,נורדאו,,6435-284-8,6435/284,9010.458567980691,32.172468368,34.9189895541,2009
2009-07-22,2009-07-22,"סשה ארגוב 7, כפר סבא",סשה ארגוב 7,6430-240-10,דירה בבית קומות,5.0,רביעית,128.0,1710000,,,2009.0,,5.0,8074905530,1,6430240,False,,כפר סבא,ארגוב סשה,,6430-240-10,6430/240,13359.375,32.1887087922,34.896325854,2009
2009-07-21,2009-07-21,"זבוטינסקי 2, כפר סבא",זבוטינסקי 2,6440-231-11,דירה בבית קומות,5.5,חמישית,166.0,2760000,,,1995.0,,7.0,8074658148,1,6440231,False,,כפר סבא,ז'בוטינסקי,,6440-231-11,6440/231,16626.506024096387,32.1789022398,34.906461394,2009
2009-07-21,2009-07-21,"העמק 48, כפר סבא",העמק 48,6436-82-18,דירה בבית קומות,4.0,חמישית,80.3,1085000,,,1970.0,,6.0,8075152838,1,643682,False,,כפר סבא,העמק,,6436-82-18,6436/82,13511.830635118307,32.1756166328,34.9163811617,2009
2009-07-21,2009-07-21,"שיינפיין 17, כפר סבא",שיינפיין 17,7621-478-3,דירה בבית קומות,5.0,קרקע,116.8,1800000,,,2011.0,,,8076781652,1,7621478,False,,כפר סבא,שיינפיין,,7621-478-3,7621/478,15410.95890410959,32.1971888463,34.8908526205,2009
2009-07-20,2009-07-20,"סשה ארגוב 7, כפר סבא",סשה ארגוב 7,6430-240-20,דירה בבית קומות,5.0,שניה,128.0,1675000,,,2009.0,,5.0,8074901238,1,6430240,False,,כפר סבא,ארגוב סשה,,6430-240-20,6430/240,13085.9375,32.1887087922,34.896325854,2009
2009-07-20,2009-07-20,"רוטשילד 28, כפר סבא",רוטשילד 28,6441-326-6,דירה בבית קומות,5.0,שלישית,111.0,1540000,,,1997.0,,4.0,8074761452,1,6441326,False,,כפר סבא,רוטשילד,,6441-326-6,6441/326,13873.873873873874,32.1729316294,34.908111028,2009
2009-07-20,2009-07-20,"לוי אשכול 45, כפר סבא",לוי אשכול 45,7602-138-16,דירה בבית קומות,3.0,ב',46.5,760000,,,1960.0,,3.0,8074689376,1,7602138,False,85% ב 8 שנים,כפר סבא,אשכול לוי,10.62,7602-138-16,7602/138,16344.086021505376,32.1824000843,34.940273978,2009
2009-07-19,2009-07-19,"אלתרמן 15, כפר סבא",אלתרמן 15,6438-253-22,דירה בבית קומות,5.0,שישית + גג,138.1,1500000,,,1982.0,,6.0,8074194316,1,6438253,False,,כפר סבא,אלתרמן,,6438-253-22,6438/253,10861.694424330197,32.176436531,34.9126749614,2009
2009-07-19,2009-07-19,"אברהם פררה 1, כפר סבא",אברהם פררה 1,6430-249-23,דירה בבית קומות,5.0,רביעית,128.31,1603000,,,2009.0,,6.0,8074330402,1,6430249,False,,כפר סבא,פררה אברהם,,6430-249-23,6430/249,12493.18057828696,32.1879767611,34.8944026003,2009
2009-07-16,2009-07-16,"משה וילנסקי 9, כפר סבא",משה וילנסקי 9,6429-293-20,דירה בבית קומות,6.0,חמישית,132.56,1777000,,,2009.0,,6.0,8074209560,1,6429293,False,,כפר סבא,וילנסקי משה,,6429-293-20,6429/293,13405.250452625229,32.1859695007,34.8927406328,2009
2009-07-16,2009-07-16,"דיין משה 7, כפר סבא",דיין משה 7,6435-169-20,דירה בבית קומות,3.5,שניה,76.38,1195000,,,1992.0,,5.0,8074470780,1,6435169,False,54% ב 5.7 שנים,כפר סבא,דיין משה,9.47,6435-169-20,6435/169,15645.456925896831,32.1742491946,34.919402715,2009
2009-07-15,2009-07-15,"מורן 6, כפר סבא",מורן 6,6430-194-22,דירה בבית קומות,4.0,ראשונה,96.0,1430000,,,1996.0,,4.0,8074418314,1,6430194,False,,כפר סבא,מורן,,6430-194-22,6430/194,14895.833333333334,32.1869407001,34.8999030183,2009
2009-07-15,2009-07-15,"לוונברג 2, כפר סבא",לוונברג 2,7621-562-11,דירה בבית קומות,4.0,שלישית,106.2,1326000,,,2009.0,,,8074839522,1,7621562,False,,כפר סבא,לוונברג,,7621-562-11,7621/562,12485.875706214689,32.1958632006,34.8947243478,2009
2009-07-14,2009-07-14,"המוביל 27, כפר סבא",המוביל 27,7606-123-4,דירה בבית קומות,4.0,ראשונה,85.1,1310000,,,2002.0,,6.0,8074424530,1,7606123,False,,כפר סבא,המוביל,,7606-123-4,7606/123,15393.654524089308,32.1806013953,34.9304832691,2009
2009-07-14,2009-07-14,"אהוד מנור 11, כפר סבא",אהוד מנור 11,6430-255-13,דירה בבית קומות,6.0,רביעית + חמישית,142.54,1999000,,,2009.0,,6.0,8074712686,1,6430255,False,,כפר סבא,מנור אהוד,,6430-255-13,6430/255,14024.13357653992,32.1871055646,34.8957080456,2009
2009-07-14,2009-07-14,"סשה ארגוב 7, כפר סבא",סשה ארגוב 7,6430-240-28,דירה בבית קומות,7.0,חמישית + שישית,210.0,2666000,,,2009.0,,5.0,8074326184,1,6430240,False,,כפר סבא,ארגוב סשה,,6430-240-28,6430/240,12695.238095238095,32.1887087922,34.896325854,2009
2009-07-13,2009-07-13,"תל חי 39, כפר סבא",תל חי 39,6438-149-6,חנות,,מרתף+קרקע+בינים,56.0,350000,,,1990.0,,1.0,8074735108,1,6438149,False,18% ב 2.5 שנים,כפר סבא,תל חי,7.2,6438-149-6,6438/149,6250.0,32.1748973096,34.9140917395,2009
2009-07-13,2009-07-13,"דוד זהבי 7, כפר סבא",דוד זהבי 7,6429-305-11,דירה בבית קומות,5.0,ראשונה,124.9,1600000,,,2009.0,,4.0,8074340244,1,6429305,False,,כפר סבא,זהבי דוד,,6429-305-11,6429/305,12810.248198558846,32.1848343713,34.8937002953,2009
2009-07-13,2009-07-13,"יבנה 8, כפר סבא",יבנה 8,6433-248-2,דירה בבית קומות,4.5,קרקע,37.33,1215000,,,1988.0,,1.0,8074358522,1,6433248,False,35% ב 2 שנים,כפר סבא,יבנה,17.5,6433-248-2,6433/248,32547.5488882936,32.1808872247,34.9138808144,2009
2009-07-13,2009-07-13,"הגליל 49, כפר סבא",הגליל 49,6433-581-8,דירה בבית קומות,4.0,שלישית,95.5,1225000,,,1987.0,,5.0,8074106922,1,6433581,False,,כפר סבא,הגליל,,6433-581-8,6433/581,12827.225130890052,32.1798120606,34.9186077511,2009
2009-07-13,2009-07-13,"ירמיהו 10, כפר סבא",ירמיהו 10,8191-7-1,קוטג' דו משפחתי,5.0,,180.0,1648000,,,1988.0,,,8075334656,1,81917,False,,כפר סבא,ירמיהו,,8191-7-1,8191/7,9155.555555555557,32.186574773,34.9360492032,2009
2009-07-13,2009-07-13,"ויינברג 8, כפר סבא",ויינברג 8,7621-468-79,דירה בבית קומות,5.0,ראשונה,140.4,1543000,,,2009.0,,9.0,8074679534,1,7621468,False,,כפר סבא,ויינברג,,7621-468-79,7621/468,10990.02849002849,32.1968144607,34.8929793729,2009
2009-07-12,2009-12-07,"ויצמן 198, כפר סבא",ויצמן 198,6435-253-12,דירה בבית קומות,5.0,שלישית,115.0,1660000,,,2007.0,,4.0,8081660694,1,6435253,False,59% ב 3.1 שנים,כפר סבא,ויצמן,19.03,6435-253-12,6435/253,14434.782608695652,32.1718670967,34.9219194589,2009
2009-07-10,2009-10-07,"אז""ר 38, כפר סבא","אז""ר 38",6431-339-1,קוטג' דו משפחתי,5.0,,126.12,2050000,,,1986.0,,,8078579630,1,6431339,False,58% ב 6.6 שנים,כפר סבא,"אז""ר",8.79,6431-339-1,6431/339,16254.360926102125,32.1834318123,34.9104098779,2009
2009-07-10,2009-10-07,"עמק עירון 12, כפר סבא",עמק עירון 12,7618-302-10,דירה בבית קומות,4.0,שלישית,92.9,1445000,,,2006.0,,5.0,8079348120,1,7618302,False,35% ב 3.2 שנים,כפר סבא,עמק עירון,10.94,7618-302-10,7618/302,15554.359526372442,32.1774343948,34.934019951,2009
2009-07-09,2009-09-07,"יאיר רוזנבלום 22, כפר סבא",יאיר רוזנבלום 22,6430-276-67,דירה בבית קומות,6.0,שלישית,129.96,1655000,,,2008.0,,7.0,8077549550,1,6430276,False,,כפר סבא,רוזנבלום יאיר,,6430-276-67,6430/276,12734.68759618344,32.1896177943,34.8950223097,2009
2009-07-09,2009-09-07,"קמינסקי 7, כפר סבא",קמינסקי 7,7621-467-8,דירה בבית קומות,5.0,שלישית,131.1,1652000,,,2009.0,,9.0,8077481100,1,7621467,False,,כפר סבא,קמינסקי,,7621-467-8,7621/467,12601.067887109077,32.1967613012,34.8937526803,2009
2009-07-09,2009-09-07,"ויינברג 8, כפר סבא",ויינברג 8,7621-468-89,דירה בבית קומות,4.0,רביעית,94.0,1420000,,,2009.0,,9.0,8077478806,1,7621468,False,,כפר סבא,ויינברג,,7621-468-89,7621/468,15106.382978723404,32.1968144607,34.8929793729,2009
2009-07-09,2009-09-07,"אהרונוביץ 3, כפר סבא",אהרונוביץ 3,6426-316-6,דירה בבית קומות,3.0,שניה,65.05,1100000,,,1974.0,,4.0,8077300540,1,6426316,False,71% ב 10.1 שנים,כפר סבא,אהרונוביץ,7.03,6426-316-6,6426/316,16910.069177555728,32.1723916618,34.9018642368,2009
2009-07-08,2009-08-07,"הכרמל 13, כפר סבא",הכרמל 13,6428-556-49,דירה בבית קומות,5.0,מרתף+חמישית,127.1,1760000,,,1995.0,,8.0,8075494644,1,6428556,False,,כפר סבא,הכרמל,,6428-556-49,6428/556,13847.364280094414,32.1793999061,34.9051380213,2009
2009-07-08,2009-08-07,"הרצפלד אברהם 2, כפר סבא",הרצפלד אברהם 2,6431-307-9,דירה בבית קומות,3.0,שלישית,73.4,900000,,,1970.0,,4.0,8075494052,1,6431307,False,78% ב 8.5 שנים,כפר סבא,הרצפלד אברהם,9.18,6431-307-9,6431/307,12261.580381471387,32.1848893098,34.9037206711,2009
2009-07-07,2009-07-07,"אהוד מנור 11, כפר סבא",אהוד מנור 11,6430-255-16,דירה בבית קומות,6.0,חמישית + שישית,164.71,2222000,,,2009.0,,6.0,8074159388,1,6430255,False,,כפר סבא,מנור אהוד,,6430-255-16,6430/255,13490.377026288628,32.1871055646,34.8957080456,2009
2009-07-07,2009-07-07,"השלום 12, כפר סבא",השלום 12,6433-397-34,דירה בבית קומות,3.0,שניה,57.96,945000,,,1980.0,,7.0,8074161904,1,6433397,False,31% ב 4.9 שנים,כפר סבא,השלום,6.33,6433-397-34,6433/397,16304.347826086956,32.1794727848,34.912232615,2009
